{
	"type": "FeatureCollection",
	"crs": { "type": "name", "properties": { "name": "urn:ogc:def:crs:OGC:1.3:CRS84" } },
	"features": [
		{ "type": "Feature", "id": 1, "properties": { "name": "Alexandra Park JCP", "address": "91 Moss Lane East, Moss Side, Manchester, M15 5JB" }, "geometry": { "type": "Point", "coordinates": [ -2.2519663, 53.4604097 ] } },
		{ "type": "Feature", "id": 2, "properties": { "name": "Altrincham JCP", "address": "Robert House, 80 Manchester Road, Altrincham, WA14 4PU" }, "geometry": { "type": "Point", "coordinates": [ -2.3520253, 53.3960363 ] } },
		{ "type": "Feature", "id": 3, "properties": { "name": "Ashton Under Lyne JCP", "address": "101 Old Street, Ashton-under-Lyne, OL6 6BJ" }, "geometry": { "type": "Point", "coordinates": [ -2.0950357, 53.4877854 ] } },
		{ "type": "Feature", "id": 4, "properties": { "name": "Ashton-in-Makerfield JCP", "address": "17-19 Gerard Street, Ashton-in-Makerfield, Wigan, WN4 9AB" }, "geometry": { "type": "Point", "coordinates": [ -2.636758, 53.4871831 ] } },
		{ "type": "Feature", "id": 5, "properties": { "name": "Atherton JCP", "address": "129 Market Street, Atherton, M46 0DF" }, "geometry": { "type": "Point", "coordinates": [ -2.4963319, 53.5236636 ] } },
		{ "type": "Feature", "id": 6, "properties": { "name": "Bolton JCP", "address": "52 Blackhorse Street, Bolton, BL1 1SX" }, "geometry": { "type": "Point", "coordinates": [ -2.432266, 53.577386 ] } },
		{ "type": "Feature", "id": 7, "properties": { "name": "Bury JCP", "address": "Silver Street, Bury, BL9 0DP" }, "geometry": { "type": "Point", "coordinates": [ -2.2995534, 53.5916059 ] } },
		{ "type": "Feature", "id": 8, "properties": { "name": "Cheetham Hill JCP", "address": "36 Crescent Road, Cheetham Hill, Manchester, M8 9DQ" }, "geometry": { "type": "Point", "coordinates": [ -2.2429123, 53.5121615 ] } },
		{ "type": "Feature", "id": 9, "properties": { "name": "Chorlton JCP", "address": "Graeme House, Wilbraham Road, Chorlton-cum-Hardy, Manchester, M21 9BU" }, "geometry": { "type": "Point", "coordinates": [ -2.2788098, 53.443165 ] } },
		{ "type": "Feature", "id": 10, "properties": { "name": "Didsbury JCP", "address": "Danesmore Road 95-97, Palatine Road, West Didsbury, Manchester, M20 3JQ" }, "geometry": { "type": "Point", "coordinates": [ -2.2354529, 53.4259596 ] } },
		{ "type": "Feature", "id": 11, "properties": { "name": "Eccles JCP", "address": "Peel House, Monton Road, Eccles, M30 0NA" }, "geometry": { "type": "Point", "coordinates": [ -2.339101, 53.48437 ] } },
		{ "type": "Feature", "id": 12, "properties": { "name": "Farnworth JCP", "address": "99 King Street, Farnworth, Bolton, BL4 7AX" }, "geometry": { "type": "Point", "coordinates": [ -2.398983, 53.54781 ] } },
		{ "type": "Feature", "id": 13, "properties": { "name": "Heywood JCP", "address": "Taylor Street, Heywood, OL10 1ED" }, "geometry": { "type": "Point", "coordinates": [ -2.2208558, 53.5922715 ] } },
		{ "type": "Feature", "id": 14, "properties": { "name": "Hyde JCP", "address": "Beech House, New Beech Street, Hyde, SK14 2LS" }, "geometry": { "type": "Point", "coordinates": [ -2.078741, 53.45232 ] } },
		{ "type": "Feature", "id": 15, "properties": { "name": "Irlam JCP", "address": "71-73 Liverpool Road, Cadishead, Irlam, M44 5BG" }, "geometry": { "type": "Point", "coordinates": [ -2.433227, 53.43146 ] } },
		{ "type": "Feature", "id": 16, "properties": { "name": "Leigh JCP", "address": "Roydale House, 2-10 Windermere Road, Leigh, WN7 1UT" }, "geometry": { "type": "Point", "coordinates": [ -2.519841, 53.499701 ] } },
		{ "type": "Feature", "id": 17, "properties": { "name": "Longsight JCP", "address": "123 Clarence Road, Longsight, M13 0ZL" }, "geometry": { "type": "Point", "coordinates": [ -2.2065433, 53.4553612 ] } },
		{ "type": "Feature", "id": 18, "properties": { "name": "Manchester Airport JCP", "address": "Commonwealth House, Chicago Avenue, M90 3JB" }, "geometry": { "type": "Point", "coordinates": [ -2.2741436, 53.3661519 ] } },
		{ "type": "Feature", "id": 19, "properties": { "name": "Middleton JCP", "address": "Othen House, 7 Oldham Road, Manchester, M24 1BX" }, "geometry": { "type": "Point", "coordinates": [ -2.1966895, 53.5482054 ] } },
		{ "type": "Feature", "id": 20, "properties": { "name": "Newton Heath JCP", "address": "1009 Oldham Road, Newton Heath, M40 2EP" }, "geometry": { "type": "Point", "coordinates": [ -2.1869268, 53.5023792 ] } },
		{ "type": "Feature", "id": 21, "properties": { "name": "Oldham JCP", "address": "Tweedale House, 75 Union Street, Oldham, OL1 1LH" }, "geometry": { "type": "Point", "coordinates": [ -2.1133446, 53.5403106 ] } },
		{ "type": "Feature", "id": 22, "properties": { "name": "Openshaw JCP", "address": "Cornwall Street, Openshhaw, M11 2WR" }, "geometry": { "type": "Point", "coordinates": [ -2.173748, 53.4722984 ] } },
		{ "type": "Feature", "id": 23, "properties": { "name": "Prestwich JCP", "address": "1 Rectory Lane, Prestwich, M25 1BP" }, "geometry": { "type": "Point", "coordinates": [ -2.2429123, 53.5121615 ] } },
		{ "type": "Feature", "id": 24, "properties": { "name": "Rochdale JCP", "address": "2 Fleece Street, Rochdale, OL16 1LT" }, "geometry": { "type": "Point", "coordinates": [ -2.1568065, 53.6163708 ] } },
		{ "type": "Feature", "id": 25, "properties": { "name": "Rusholme JCP", "address": "96 Wilmslow Road, Rusholme, M14 5BJ" }, "geometry": { "type": "Point", "coordinates": [ -2.2245273, 53.4539393 ] } },
		{ "type": "Feature", "id": 26, "properties": { "name": "Salford JCP", "address": "Baskerville House, New Bailey Street, Salford, M60 9HP" }, "geometry": { "type": "Point", "coordinates": [ -2.2536162, 53.482715 ] } },
		{ "type": "Feature", "id": 27, "properties": { "name": "Stalybridge JCP", "address": "15 Waterloo Road, Stalybridge, SK15 2AX" }, "geometry": { "type": "Point", "coordinates": [ -2.0596578, 53.4844802 ] } },
		{ "type": "Feature", "id": 28, "properties": { "name": "Stockport JCP", "address": "Heron House, Wellington Street, Stockport, SK1 3BE" }, "geometry": { "type": "Point", "coordinates": [ -2.159193, 53.4082933 ] } },
		{ "type": "Feature", "id": 29, "properties": { "name": "Stretford JCP", "address": "Arndale House, Chester Road, Stretford, Manchester, M32 9ED" }, "geometry": { "type": "Point", "coordinates": [ -2.3088952, 53.44481 ] } },
		{ "type": "Feature", "id": 30, "properties": { "name": "Wigan JCP", "address": "Brocol House, 71 King Street, Wigan, WN1 1EA" }, "geometry": { "type": "Point", "coordinates": [ -2.6297798, 53.5434497 ] } },
		{ "type": "Feature", "id": 31, "properties": { "name": "Worsley JCP", "address": "5 Worsley Court, High Street, Walkden, Worsley, Manchester, M28 6AD" }, "geometry": { "type": "Point", "coordinates": [ -2.40019, 53.52418 ] } },
		{ "type": "Feature", "id": 32, "properties": { "name": "Wythenshawe JCP", "address": "Simon House, Wavell Road, Wythenshawe, Manchester, M22 5RA" }, "geometry": { "type": "Point", "coordinates": [ -2.2584307, 53.3785687 ] } }
	]
}