{
"type": "FeatureCollection",
"crs": { "type": "name", "properties": { "name": "urn:ogc:def:crs:OGC:1.3:CRS84" } },
"features": [
{ "type": "Feature", "properties": { "name": "Amirah Balti", "address": " 15 Station Road, Urmston, Manchester", "postcode": "M41 9JG", "area_name": "Trafford" }, "geometry": { "type": "Point", "coordinates": [ -2.352646, 53.44749 ] } },
{ "type": "Feature", "properties": { "name": "Anet's Deli", "address": " 75 Cross Street, Sale", "postcode": "M33 7HF", "area_name": "Trafford" }, "geometry": { "type": "Point", "coordinates": [ -2.32336, 53.427689 ] } },
{ "type": "Feature", "properties": { "name": "Archers", "address": " 5 Navigation Road, Altrincham, Cheshire", "postcode": "WA14 1LW", "area_name": "Trafford" }, "geometry": { "type": "Point", "coordinates": [ -2.351075, 53.397653 ] } },
{ "type": "Feature", "properties": { "name": "Barburrito", "address": "2 The Orient,  Trafford Park, Manchester", "postcode": "M17 8EH", "area_name": "Trafford" }, "geometry": { "type": "Point", "coordinates": [ -2.34902, 53.466187 ] } },
{ "type": "Feature", "properties": { "name": "Bei Jing", "address": " 79 Great Stone Road, Stretford, Manchester", "postcode": "M32 8GR", "area_name": "Trafford" }, "geometry": { "type": "Point", "coordinates": [ -2.286284, 53.453015 ] } },
{ "type": "Feature", "properties": { "name": "Canton Taste Chinese", "address": " 116 Flixton Road, Urmston, Manchester", "postcode": "M41 5AL", "area_name": "Trafford" }, "geometry": { "type": "Point", "coordinates": [ -2.360467, 53.448329 ] } },
{ "type": "Feature", "properties": { "name": "Charlie's Chippy", "address": "Charlies Chippy, Hilton Avenue, Urmston, Manchester", "postcode": "M41 0TP", "area_name": "Trafford" }, "geometry": { "type": "Point", "coordinates": [ -2.353504, 53.44933 ] } },
{ "type": "Feature", "properties": { "name": "Chinese Kitchen", "address": " 12 Deansgate Lane, Timperley, Altrincham", "postcode": "WA15 6SB", "area_name": "Trafford" }, "geometry": { "type": "Point", "coordinates": [ -2.34011101722717, 53.397586822509801 ] } },
{ "type": "Feature", "properties": { "name": "Coral", "address": " 212 Manchester Road, Altrincham, Cheshire", "postcode": "WA14 5LU", "area_name": "Trafford" }, "geometry": { "type": "Point", "coordinates": [ -2.352097, 53.401182 ] } },
{ "type": "Feature", "properties": { "name": "Costa's Fish & Chips", "address": " 35 Hale Road, Altrincham", "postcode": "WA14 2EY", "area_name": "Trafford" }, "geometry": { "type": "Point", "coordinates": [ -2.348885, 53.381767 ] } },
{ "type": "Feature", "properties": { "name": "Cowtown Grill", "address": " 85 Washway Road, Sale", "postcode": "M33 7TQ", "area_name": "Trafford" }, "geometry": { "type": "Point", "coordinates": [ -2.329318, 53.421588 ] } },
{ "type": "Feature", "properties": { "name": "Craven Road Fish & Chips", "address": " 34A Craven Road, Broadheath Altrincham, Cheshire", "postcode": "WA14 5JD", "area_name": "Trafford" }, "geometry": { "type": "Point", "coordinates": [ -2.359537, 53.402382 ] } },
{ "type": "Feature", "properties": { "name": "Deli Fresh", "address": " 133 Park Road, Stretford, Manchester", "postcode": "M32 8FB", "area_name": "Trafford" }, "geometry": { "type": "Point", "coordinates": [ -2.317034, 53.453127 ] } },
{ "type": "Feature", "properties": { "name": "Dhaanya Indian Takeaway", "address": " 173 Cross Street, Sale", "postcode": "M33 7JQ", "area_name": "Trafford" }, "geometry": { "type": "Point", "coordinates": [ -2.319712, 53.43081 ] } },
{ "type": "Feature", "properties": { "name": "Domino's Pizza", "address": " 25 Flixton Road, Urmston, Manchester", "postcode": "M41 5AW", "area_name": "Trafford" }, "geometry": { "type": "Point", "coordinates": [ -2.355408, 53.448263 ] } },
{ "type": "Feature", "properties": { "name": "Domino's Pizza", "address": " 1a Sinderland Road, Altrincham", "postcode": "WA14 5EU", "area_name": "Trafford" }, "geometry": { "type": "Point", "coordinates": [ -2.353749, 53.400988 ] } },
{ "type": "Feature", "properties": { "name": "Domino's Pizza", "address": " 30 Stamford New Road, Altrincham, Cheshire", "postcode": "WA14 1EJ", "area_name": "Trafford" }, "geometry": { "type": "Point", "coordinates": [ -2.348407, 53.387683 ] } },
{ "type": "Feature", "properties": { "name": "Domino's Pizzas", "address": " 45 Washway Road, Sale", "postcode": "M33 7AB", "area_name": "Trafford" }, "geometry": { "type": "Point", "coordinates": [ -2.327301, 53.42341 ] } },
{ "type": "Feature", "properties": { "name": "eCK", "address": " 10 The Circle, Stretford, Manchester", "postcode": "M32 9TR", "area_name": "Trafford" }, "geometry": { "type": "Point", "coordinates": [ -2.336501, 53.456516 ] } },
{ "type": "Feature", "properties": { "name": "Ellie's Pizza", "address": " 19 Tatton Road, Sale", "postcode": "M33 7EB", "area_name": "Trafford" }, "geometry": { "type": "Point", "coordinates": [ -2.320334, 53.425513 ] } },
{ "type": "Feature", "properties": { "name": "Emilios", "address": " 197 Marsland Road, Sale", "postcode": "M33 3ND", "area_name": "Trafford" }, "geometry": { "type": "Point", "coordinates": [ -2.320484, 53.417334 ] } },
{ "type": "Feature", "properties": { "name": "Evergreen Takeaway", "address": " 135 Barton Road, Stretford, Manchester", "postcode": "M32 8DN", "area_name": "Trafford" }, "geometry": { "type": "Point", "coordinates": [ -2.314259, 53.446446 ] } },
{ "type": "Feature", "properties": { "name": "Food on Third", "address": "378 Cooper House, Third Avenue, Trafford Park, Manchester", "postcode": "M17 1JE", "area_name": "Trafford" }, "geometry": { "type": "Point", "coordinates": [ -2.310246, 53.466034 ] } },
{ "type": "Feature", "properties": { "name": "Four Seasons", "address": " 400 Barton Road, Stretford, Manchester", "postcode": "M32 9RW", "area_name": "Trafford" }, "geometry": { "type": "Point", "coordinates": [ -2.32587, 53.454613 ] } },
{ "type": "Feature", "properties": { "name": "Gold Lion", "address": " 4 North Parade, Sale, Cheshire", "postcode": "M33 3JS", "area_name": "Trafford" }, "geometry": { "type": "Point", "coordinates": [ -2.308508, 53.413339 ] } },
{ "type": "Feature", "properties": { "name": "Golden Dragon", "address": " 91 Manchester Road, Altrincham", "postcode": "WA14 4RJ", "area_name": "Trafford" }, "geometry": { "type": "Point", "coordinates": [ -2.352436, 53.396803 ] } },
{ "type": "Feature", "properties": { "name": "Golden Star", "address": " 172 Cross Street, Sale, Cheshire", "postcode": "M33 7AQ", "area_name": "Trafford" }, "geometry": { "type": "Point", "coordinates": [ -2.319901, 53.429955 ] } },
{ "type": "Feature", "properties": { "name": "Greenhalgh's Craft Bakery Ltd", "address": " 12 The Mall, Sale", "postcode": "M33 7XZ", "area_name": "Trafford" }, "geometry": { "type": "Point", "coordinates": [ -2.322374, 53.424547 ] } },
{ "type": "Feature", "properties": { "name": "Greenhalgh's Craft Bakery Ltd", "address": " 88 Stretford Mall, Stretford, Manchester", "postcode": "M32 9BD", "area_name": "Trafford" }, "geometry": { "type": "Point", "coordinates": [ -2.310832, 53.445215 ] } },
{ "type": "Feature", "properties": { "name": "i cook", "address": " 12 Lloyd Street, Altrincham", "postcode": "WA14 2DE", "area_name": "Trafford" }, "geometry": { "type": "Point", "coordinates": [ -2.351581, 53.38424 ] } },
{ "type": "Feature", "properties": { "name": "Jin Ho Fish and Chips", "address": " 266 Upper Chorlton Road, Old Trafford, Manchester", "postcode": "M16 0BN", "area_name": "Trafford" }, "geometry": { "type": "Point", "coordinates": [ -2.272296, 53.450873 ] } },
{ "type": "Feature", "properties": { "name": "Joans Chippy", "address": " 36 Dargle Road, Sale, Cheshire", "postcode": "M33 7FW", "area_name": "Trafford" }, "geometry": { "type": "Point", "coordinates": [ -2.318289, 53.429735 ] } },
{ "type": "Feature", "properties": { "name": "Koo's Cantonese Takeaway", "address": " 18 Eastway, Sale", "postcode": "M33 4DX", "area_name": "Trafford" }, "geometry": { "type": "Point", "coordinates": [ -2.340248, 53.410879 ] } },
{ "type": "Feature", "properties": { "name": "Legends Bar & Food Ltd", "address": " 672 Chester Road, Stretford, Manchester", "postcode": "M32 0SF", "area_name": "Trafford" }, "geometry": { "type": "Point", "coordinates": [ -2.288629, 53.461396 ] } },
{ "type": "Feature", "properties": { "name": "Lighthouse Fish Bar", "address": " 14 North Parade, Sale", "postcode": "M33 3JS", "area_name": "Trafford" }, "geometry": { "type": "Point", "coordinates": [ -2.308508, 53.413339 ] } },
{ "type": "Feature", "properties": { "name": "Lively Lobster Fish and Chips", "address": " 77a Manor Avenue, Sale", "postcode": "M33 5JS", "area_name": "Trafford" }, "geometry": { "type": "Point", "coordinates": [ -2.353108, 53.427075 ] } },
{ "type": "Feature", "properties": { "name": "Lotus Fast Food", "address": " 177 Canterbury Road, Davyhulme, Manchester", "postcode": "M41 0SE", "area_name": "Trafford" }, "geometry": { "type": "Point", "coordinates": [ -2.345195, 53.455143 ] } },
{ "type": "Feature", "properties": { "name": "Lou Macaris Chip Shop", "address": " 684 Chester Road, Stretford, Manchester", "postcode": "M32 0SF", "area_name": "Trafford" }, "geometry": { "type": "Point", "coordinates": [ -2.288629, 53.461396 ] } },
{ "type": "Feature", "properties": { "name": "McCarthy Bakery", "address": " 174 Washway Road, Sale", "postcode": "M33 6RH", "area_name": "Trafford" }, "geometry": { "type": "Point", "coordinates": [ -2.33057904243469, 53.421142578125 ] } },
{ "type": "Feature", "properties": { "name": "McDonald's Restaurants", "address": " 1235 Chester Road, Stretford, Manchester", "postcode": "M32 8NB", "area_name": "Trafford" }, "geometry": { "type": "Point", "coordinates": [ -2.30933, 53.443655 ] } },
{ "type": "Feature", "properties": { "name": "Mia's", "address": " 2a Taylors Road, Stretford, Manchester", "postcode": "M32 0JA", "area_name": "Trafford" }, "geometry": { "type": "Point", "coordinates": [ -2.300122, 53.455183 ] } },
{ "type": "Feature", "properties": { "name": "Millies Cookies", "address": " 108 Peel Avenue, The Trafford Centre, Manchester", "postcode": "M17 8BL", "area_name": "Trafford" }, "geometry": { "type": "Point", "coordinates": [ -2.34902, 53.466187 ] } },
{ "type": "Feature", "properties": { "name": "Mizan Tandoori", "address": " 3 Bowfell Road, Urmston, Manchester", "postcode": "M41 5RW", "area_name": "Trafford" }, "geometry": { "type": "Point", "coordinates": [ -2.366352, 53.451538 ] } },
{ "type": "Feature", "properties": { "name": "Mumtaz", "address": "Trafford Hall Hotel, 23 Talbot Road, Stretford, Manchester", "postcode": "M16 0PE", "area_name": "Trafford" }, "geometry": { "type": "Point", "coordinates": [ -2.27887, 53.4615 ] } },
{ "type": "Feature", "properties": { "name": "Nationale 7", "address": "Street Record, Central Way, Altrincham", "postcode": "WA14 1SB", "area_name": "Trafford" }, "geometry": { "type": "Point", "coordinates": [ -2.351071, 53.386246 ] } },
{ "type": "Feature", "properties": { "name": "Navigation Fish Bar", "address": " 10 Navigation Road, Altrincham", "postcode": "WA14 1NF", "area_name": "Trafford" }, "geometry": { "type": "Point", "coordinates": [ -2.34916, 53.397047 ] } },
{ "type": "Feature", "properties": { "name": "Neptune", "address": " 181a Moorside Road, Flixton, Manchester", "postcode": "M41 5SJ", "area_name": "Trafford" }, "geometry": { "type": "Point", "coordinates": [ -2.370723, 53.452099 ] } },
{ "type": "Feature", "properties": { "name": "New Rainbow", "address": " 214 Church Road, Flixton, Manchester", "postcode": "M41 9DX", "area_name": "Trafford" }, "geometry": { "type": "Point", "coordinates": [ -2.36549, 53.444125 ] } },
{ "type": "Feature", "properties": { "name": "No 1 Chinese Takeaway", "address": " 12 Brooklands Road, Sale", "postcode": "M33 3SQ", "area_name": "Trafford" }, "geometry": { "type": "Point", "coordinates": [ -2.325249, 53.416844 ] } },
{ "type": "Feature", "properties": { "name": "Oribox \/ Park View", "address": " 50 Washway Road, Sale", "postcode": "M33 7QZ", "area_name": "Trafford" }, "geometry": { "type": "Point", "coordinates": [ -2.327471, 53.423993 ] } },
{ "type": "Feature", "properties": { "name": "Oriental Express", "address": " 914 Chester Road, Stretford, Manchester", "postcode": "M32 0PA", "area_name": "Trafford" }, "geometry": { "type": "Point", "coordinates": [ -2.299406, 53.453963 ] } },
{ "type": "Feature", "properties": { "name": "Oscar's", "address": " 26 Seymour Grove, Old Trafford, Manchester", "postcode": "M16 0LH", "area_name": "Trafford" }, "geometry": { "type": "Point", "coordinates": [ -2.276745, 53.461316 ] } },
{ "type": "Feature", "properties": { "name": "Pany's Fish Bar", "address": " 157 Northenden Road, Sale, Cheshire", "postcode": "M33 2HS", "area_name": "Trafford" }, "geometry": { "type": "Point", "coordinates": [ -2.303245, 53.42004 ] } },
{ "type": "Feature", "properties": { "name": "Papa Johns Perfect Pizza", "address": " 388 Washway Road, Sale", "postcode": "M33 4JH", "area_name": "Trafford" }, "geometry": { "type": "Point", "coordinates": [ -2.345432, 53.40833 ] } },
{ "type": "Feature", "properties": { "name": "Papachino", "address": " 22 Railway Street, Altrincham", "postcode": "WA14 2RE", "area_name": "Trafford" }, "geometry": { "type": "Point", "coordinates": [ -2.351844, 53.385129 ] } },
{ "type": "Feature", "properties": { "name": "Parkers of Salford", "address": " 137 Park Road, Stretford, Manchester", "postcode": "M32 8FB", "area_name": "Trafford" }, "geometry": { "type": "Point", "coordinates": [ -2.317034, 53.453127 ] } },
{ "type": "Feature", "properties": { "name": "Partington Fish Bar and Grill", "address": "Unit 1 Partington Shopping Centre, Central Road, Partington", "postcode": "M31 4FL", "area_name": "Trafford" }, "geometry": { "type": "Point", "coordinates": [ -2.425447, 53.417688 ] } },
{ "type": "Feature", "properties": { "name": "Patisserie Valerie within Selfridges", "address": "1 The Dome,  Trafford Park, Manchester", "postcode": "M17 8DF", "area_name": "Trafford" }, "geometry": { "type": "Point", "coordinates": [ -2.34902, 53.466187 ] } },
{ "type": "Feature", "properties": { "name": "Pearl Garden", "address": " 171 Moorside Road, Urmston, Manchester", "postcode": "M41 5SJ", "area_name": "Trafford" }, "geometry": { "type": "Point", "coordinates": [ -2.370724, 53.4521 ] } },
{ "type": "Feature", "properties": { "name": "Pickles", "address": "Cedar Technology Centre, Atlantic Street, Altrincham", "postcode": "WA14 5DZ", "area_name": "Trafford" }, "geometry": { "type": "Point", "coordinates": [ -2.366873, 53.396715 ] } },
{ "type": "Feature", "properties": { "name": "Pig on a Spit", "address": " Carrington Business Park, Manchester Road, Carrington", "postcode": "M31 4DD", "area_name": "Trafford" }, "geometry": { "type": "Point", "coordinates": [ -2.400171, 53.430585 ] } },
{ "type": "Feature", "properties": { "name": "Pino's Snack Shak", "address": "Unit 5 Stretford Motorway Estate, Caledonia Way, Trafford Park, Manchester", "postcode": "M32 0ZH", "area_name": "Trafford" }, "geometry": { "type": "Point", "coordinates": [ -2.329592, 53.462818 ] } },
{ "type": "Feature", "properties": { "name": "Pix Pizza", "address": " 19 Shaws Road, Altrincham", "postcode": "WA14 1QU", "area_name": "Trafford" }, "geometry": { "type": "Point", "coordinates": [ -2.351173, 53.387558 ] } },
{ "type": "Feature", "properties": { "name": "Pizza Express", "address": " 142 Ashley Road, Hale Altrincham, Cheshire", "postcode": "WA14 2UN", "area_name": "Trafford" }, "geometry": { "type": "Point", "coordinates": [ -2.349054, 53.37854 ] } },
{ "type": "Feature", "properties": { "name": "Pizza Hut", "address": " 396 Washway Road, Sale, Cheshire", "postcode": "M33 4JH", "area_name": "Trafford" }, "geometry": { "type": "Point", "coordinates": [ -2.345432, 53.40833 ] } },
{ "type": "Feature", "properties": { "name": "Prepped 2 Go", "address": " 140 Ashley Road, Hale, Altrincham", "postcode": "WA14 2UN", "area_name": "Trafford" }, "geometry": { "type": "Point", "coordinates": [ -2.34905409812927, 53.3785400390625 ] } },
{ "type": "Feature", "properties": { "name": "Recipe", "address": " 5 Marsland Road, Sale", "postcode": "M33 3HP", "area_name": "Trafford" }, "geometry": { "type": "Point", "coordinates": [ -2.30482, 53.419298 ] } },
{ "type": "Feature", "properties": { "name": "Roosters", "address": " 214 Manchester Road, Altrincham", "postcode": "WA14 5LU", "area_name": "Trafford" }, "geometry": { "type": "Point", "coordinates": [ -2.352097, 53.401182 ] } },
{ "type": "Feature", "properties": { "name": "Sajan Takeaway", "address": " 14 Northenden Road, Sale, Cheshire", "postcode": "M33 3BR", "area_name": "Trafford" }, "geometry": { "type": "Point", "coordinates": [ -2.316966, 53.423824 ] } },
{ "type": "Feature", "properties": { "name": "Sayers", "address": " 9 Davyhulme Circle, Urmston, Manchester", "postcode": "M41 0ST", "area_name": "Trafford" }, "geometry": { "type": "Point", "coordinates": [ -2.357485, 53.457147 ] } },
{ "type": "Feature", "properties": { "name": "Sayers", "address": " 469 Moorside Road, Urmston, Manchester", "postcode": "M41 8TW", "area_name": "Trafford" }, "geometry": { "type": "Point", "coordinates": [ -2.391387, 53.452429 ] } },
{ "type": "Feature", "properties": { "name": "Sayers", "address": " 228 Stockport Road, Timperley Altrincham, Cheshire", "postcode": "WA15 7UN", "area_name": "Trafford" }, "geometry": { "type": "Point", "coordinates": [ -2.319128, 53.397041 ] } },
{ "type": "Feature", "properties": { "name": "Sayers", "address": " 20 Green Lane, Sale, Cheshire", "postcode": "M33 5PP", "area_name": "Trafford" }, "geometry": { "type": "Point", "coordinates": [ -2.341873, 53.429652 ] } },
{ "type": "Feature", "properties": { "name": "Sayers", "address": " 171 Canterbury Road, Urmston, Manchester", "postcode": "M41 0SE", "area_name": "Trafford" }, "geometry": { "type": "Point", "coordinates": [ -2.345195, 53.455143 ] } },
{ "type": "Feature", "properties": { "name": "Shiva Indian Takeaway", "address": " 83 Great Stone Road, Stretford, Manchester", "postcode": "M32 8GR", "area_name": "Trafford" }, "geometry": { "type": "Point", "coordinates": [ -2.286284, 53.453015 ] } },
{ "type": "Feature", "properties": { "name": "Spicey Chef", "address": " 398 Barton Road, Stretford, Manchester", "postcode": "M32 9RW", "area_name": "Trafford" }, "geometry": { "type": "Point", "coordinates": [ -2.32587, 53.454613 ] } },
{ "type": "Feature", "properties": { "name": "Starving Man", "address": " 10 Lloyd Street, Altrincham, Cheshire", "postcode": "WA14 2DE", "area_name": "Trafford" }, "geometry": { "type": "Point", "coordinates": [ -2.351581, 53.38424 ] } },
{ "type": "Feature", "properties": { "name": "Subway", "address": " 682 Chester Road, Stretford, Manchester", "postcode": "M32 0SF", "area_name": "Trafford" }, "geometry": { "type": "Point", "coordinates": [ -2.288629, 53.461396 ] } },
{ "type": "Feature", "properties": { "name": "Subway", "address": " 24-26 Flixton Road, Urmston", "postcode": "M41 5AA", "area_name": "Trafford" }, "geometry": { "type": "Point", "coordinates": [ -2.354913, 53.448615 ] } },
{ "type": "Feature", "properties": { "name": "Subway", "address": "Within, BP Petrol Station, Stretford Circle, Audley Avenue Stretford", "postcode": "M32 9TR", "area_name": "Trafford" }, "geometry": { "type": "Point", "coordinates": [ -2.336501, 53.456516 ] } },
{ "type": "Feature", "properties": { "name": "Taniya's", "address": " 166 Northenden Road, Sale, Cheshire", "postcode": "M33 3HE", "area_name": "Trafford" }, "geometry": { "type": "Point", "coordinates": [ -2.304674, 53.419991 ] } },
{ "type": "Feature", "properties": { "name": "That Pizza Place Ltd", "address": " 323 Hale Road, Hale Barns Altrincham, Cheshire", "postcode": "WA15 8SS", "area_name": "Trafford" }, "geometry": { "type": "Point", "coordinates": [ -2.313722, 53.369488 ] } },
{ "type": "Feature", "properties": { "name": "The Good Catch", "address": " 59 Brook Road, Urmston, Manchester", "postcode": "M41 5RY", "area_name": "Trafford" }, "geometry": { "type": "Point", "coordinates": [ -2.374978, 53.451206 ] } },
{ "type": "Feature", "properties": { "name": "The Good Catch", "address": " 160 Stamford Park Road, Hale Altrincham, Cheshire", "postcode": "WA15 8AL", "area_name": "Trafford" }, "geometry": { "type": "Point", "coordinates": [ -2.336762, 53.382953 ] } },
{ "type": "Feature", "properties": { "name": "Tibetan Kitchen", "address": " 254 Upper Chorlton Road, Old Trafford, Manchester", "postcode": "M16 0BN", "area_name": "Trafford" }, "geometry": { "type": "Point", "coordinates": [ -2.272296, 53.450873 ] } },
{ "type": "Feature", "properties": { "name": "Urmston Takeaway", "address": " 76 Railway Road, Urmston, Manchester", "postcode": "M41 0XT", "area_name": "Trafford" }, "geometry": { "type": "Point", "coordinates": [ -2.34634, 53.44971 ] } },
{ "type": "Feature", "properties": { "name": "WA14", "address": " 120 Ashley Road, Hale, Altrincham", "postcode": "WA14 2UN", "area_name": "Trafford" }, "geometry": { "type": "Point", "coordinates": [ -2.34905409812927, 53.3785400390625 ] } },
{ "type": "Feature", "properties": { "name": "Whittakers", "address": " 12 Station Road, Urmston, Manchester", "postcode": "M41 9JN", "area_name": "Trafford" }, "geometry": { "type": "Point", "coordinates": [ -2.353096, 53.447354 ] } },
{ "type": "Feature", "properties": { "name": "Wrap It In", "address": "392 Lloyd House, Third Avenue, Trafford Park, Manchester", "postcode": "M17 1JE", "area_name": "Trafford" }, "geometry": { "type": "Point", "coordinates": [ -2.310246, 53.466034 ] } },
{ "type": "Feature", "properties": { "name": "Yuit Loung", "address": " 95 Oak Road, Partington, Manchester", "postcode": "M31 4LD", "area_name": "Trafford" }, "geometry": { "type": "Point", "coordinates": [ -2.436214, 53.411115 ] } },
{ "type": "Feature", "properties": { "name": "Boyko's Deli", "address": " 315 Hale Road, Hale Barns, Altrincham", "postcode": "WA15 8SS", "area_name": "Trafford" }, "geometry": { "type": "Point", "coordinates": [ -2.313722, 53.369488 ] } },
{ "type": "Feature", "properties": { "name": "Bread Station", "address": " 2 School Road, Sale", "postcode": "M33 7XY", "area_name": "Trafford" }, "geometry": { "type": "Point", "coordinates": [ -2.319786, 53.424608 ] } },
{ "type": "Feature", "properties": { "name": "Dynasty", "address": " 101 Wood Lane, Timperley, Altrincham", "postcode": "WA15 7PG", "area_name": "Trafford" }, "geometry": { "type": "Point", "coordinates": [ -2.320117, 53.388688 ] } },
{ "type": "Feature", "properties": { "name": "Express Woks Cooking Ltd", "address": " 215 Woodhouse Lane East, Timperley Altrincham, Cheshire", "postcode": "WA15 6AS", "area_name": "Trafford" }, "geometry": { "type": "Point", "coordinates": [ -2.323117, 53.40743 ] } },
{ "type": "Feature", "properties": { "name": "Good Choice", "address": " 7a Regent Road, Altrincham", "postcode": "WA14 1RY", "area_name": "Trafford" }, "geometry": { "type": "Point", "coordinates": [ -2.352059, 53.38565 ] } },
{ "type": "Feature", "properties": { "name": "Good Fortune", "address": " 194 Marsland Road, Sale", "postcode": "M33 3NE", "area_name": "Trafford" }, "geometry": { "type": "Point", "coordinates": [ -2.320276, 53.417756 ] } },
{ "type": "Feature", "properties": { "name": "Happy House", "address": " 6 Woodfield Road, Broadheath Altrincham, Cheshire", "postcode": "WA14 4EU", "area_name": "Trafford" }, "geometry": { "type": "Point", "coordinates": [ -2.352997, 53.397198 ] } },
{ "type": "Feature", "properties": { "name": "Hungry Fish", "address": " 89b Ayres Road, Old Trafford, Manchester", "postcode": "M16 7GS", "area_name": "Trafford" }, "geometry": { "type": "Point", "coordinates": [ -2.26763010025024, 53.458442687988303 ] } },
{ "type": "Feature", "properties": { "name": "KFC", "address": " 9 The Orient, The Trafford Centre, Manchester", "postcode": "M17 9EF", "area_name": "Trafford" }, "geometry": { "type": "Point", "coordinates": [ -2.32889, 53.46778 ] } },
{ "type": "Feature", "properties": { "name": "LA Pizza and Grill", "address": " 77 Manchester Road, Altrincham", "postcode": "WA14 4RJ", "area_name": "Trafford" }, "geometry": { "type": "Point", "coordinates": [ -2.352437, 53.396804 ] } },
{ "type": "Feature", "properties": { "name": "Ma's Chinese Take Away", "address": " 145 Manchester Road, Altrincham", "postcode": "WA14 5NS", "area_name": "Trafford" }, "geometry": { "type": "Point", "coordinates": [ -2.352726, 53.399068 ] } },
{ "type": "Feature", "properties": { "name": "Madras Spice", "address": " 180 Northenden Road, Sale", "postcode": "M33 2SR", "area_name": "Trafford" }, "geometry": { "type": "Point", "coordinates": [ -2.302625, 53.419699 ] } },
{ "type": "Feature", "properties": { "name": "Masala Bangladeshi", "address": " 8 Church Street, Altrincham, Cheshire", "postcode": "WA14 4DW", "area_name": "Trafford" }, "geometry": { "type": "Point", "coordinates": [ -2.349928, 53.389809 ] } },
{ "type": "Feature", "properties": { "name": "Mella Pizza", "address": " 3 Marsland Road, Sale", "postcode": "M33 3HP", "area_name": "Trafford" }, "geometry": { "type": "Point", "coordinates": [ -2.304819, 53.419298 ] } },
{ "type": "Feature", "properties": { "name": "Miami Fried Chicken", "address": " 2 The Circle, Stretford, Manchester", "postcode": "M32 9TR", "area_name": "Trafford" }, "geometry": { "type": "Point", "coordinates": [ -2.336501, 53.456516 ] } },
{ "type": "Feature", "properties": { "name": "Mr Yu", "address": " 2 James Street, Sale, Cheshire", "postcode": "M33 3HN", "area_name": "Trafford" }, "geometry": { "type": "Point", "coordinates": [ -2.303537, 53.420848 ] } },
{ "type": "Feature", "properties": { "name": "New Oriental City", "address": " 161 Northenden Road, Sale, Cheshire", "postcode": "M33 2HS", "area_name": "Trafford" }, "geometry": { "type": "Point", "coordinates": [ -2.303245, 53.42004 ] } },
{ "type": "Feature", "properties": { "name": "Pine's Pantry Cafe", "address": " 16 Moss Road, Stretford, Manchester", "postcode": "M32 0AH", "area_name": "Trafford" }, "geometry": { "type": "Point", "coordinates": [ -2.310033, 53.451221 ] } },
{ "type": "Feature", "properties": { "name": "Pinocchios", "address": " 10 Station Road, Urmston, Manchester", "postcode": "M41 9JN", "area_name": "Trafford" }, "geometry": { "type": "Point", "coordinates": [ -2.353096, 53.447354 ] } },
{ "type": "Feature", "properties": { "name": "Sayers", "address": " 47 Stretford Mall, Stretford, Manchester", "postcode": "M32 9BB", "area_name": "Trafford" }, "geometry": { "type": "Point", "coordinates": [ -2.310832, 53.445215 ] } },
{ "type": "Feature", "properties": { "name": "Sayers", "address": " Unit 5 Partington Shopping Centre, Partington", "postcode": "M31 4EL", "area_name": "Trafford" }, "geometry": { "type": "Point", "coordinates": [ -2.425437, 53.418174 ] } },
{ "type": "Feature", "properties": { "name": "Seaway Fish And Chips", "address": " 18 Green Lane, Sale", "postcode": "M33 5PP", "area_name": "Trafford" }, "geometry": { "type": "Point", "coordinates": [ -2.341873, 53.429652 ] } },
{ "type": "Feature", "properties": { "name": "Spice of India", "address": " 95 Higher Road, Urmston, Manchester", "postcode": "M41 9AP", "area_name": "Trafford" }, "geometry": { "type": "Point", "coordinates": [ -2.34839, 53.448122 ] } },
{ "type": "Feature", "properties": { "name": "SpuduLike", "address": " 3 The Orient, The Trafford Centre, Manchester", "postcode": "M17 8EH", "area_name": "Trafford" }, "geometry": { "type": "Point", "coordinates": [ -2.34902, 53.466187 ] } },
{ "type": "Feature", "properties": { "name": "Subway", "address": " 332 Manchester Road, West Timperley Altrincham, Cheshire", "postcode": "WA14 5NH", "area_name": "Trafford" }, "geometry": { "type": "Point", "coordinates": [ -2.346576, 53.406601 ] } },
{ "type": "Feature", "properties": { "name": "Taftan Tandoori", "address": " 178-180 Chorlton Road, Old Trafford, Manchester", "postcode": "M16 7WW", "area_name": "Trafford" }, "geometry": { "type": "Point", "coordinates": [ -2.258569, 53.45938 ] } },
{ "type": "Feature", "properties": { "name": "The New Don", "address": " 2 Church Street, Altrincham", "postcode": "WA14 4DW", "area_name": "Trafford" }, "geometry": { "type": "Point", "coordinates": [ -2.349928, 53.389809 ] } },
{ "type": "Feature", "properties": { "name": "The Pepper Mill", "address": " 181 Marsland Road, Sale", "postcode": "M33 3ND", "area_name": "Trafford" }, "geometry": { "type": "Point", "coordinates": [ -2.320483, 53.417333 ] } },
{ "type": "Feature", "properties": { "name": "The Shake Lab", "address": " 107 The Orient, Trafford Centre, Trafford Park", "postcode": "M17 8EH", "area_name": "Trafford" }, "geometry": { "type": "Point", "coordinates": [ -2.34902, 53.466187 ] } },
{ "type": "Feature", "properties": { "name": "The Stretford Balti Takeaway", "address": " 230 Derbyshire Lane West, Stretford, Manchester", "postcode": "M32 9LD", "area_name": "Trafford" }, "geometry": { "type": "Point", "coordinates": [ -2.320799, 53.45113 ] } },
{ "type": "Feature", "properties": { "name": "The Village Chippy", "address": " 400 Third Avenue, Trafford PArk", "postcode": "M17 1JE", "area_name": "Trafford" }, "geometry": { "type": "Point", "coordinates": [ -2.310246, 53.466034 ] } },
{ "type": "Feature", "properties": { "name": "Theo's Fine Kettle Of Fish", "address": " 4 Shaftesbury Avenue, Timperley Altrincham, Cheshire", "postcode": "WA15 7LY", "area_name": "Trafford" }, "geometry": { "type": "Point", "coordinates": [ -2.328258, 53.391435 ] } },
{ "type": "Feature", "properties": { "name": "Tick Tock Shakes Ltd", "address": " 17 Moss Lane West, Old Trafford, Manchester", "postcode": "M15 5PQ", "area_name": "Trafford" }, "geometry": { "type": "Point", "coordinates": [ -2.256508, 53.459744 ] } },
{ "type": "Feature", "properties": { "name": "Torontos Canadian Charcoal", "address": " 87 Manchester Road, Altrincham", "postcode": "WA14 4RJ", "area_name": "Trafford" }, "geometry": { "type": "Point", "coordinates": [ -2.352437, 53.396804 ] } },
{ "type": "Feature", "properties": { "name": "Turkish Grill (Sale)", "address": " 49 Washway Road, Sale", "postcode": "M33 7AB", "area_name": "Trafford" }, "geometry": { "type": "Point", "coordinates": [ -2.327301, 53.42341 ] } },
{ "type": "Feature", "properties": { "name": "Vivianne", "address": " 61 Briarfield Road, Timperley, Altrincham", "postcode": "WA15 7DD", "area_name": "Trafford" }, "geometry": { "type": "Point", "coordinates": [ -2.311665, 53.392423 ] } },
{ "type": "Feature", "properties": { "name": "Vivianne", "address": " 72 School Road, Sale, Cheshire", "postcode": "M33 7XB", "area_name": "Trafford" }, "geometry": { "type": "Point", "coordinates": [ -2.323781, 53.425532 ] } },
{ "type": "Feature", "properties": { "name": "Wing Lee", "address": " 20 Seymour Grove, Old Trafford, Manchester", "postcode": "M16 0LH", "area_name": "Trafford" }, "geometry": { "type": "Point", "coordinates": [ -2.276745, 53.461316 ] } },
{ "type": "Feature", "properties": { "name": "Wing Wah", "address": " 68 Old Crofts Bank, Davyhulme, Manchester", "postcode": "M41 7AB", "area_name": "Trafford" }, "geometry": { "type": "Point", "coordinates": [ -2.357326, 53.456168 ] } },
{ "type": "Feature", "properties": { "name": "Wok 191 Chinese Takeaway", "address": " 191 Woodsend Road, Flixton, Manchester", "postcode": "M41 8QW", "area_name": "Trafford" }, "geometry": { "type": "Point", "coordinates": [ -2.39400196075439, 53.456771850585902 ] } },
{ "type": "Feature", "properties": { "name": "Xpress pizza", "address": " 159 Northenden Road, Sale", "postcode": "M33 2HS", "area_name": "Trafford" }, "geometry": { "type": "Point", "coordinates": [ -2.303245, 53.42004 ] } },
{ "type": "Feature", "properties": { "name": "A Taste of India", "address": " 6 Greenwood Street, Altrincham, Cheshire", "postcode": "WA14 1RZ", "area_name": "Trafford" }, "geometry": { "type": "Point", "coordinates": [ -2.352173, 53.386728 ] } },
{ "type": "Feature", "properties": { "name": "Altrincham Fish Bar", "address": " 42 Greenwood Street, Altrincham, Cheshire", "postcode": "WA14 1RZ", "area_name": "Trafford" }, "geometry": { "type": "Point", "coordinates": [ -2.352173, 53.386728 ] } },
{ "type": "Feature", "properties": { "name": "Aminah Tandoori", "address": " 2 Peter Street, Altrincham", "postcode": "WA14 2DS", "area_name": "Trafford" }, "geometry": { "type": "Point", "coordinates": [ -2.352011, 53.38352 ] } },
{ "type": "Feature", "properties": { "name": "Bocadillo", "address": " 226 Stockport Road, Timperley Altrincham, Cheshire", "postcode": "WA15 7UA", "area_name": "Trafford" }, "geometry": { "type": "Point", "coordinates": [ -2.320585, 53.39684 ] } },
{ "type": "Feature", "properties": { "name": "Canadian Charcoal Pit", "address": " 80 Washway Road, Sale", "postcode": "M33 7RE", "area_name": "Trafford" }, "geometry": { "type": "Point", "coordinates": [ -2.328398, 53.423227 ] } },
{ "type": "Feature", "properties": { "name": "Captain Cod", "address": " 287 Stretford Road, Urmston, Manchester", "postcode": "M41 9NU", "area_name": "Trafford" }, "geometry": { "type": "Point", "coordinates": [ -2.3291, 53.445903 ] } },
{ "type": "Feature", "properties": { "name": "Captain Cod", "address": " 8 Northenden Road, Sale, Cheshire", "postcode": "M33 3BR", "area_name": "Trafford" }, "geometry": { "type": "Point", "coordinates": [ -2.316966, 53.423824 ] } },
{ "type": "Feature", "properties": { "name": "Charcoal Grill Fish Bar", "address": "Partington Service Station, 15 Smithy Lane, Partington, Manchester", "postcode": "M31 4RB", "area_name": "Trafford" }, "geometry": { "type": "Point", "coordinates": [ -2.425463, 53.419235 ] } },
{ "type": "Feature", "properties": { "name": "Chau's Takeaway", "address": " 6 Lostock Road, Urmston, Manchester", "postcode": "M41 0PS", "area_name": "Trafford" }, "geometry": { "type": "Point", "coordinates": [ -2.355818, 53.457763 ] } },
{ "type": "Feature", "properties": { "name": "China Town", "address": " 167 Broadway, Davyhulme, Manchester", "postcode": "M41 7NW", "area_name": "Trafford" }, "geometry": { "type": "Point", "coordinates": [ -2.372471, 53.458971 ] } },
{ "type": "Feature", "properties": { "name": "China Town Takeaway", "address": " 153 Barton Road, Stretford, Manchester", "postcode": "M32 8DN", "area_name": "Trafford" }, "geometry": { "type": "Point", "coordinates": [ -2.314259, 53.446446 ] } },
{ "type": "Feature", "properties": { "name": "Chopsticks House", "address": " 30 Moss Lane, Altrincham, Cheshire", "postcode": "WA15 8HW", "area_name": "Trafford" }, "geometry": { "type": "Point", "coordinates": [ -2.343521, 53.385882 ] } },
{ "type": "Feature", "properties": { "name": "Coppice Fish Bar", "address": " 56 Coppice Avenue, Sale", "postcode": "M33 4WB", "area_name": "Trafford" }, "geometry": { "type": "Point", "coordinates": [ -2.348783, 53.415277 ] } },
{ "type": "Feature", "properties": { "name": "Crispy Cod", "address": " 387 Washway Road, Sale", "postcode": "M33 4FJ", "area_name": "Trafford" }, "geometry": { "type": "Point", "coordinates": [ -2.34402108192444, 53.408729553222699 ] } },
{ "type": "Feature", "properties": { "name": "Crispy Cottage Food Ltd", "address": " 149 Barkway Road, Stretford, Manchester", "postcode": "M32 9DX", "area_name": "Trafford" }, "geometry": { "type": "Point", "coordinates": [ -2.326334, 53.44653 ] } },
{ "type": "Feature", "properties": { "name": "Dixy Chicken", "address": " 113 Washway Road, Sale", "postcode": "M33 7TY", "area_name": "Trafford" }, "geometry": { "type": "Point", "coordinates": [ -2.32996106147766, 53.421012878417997 ] } },
{ "type": "Feature", "properties": { "name": "Dragon City", "address": " 392 Washway Road, Sale", "postcode": "M33 4JH", "area_name": "Trafford" }, "geometry": { "type": "Point", "coordinates": [ -2.345432, 53.40833 ] } },
{ "type": "Feature", "properties": { "name": "Flamin Chicken", "address": " 119 Washway Road, Sale", "postcode": "M33 7TY", "area_name": "Trafford" }, "geometry": { "type": "Point", "coordinates": [ -2.329961, 53.421011 ] } },
{ "type": "Feature", "properties": { "name": "Gar Pan", "address": " 526 Stretford Road, Manchester", "postcode": "M16 9AF", "area_name": "Trafford" }, "geometry": { "type": "Point", "coordinates": [ -2.266492, 53.464279 ] } },
{ "type": "Feature", "properties": { "name": "Genie", "address": "Genie Takeaway, 30 Seymour Grove, Old Trafford, Manchester", "postcode": "M16 0LH", "area_name": "Trafford" }, "geometry": { "type": "Point", "coordinates": [ -2.276745, 53.461316 ] } },
{ "type": "Feature", "properties": { "name": "Golden Bowl", "address": " 11 Hope Road, Sale", "postcode": "M33 3AB", "area_name": "Trafford" }, "geometry": { "type": "Point", "coordinates": [ -2.31922, 53.423386 ] } },
{ "type": "Feature", "properties": { "name": "Guang's House", "address": " 363 Norris Road, Sale", "postcode": "M33 2UP", "area_name": "Trafford" }, "geometry": { "type": "Point", "coordinates": [ -2.298682, 53.415224 ] } },
{ "type": "Feature", "properties": { "name": "Kongs Takeaway", "address": " 4 Woodsend Road, Urmston, Manchester", "postcode": "M41 8QT", "area_name": "Trafford" }, "geometry": { "type": "Point", "coordinates": [ -2.391146, 53.449114 ] } },
{ "type": "Feature", "properties": { "name": "Lucky Cherry", "address": " 156 Washway Road, Sale", "postcode": "M33 6RH", "area_name": "Trafford" }, "geometry": { "type": "Point", "coordinates": [ -2.330579, 53.421144 ] } },
{ "type": "Feature", "properties": { "name": "Milano", "address": " 63 Flixton Road, Urmston, Manchester", "postcode": "M41 5AN", "area_name": "Trafford" }, "geometry": { "type": "Point", "coordinates": [ -2.358613, 53.448038 ] } },
{ "type": "Feature", "properties": { "name": "Millies Cookies", "address": "13 The Orient,  Trafford Centre, Trafford", "postcode": "M17 8BL", "area_name": "Trafford" }, "geometry": { "type": "Point", "coordinates": [ -2.34902, 53.466187 ] } },
{ "type": "Feature", "properties": { "name": "Ming Dynasty Chinese Takeaway", "address": " 237 Talbot Road, Stretford, Manchester", "postcode": "M32 0YW", "area_name": "Trafford" }, "geometry": { "type": "Point", "coordinates": [ -2.295237, 53.454198 ] } },
{ "type": "Feature", "properties": { "name": "NASV Sandwich Bar Cafe", "address": " 2 Upper Chorlton Road, Manchester", "postcode": "M16 7RN", "area_name": "Trafford" }, "geometry": { "type": "Point", "coordinates": [ -2.259977, 53.458109 ] } },
{ "type": "Feature", "properties": { "name": "New Bowdon Takeaway", "address": " 7 Huxley Terrace Vicarage Lane, Bowdon Altrincham, Cheshire", "postcode": "WA14 3ET", "area_name": "Trafford" }, "geometry": { "type": "Point", "coordinates": [ -2.360841, 53.371664 ] } },
{ "type": "Feature", "properties": { "name": "New Century 2000", "address": " 28 Davyhulme Road East, Stretford, Manchester", "postcode": "M32 0DW", "area_name": "Trafford" }, "geometry": { "type": "Point", "coordinates": [ -2.303377, 53.451131 ] } },
{ "type": "Feature", "properties": { "name": "Osechi One", "address": " 23 School Road, Sale", "postcode": "M33 7XX", "area_name": "Trafford" }, "geometry": { "type": "Point", "coordinates": [ -2.321172, 53.424793 ] } },
{ "type": "Feature", "properties": { "name": "Peri Hut", "address": " 912 Chester Road, Stretford, Manchester", "postcode": "M32 0PA", "area_name": "Trafford" }, "geometry": { "type": "Point", "coordinates": [ -2.299406, 53.453963 ] } },
{ "type": "Feature", "properties": { "name": "Peter Pan", "address": " 173 Church Road, Urmston, Manchester", "postcode": "M41 6EA", "area_name": "Trafford" }, "geometry": { "type": "Point", "coordinates": [ -2.367645, 53.442609 ] } },
{ "type": "Feature", "properties": { "name": "Pinocchios", "address": " 73 Cross Street, Sale", "postcode": "M33 7HF", "area_name": "Trafford" }, "geometry": { "type": "Point", "coordinates": [ -2.323316, 53.427735 ] } },
{ "type": "Feature", "properties": { "name": "Pinocchios", "address": " 220 Stockport Road, Altrincham", "postcode": "WA15 7UA", "area_name": "Trafford" }, "geometry": { "type": "Point", "coordinates": [ -2.320585, 53.39684 ] } },
{ "type": "Feature", "properties": { "name": "Red Devils", "address": " 680 Chester Road, Stretford, Manchester", "postcode": "M32 0SF", "area_name": "Trafford" }, "geometry": { "type": "Point", "coordinates": [ -2.288629, 53.461396 ] } },
{ "type": "Feature", "properties": { "name": "Red Dragon", "address": " 1 Bowfell Road, Urmston, Manchester", "postcode": "M41 5RW", "area_name": "Trafford" }, "geometry": { "type": "Point", "coordinates": [ -2.366352, 53.451538 ] } },
{ "type": "Feature", "properties": { "name": "Riddings Tandoori", "address": " 30 Riddings Road, Timperley, Altrincham", "postcode": "WA15 6BP", "area_name": "Trafford" }, "geometry": { "type": "Point", "coordinates": [ -2.331307, 53.404433 ] } },
{ "type": "Feature", "properties": { "name": "Seriously Good Food", "address": " 80 School Road, Sale", "postcode": "M33 7XB", "area_name": "Trafford" }, "geometry": { "type": "Point", "coordinates": [ -2.323781, 53.425532 ] } },
{ "type": "Feature", "properties": { "name": "Shamnah Balti Takeaway", "address": " 471 Moorside Road, Urmston, Manchester", "postcode": "M41 8TW", "area_name": "Trafford" }, "geometry": { "type": "Point", "coordinates": [ -2.391387, 53.452429 ] } },
{ "type": "Feature", "properties": { "name": "Shere Khan Express", "address": " 6 The Orient, The Trafford Centre, Manchester", "postcode": "M17 8EH", "area_name": "Trafford" }, "geometry": { "type": "Point", "coordinates": [ -2.34902, 53.466187 ] } },
{ "type": "Feature", "properties": { "name": "Silver Palace", "address": " 22 Moss Road, Stretford, Manchester", "postcode": "M32 0AH", "area_name": "Trafford" }, "geometry": { "type": "Point", "coordinates": [ -2.310033, 53.451221 ] } },
{ "type": "Feature", "properties": { "name": "Spice of India", "address": " 13 Marsland Road, Sale, Cheshire", "postcode": "M33 3HP", "area_name": "Trafford" }, "geometry": { "type": "Point", "coordinates": [ -2.30482, 53.419298 ] } },
{ "type": "Feature", "properties": { "name": "Spice Valley", "address": " 65 Great Stone Road, Stretford, Manchester", "postcode": "M32 8GR", "area_name": "Trafford" }, "geometry": { "type": "Point", "coordinates": [ -2.286284, 53.453015 ] } },
{ "type": "Feature", "properties": { "name": "Spices of Kashmir", "address": " 89 Ayres Road, Old Trafford, Manchester", "postcode": "M16 7GS", "area_name": "Trafford" }, "geometry": { "type": "Point", "coordinates": [ -2.26763, 53.458443 ] } },
{ "type": "Feature", "properties": { "name": "Star Pizza II", "address": " 17 Ashfield Road, Sale, Cheshire", "postcode": "M33 7DY", "area_name": "Trafford" }, "geometry": { "type": "Point", "coordinates": [ -2.320744, 53.425863 ] } },
{ "type": "Feature", "properties": { "name": "Sylvia's", "address": " 101 Manchester Road, Altrincham", "postcode": "WA14 4RL", "area_name": "Trafford" }, "geometry": { "type": "Point", "coordinates": [ -2.352441, 53.397352 ] } },
{ "type": "Feature", "properties": { "name": "Tastebuds (UK) Ltd", "address": " 1 School Road, Sale", "postcode": "M33 7XY", "area_name": "Trafford" }, "geometry": { "type": "Point", "coordinates": [ -2.319786, 53.424607 ] } },
{ "type": "Feature", "properties": { "name": "The Asha", "address": " 42 Green Lane, Sale", "postcode": "M33 5PP", "area_name": "Trafford" }, "geometry": { "type": "Point", "coordinates": [ -2.341873, 53.429652 ] } },
{ "type": "Feature", "properties": { "name": "The Beehive", "address": " 8a Stockport Road, Timperley, Altrincham", "postcode": "WA15 8ET", "area_name": "Trafford" }, "geometry": { "type": "Point", "coordinates": [ -2.345119, 53.390165 ] } },
{ "type": "Feature", "properties": { "name": "The Cabin", "address": " 150 Grove Lane, Timperley Altrincham, Cheshire", "postcode": "WA15 6PD", "area_name": "Trafford" }, "geometry": { "type": "Point", "coordinates": [ -2.323052, 53.39695 ] } },
{ "type": "Feature", "properties": { "name": "The First Chinese Takeaway", "address": " 139 Glebelands Road, Sale, Cheshire", "postcode": "M33 6LP", "area_name": "Trafford" }, "geometry": { "type": "Point", "coordinates": [ -2.329335, 53.431485 ] } },
{ "type": "Feature", "properties": { "name": "Urmston Kurry House", "address": " 83 Stretford Road, Urmston, Manchester", "postcode": "M41 9LG", "area_name": "Trafford" }, "geometry": { "type": "Point", "coordinates": [ -2.347848, 53.446335 ] } },
{ "type": "Feature", "properties": { "name": "Us Four", "address": "Former Ticket Office Brooklands Metro Station, Marsland Road, Sale", "postcode": "M33 3SQ", "area_name": "Trafford" }, "geometry": { "type": "Point", "coordinates": [ -2.325249, 53.416844 ] } },
{ "type": "Feature", "properties": { "name": "Wing Express", "address": " 20 Plymouth Road, Sale", "postcode": "M33 5JD", "area_name": "Trafford" }, "geometry": { "type": "Point", "coordinates": [ -2.351724, 53.427043 ] } },
{ "type": "Feature", "properties": { "name": "Wing Sing", "address": " 32 Riddings Road, Timperley Altrincham, Cheshire", "postcode": "WA15 6BP", "area_name": "Trafford" }, "geometry": { "type": "Point", "coordinates": [ -2.331307, 53.404433 ] } },
{ "type": "Feature", "properties": { "name": "Wok Inn", "address": " 84 Park Road, Timperley, Altrincham", "postcode": "WA14 5AB", "area_name": "Trafford" }, "geometry": { "type": "Point", "coordinates": [ -2.341006, 53.404216 ] } },
{ "type": "Feature", "properties": { "name": "Wok Inn", "address": " 2 Lloyd Street, Altrincham", "postcode": "WA14 2DE", "area_name": "Trafford" }, "geometry": { "type": "Point", "coordinates": [ -2.351581, 53.38424 ] } },
{ "type": "Feature", "properties": { "name": "Womble Inn", "address": " 61 School Road, Sale", "postcode": "M33 7YF", "area_name": "Trafford" }, "geometry": { "type": "Point", "coordinates": [ -2.323794, 53.425208 ] } },
{ "type": "Feature", "properties": { "name": "Yooneek", "address": " 178 Marsland Road, Sale", "postcode": "M33 3NE", "area_name": "Trafford" }, "geometry": { "type": "Point", "coordinates": [ -2.320276, 53.417756 ] } },
{ "type": "Feature", "properties": { "name": "Barmy Barries", "address": " 424a Barton Road, Stretford, Manchester", "postcode": "M32 9RW", "area_name": "Trafford" }, "geometry": { "type": "Point", "coordinates": [ -2.32587, 53.454613 ] } },
{ "type": "Feature", "properties": { "name": "Brunch Blvd 7", "address": " 3-5 Barton Road, Stretford, Manchester", "postcode": "M32 9FA", "area_name": "Trafford" }, "geometry": { "type": "Point", "coordinates": [ -2.313053, 53.442171 ] } },
{ "type": "Feature", "properties": { "name": "Canada Grill", "address": " 138 Ashley Road, Hale Altrincham, Cheshire", "postcode": "WA14 2UN", "area_name": "Trafford" }, "geometry": { "type": "Point", "coordinates": [ -2.349054, 53.37854 ] } },
{ "type": "Feature", "properties": { "name": "Captain Cook", "address": " 908 Chester Road, Stretford, Manchester", "postcode": "M32 0PA", "area_name": "Trafford" }, "geometry": { "type": "Point", "coordinates": [ -2.299406, 53.453963 ] } },
{ "type": "Feature", "properties": { "name": "Crispy Bites", "address": " 1a Catterick Avenue, Sale", "postcode": "M33 4GQ", "area_name": "Trafford" }, "geometry": { "type": "Point", "coordinates": [ -2.359535, 53.412764 ] } },
{ "type": "Feature", "properties": { "name": "Feng Sheng", "address": " 412 Flixton Road, Urmston, Manchester", "postcode": "M41 6QY", "area_name": "Trafford" }, "geometry": { "type": "Point", "coordinates": [ -2.383624, 53.446558 ] } },
{ "type": "Feature", "properties": { "name": "Golden Apple", "address": " 38 Davyhulme Road East, Stretford, Manchester", "postcode": "M32 0DW", "area_name": "Trafford" }, "geometry": { "type": "Point", "coordinates": [ -2.303377, 53.451131 ] } },
{ "type": "Feature", "properties": { "name": "Harvest Grain", "address": " 25 Stamford Street, Altrincham, Cheshire", "postcode": "WA14 1EX", "area_name": "Trafford" }, "geometry": { "type": "Point", "coordinates": [ -2.348434, 53.389121 ] } },
{ "type": "Feature", "properties": { "name": "Ishy's", "address": " 105 Oak Road, Partington, Manchester", "postcode": "M31 4LD", "area_name": "Trafford" }, "geometry": { "type": "Point", "coordinates": [ -2.436214, 53.411115 ] } },
{ "type": "Feature", "properties": { "name": "Kakon Indian Takeaway", "address": " 5 Ashton Lane, Sale, Cheshire", "postcode": "M33 6WT", "area_name": "Trafford" }, "geometry": { "type": "Point", "coordinates": [ -2.326537, 53.425767 ] } },
{ "type": "Feature", "properties": { "name": "Kara Chippery and Curry House", "address": " 123 Stamford Street, Old Trafford, Manchester", "postcode": "M16 9LT", "area_name": "Trafford" }, "geometry": { "type": "Point", "coordinates": [ -2.262249, 53.460199 ] } },
{ "type": "Feature", "properties": { "name": "Lotus House", "address": " 389 Stockport Road, Altrincham", "postcode": "WA15 7UR", "area_name": "Trafford" }, "geometry": { "type": "Point", "coordinates": [ -2.317225, 53.398008 ] } },
{ "type": "Feature", "properties": { "name": "Mughal", "address": " 86 Park Road, Timperley, Altrincham", "postcode": "WA14 5AB", "area_name": "Trafford" }, "geometry": { "type": "Point", "coordinates": [ -2.341007, 53.404217 ] } },
{ "type": "Feature", "properties": { "name": "New Joy's House", "address": " 136 Northenden Road, Sale, Cheshire", "postcode": "M33 3HE", "area_name": "Trafford" }, "geometry": { "type": "Point", "coordinates": [ -2.304674, 53.419991 ] } },
{ "type": "Feature", "properties": { "name": "Oldfield Tandoori", "address": " 122 Seamons Road, Altrincham", "postcode": "WA14 4LJ", "area_name": "Trafford" }, "geometry": { "type": "Point", "coordinates": [ -2.370871, 53.392982 ] } },
{ "type": "Feature", "properties": { "name": "Peter Pan Pizza", "address": " 880 Chester Road, Stretford, Manchester", "postcode": "M32 0PA", "area_name": "Trafford" }, "geometry": { "type": "Point", "coordinates": [ -2.299406, 53.453963 ] } },
{ "type": "Feature", "properties": { "name": "Rajdan", "address": " 401 Stockport Road, Timperley, Altrincham", "postcode": "WA15 7UR", "area_name": "Trafford" }, "geometry": { "type": "Point", "coordinates": [ -2.317405, 53.397935 ] } },
{ "type": "Feature", "properties": { "name": "Rosita's Pizzeria", "address": " 73 Princess Road, Urmston, Manchester", "postcode": "M41 5SQ", "area_name": "Trafford" }, "geometry": { "type": "Point", "coordinates": [ -2.365569, 53.451523 ] } },
{ "type": "Feature", "properties": { "name": "Saffron Balti", "address": " 81 Manchester Road, Altrincham", "postcode": "WA14 4RJ", "area_name": "Trafford" }, "geometry": { "type": "Point", "coordinates": [ -2.352436, 53.396803 ] } },
{ "type": "Feature", "properties": { "name": "Samuels", "address": " 164 Northenden Road, Sale, Cheshire", "postcode": "M33 3HE", "area_name": "Trafford" }, "geometry": { "type": "Point", "coordinates": [ -2.304674, 53.419991 ] } },
{ "type": "Feature", "properties": { "name": "Seven Ways", "address": " 224 Derbyshire Lane West, Stretford, Manchester", "postcode": "M32 9LD", "area_name": "Trafford" }, "geometry": { "type": "Point", "coordinates": [ -2.320799, 53.45113 ] } },
{ "type": "Feature", "properties": { "name": "Sorento Pizzeria", "address": " 19-21 Green Lane, Sale, Cheshire", "postcode": "M33 5PN", "area_name": "Trafford" }, "geometry": { "type": "Point", "coordinates": [ -2.3424, 53.429668 ] } },
{ "type": "Feature", "properties": { "name": "Taste India", "address": " 383 Stockport Road, Timperley Altrincham, Cheshire", "postcode": "WA15 7UR", "area_name": "Trafford" }, "geometry": { "type": "Point", "coordinates": [ -2.317225, 53.398008 ] } },
{ "type": "Feature", "properties": { "name": "Tele Pizza", "address": " 29 Flixton Road, Urmston, Manchester", "postcode": "M41 5AW", "area_name": "Trafford" }, "geometry": { "type": "Point", "coordinates": [ -2.355408, 53.448263 ] } },
{ "type": "Feature", "properties": { "name": "The Canadian Charcoal Pit", "address": " 143 Barton Road, Stretford, Manchester", "postcode": "M32 8DN", "area_name": "Trafford" }, "geometry": { "type": "Point", "coordinates": [ -2.314259, 53.446446 ] } },
{ "type": "Feature", "properties": { "name": "Well Bred", "address": " 34 Stamford Street, Altrincham", "postcode": "WA14 1EY", "area_name": "Trafford" }, "geometry": { "type": "Point", "coordinates": [ -2.347998, 53.389087 ] } },
{ "type": "Feature", "properties": { "name": "Yummy", "address": " 15 Flixton Road, Urmston, Manchester", "postcode": "M41 5AW", "area_name": "Trafford" }, "geometry": { "type": "Point", "coordinates": [ -2.355408, 53.448263 ] } },
{ "type": "Feature", "properties": { "name": "Alfresco Pizzeria", "address": " 18 Northenden Road, Sale", "postcode": "M33 3BR", "area_name": "Trafford" }, "geometry": { "type": "Point", "coordinates": [ -2.316966, 53.423824 ] } },
{ "type": "Feature", "properties": { "name": "Allens Fried Chicken", "address": " 1 Marsland Road, Sale", "postcode": "M33 3HP", "area_name": "Trafford" }, "geometry": { "type": "Point", "coordinates": [ -2.30482, 53.419298 ] } },
{ "type": "Feature", "properties": { "name": "Ashiana Takeaway", "address": " 262 Upper Chorlton Road, Old Trafford, Manchester", "postcode": "M16 0BN", "area_name": "Trafford" }, "geometry": { "type": "Point", "coordinates": [ -2.272296, 53.450873 ] } },
{ "type": "Feature", "properties": { "name": "Bravo Pizza", "address": " 27 Stamford Street, Altrincham", "postcode": "WA14 1EX", "area_name": "Trafford" }, "geometry": { "type": "Point", "coordinates": [ -2.348434, 53.389121 ] } },
{ "type": "Feature", "properties": { "name": "Canadian Charcoal Pit", "address": " 6 Church Street, Altrincham, Cheshire", "postcode": "WA14 4DW", "area_name": "Trafford" }, "geometry": { "type": "Point", "coordinates": [ -2.349928, 53.389809 ] } },
{ "type": "Feature", "properties": { "name": "Darbar Balti Tandoori", "address": " 187 Woodsend Road, Urmston, Manchester", "postcode": "M41 8QW", "area_name": "Trafford" }, "geometry": { "type": "Point", "coordinates": [ -2.394002, 53.456771 ] } },
{ "type": "Feature", "properties": { "name": "Delicia", "address": " 1 Florence Street, Sale, Cheshire", "postcode": "M33 7LA", "area_name": "Trafford" }, "geometry": { "type": "Point", "coordinates": [ -2.319613, 53.431565 ] } },
{ "type": "Feature", "properties": { "name": "Eat East", "address": " 3 Peter Street, Altrincham", "postcode": "WA14 2DZ", "area_name": "Trafford" }, "geometry": { "type": "Point", "coordinates": [ -2.351501, 53.383647 ] } },
{ "type": "Feature", "properties": { "name": "Fresh 2 Cook", "address": " 378 Northenden Road, Sale", "postcode": "M33 2PZ", "area_name": "Trafford" }, "geometry": { "type": "Point", "coordinates": [ -2.29159, 53.418846 ] } },
{ "type": "Feature", "properties": { "name": "Golden Dragon", "address": " 64 Old Crofts Bank, Urmston, Manchester", "postcode": "M41 7AB", "area_name": "Trafford" }, "geometry": { "type": "Point", "coordinates": [ -2.357326, 53.456168 ] } },
{ "type": "Feature", "properties": { "name": "Hing Fat", "address": " 60 Norway Street, Stretford, Manchester", "postcode": "M32 0JW", "area_name": "Trafford" }, "geometry": { "type": "Point", "coordinates": [ -2.302217, 53.455295 ] } },
{ "type": "Feature", "properties": { "name": "Hong Kong Chippy", "address": " 149 Henrietta Street, Old Trafford, Manchester", "postcode": "M16 9PS", "area_name": "Trafford" }, "geometry": { "type": "Point", "coordinates": [ -2.267698, 53.459638 ] } },
{ "type": "Feature", "properties": { "name": "Latifs", "address": " 381a Stretford Road, Old Trafford, Manchester", "postcode": "M15 4AD", "area_name": "Trafford" }, "geometry": { "type": "Point", "coordinates": [ -2.260378, 53.464625 ] } },
{ "type": "Feature", "properties": { "name": "Lucky Wok", "address": " 24 Cross Street, Sale", "postcode": "M33 7AE", "area_name": "Trafford" }, "geometry": { "type": "Point", "coordinates": [ -2.324493, 53.426096 ] } },
{ "type": "Feature", "properties": { "name": "Lucy's", "address": " 477 Moorside Road, Flixton, Manchester", "postcode": "M41 8TW", "area_name": "Trafford" }, "geometry": { "type": "Point", "coordinates": [ -2.391387, 53.452429 ] } },
{ "type": "Feature", "properties": { "name": "Mamalicious", "address": " 184 Davyhulme Road, Stretford, Manchester", "postcode": "M32 0AS", "area_name": "Trafford" }, "geometry": { "type": "Point", "coordinates": [ -2.315783, 53.453022 ] } },
{ "type": "Feature", "properties": { "name": "Monty's", "address": " 130 Seamons Road, Altrincham", "postcode": "WA14 4LJ", "area_name": "Trafford" }, "geometry": { "type": "Point", "coordinates": [ -2.370871, 53.392981 ] } },
{ "type": "Feature", "properties": { "name": "Peri Grill", "address": " 55a Washway Road, Sale", "postcode": "M33 7AB", "area_name": "Trafford" }, "geometry": { "type": "Point", "coordinates": [ -2.327301, 53.42341 ] } },
{ "type": "Feature", "properties": { "name": "Pizza Bravo", "address": " 2 Seymour Grove, Old Trafford, Manchester", "postcode": "M16 0LH", "area_name": "Trafford" }, "geometry": { "type": "Point", "coordinates": [ -2.276745, 53.461316 ] } },
{ "type": "Feature", "properties": { "name": "Pizza Planet", "address": " 4 Lostock Road, Urmston, Manchester", "postcode": "M41 0PS", "area_name": "Trafford" }, "geometry": { "type": "Point", "coordinates": [ -2.355818, 53.457763 ] } },
{ "type": "Feature", "properties": { "name": "Pizza Point", "address": " 272 Kings Road, Stretford, Manchester", "postcode": "M16 0HH", "area_name": "Trafford" }, "geometry": { "type": "Point", "coordinates": [ -2.28541, 53.453017 ] } },
{ "type": "Feature", "properties": { "name": "Smoky's", "address": " 414 Barton Road, Stretford, Manchester", "postcode": "M32 9RW", "area_name": "Trafford" }, "geometry": { "type": "Point", "coordinates": [ -2.32587, 53.454613 ] } },
{ "type": "Feature", "properties": { "name": "Taza Speedy Foods", "address": " 100 Chorlton Road, Old Trafford, Manchester", "postcode": "M15 4AN", "area_name": "Trafford" }, "geometry": { "type": "Point", "coordinates": [ -2.258574, 53.46258 ] } },
{ "type": "Feature", "properties": { "name": "The Original United Chippy", "address": " 678 Chester Road, Stretford, Manchester", "postcode": "M32 0SF", "area_name": "Trafford" }, "geometry": { "type": "Point", "coordinates": [ -2.288629, 53.461396 ] } },
{ "type": "Feature", "properties": { "name": "Tikka Express", "address": " 40 Riddings Road, Timperley, Altrincham", "postcode": "WA15 6BP", "area_name": "Trafford" }, "geometry": { "type": "Point", "coordinates": [ -2.331307, 53.404433 ] } },
{ "type": "Feature", "properties": { "name": "Timperley Fish Bar", "address": " 216 Stockport Road, Timperley, Altrincham", "postcode": "WA15 7UA", "area_name": "Trafford" }, "geometry": { "type": "Point", "coordinates": [ -2.320585, 53.396839 ] } },
{ "type": "Feature", "properties": { "name": "Turkish Grill", "address": " 70 Park Road, Timperley, Altrincham", "postcode": "WA14 5AB", "area_name": "Trafford" }, "geometry": { "type": "Point", "coordinates": [ -2.341007, 53.404217 ] } },
{ "type": "Feature", "properties": { "name": "Turkish Kebab House", "address": " 182a Davyhulme Road, Stretford, Manchester", "postcode": "M32 0AS", "area_name": "Trafford" }, "geometry": { "type": "Point", "coordinates": [ -2.315783, 53.453022 ] } },
{ "type": "Feature", "properties": { "name": "Urmston Fish Bar", "address": " 148 Flixton Road, Urmston, Manchester", "postcode": "M41 5BG", "area_name": "Trafford" }, "geometry": { "type": "Point", "coordinates": [ -2.3628, 53.448232 ] } },
{ "type": "Feature", "properties": { "name": "Village Green Takeaway", "address": " 6 Hall Lane, Partington, Manchester", "postcode": "M31 4PY", "area_name": "Trafford" }, "geometry": { "type": "Point", "coordinates": [ -2.428008, 53.42088 ] } },
{ "type": "Feature", "properties": { "name": "Manha Spice \/ Radhuni", "address": " 12b Moss Road, Stretford, Manchester", "postcode": "M32 0AH", "area_name": "Trafford" }, "geometry": { "type": "Point", "coordinates": [ -2.310033, 53.451221 ] } },
{ "type": "Feature", "properties": { "name": "Planet Spice", "address": " 876 Chester Road, Stretford, Manchester", "postcode": "M32 0PA", "area_name": "Trafford" }, "geometry": { "type": "Point", "coordinates": [ -2.299406, 53.453963 ] } },
{ "type": "Feature", "properties": { "name": "Trafford Oriental", "address": " 18 Seymour Grove, Old Trafford, Manchester", "postcode": "M16 0LH", "area_name": "Trafford" }, "geometry": { "type": "Point", "coordinates": [ -2.276745, 53.461316 ] } },
{ "type": "Feature", "properties": { "name": "Tru Street", "address": " 126 The Orient, Trafford Centre, Trafford Park", "postcode": "M17 8EH", "area_name": "Trafford" }, "geometry": { "type": "Point", "coordinates": [ -2.34902000427246, 53.4661865234375 ] } },
{ "type": "Feature", "properties": { "name": "Ali's Nice n Spicey", "address": " 9 Edge Lane, Stretford, Manchester", "postcode": "M32 8HN", "area_name": "Trafford" }, "geometry": { "type": "Point", "coordinates": [ -2.305779, 53.44601 ] } },
{ "type": "Feature", "properties": { "name": "Bento King Express", "address": " 896 Chester Road, Stretford, Manchester", "postcode": "M32 0PA", "area_name": "Trafford" }, "geometry": { "type": "Point", "coordinates": [ -2.299406, 53.453963 ] } },
{ "type": "Feature", "properties": { "name": "Captain Cook", "address": " 908 Chester Road, Stretford, Manchester", "postcode": "M32 0PA", "area_name": "Trafford" }, "geometry": { "type": "Point", "coordinates": [ -2.299406, 53.453963 ] } },
{ "type": "Feature", "properties": { "name": "Double Dragon", "address": " 1a Moss Lane West, Old Trafford, Manchester", "postcode": "M15 5PQ", "area_name": "Trafford" }, "geometry": { "type": "Point", "coordinates": [ -2.256508, 53.459744 ] } },
{ "type": "Feature", "properties": { "name": "Eastern Revive Takeaway", "address": " 188 Ashley Road, Hale, Altrincham", "postcode": "WA15 9SF", "area_name": "Trafford" }, "geometry": { "type": "Point", "coordinates": [ -2.34608101844788, 53.377029418945298 ] } },
{ "type": "Feature", "properties": { "name": "Jola Food Ltd", "address": " Market Hall, Stretford Arndale, Chester Road", "postcode": "M32 9BD", "area_name": "Trafford" }, "geometry": { "type": "Point", "coordinates": [ -2.31083202362061, 53.445213317871101 ] } },
{ "type": "Feature", "properties": { "name": "Jolly House", "address": " 4 The Circle, Stretford, Manchester", "postcode": "M32 9TR", "area_name": "Trafford" }, "geometry": { "type": "Point", "coordinates": [ -2.336501, 53.456516 ] } },
{ "type": "Feature", "properties": { "name": "Kebabish", "address": " 674 Chester Road, Stretford, Manchester", "postcode": "M32 0SF", "area_name": "Trafford" }, "geometry": { "type": "Point", "coordinates": [ -2.288629, 53.461396 ] } },
{ "type": "Feature", "properties": { "name": "Mr Yungs", "address": " 134 Moss Lane, Hale, Altrincham", "postcode": "WA15 8AN", "area_name": "Trafford" }, "geometry": { "type": "Point", "coordinates": [ -2.3365811, 53.3829699 ] } },
{ "type": "Feature", "properties": { "name": "Recipe Indias Finest", "address": "5&5a, 5 Marsland Road, Sale", "postcode": "M33 3HP", "area_name": "Trafford" }, "geometry": { "type": "Point", "coordinates": [ -2.3040092, 53.4194612 ] } },
{ "type": "Feature", "properties": { "name": "Sale Indian Cuisine", "address": " 5 Ashton Lane, Sale", "postcode": "M33 6WT", "area_name": "Trafford" }, "geometry": { "type": "Point", "coordinates": [ -2.32635593414307, 53.425712585449197 ] } },
{ "type": "Feature", "properties": { "name": "Sams' Daily Deli", "address": " 68 Park Road, Timperley, Altrincham", "postcode": "WA14 5AB", "area_name": "Trafford" }, "geometry": { "type": "Point", "coordinates": [ -2.341006, 53.404216 ] } },
{ "type": "Feature", "properties": { "name": "TandD Tastee Jerk Caribbean", "address": " 9 Moss Lane West, Old Trafford, Manchester", "postcode": "M15 5PQ", "area_name": "Trafford" }, "geometry": { "type": "Point", "coordinates": [ -2.2574526, 53.4591924 ] } },
{ "type": "Feature", "properties": { "name": "The Grill", "address": " 132 Moss Lane, Timperley, Altrincham", "postcode": "WA15 6JL", "area_name": "Trafford" }, "geometry": { "type": "Point", "coordinates": [ -2.33355689048767, 53.399879455566399 ] } },
{ "type": "Feature", "properties": { "name": "The Teapee", "address": " 8 Chassen Road, Urmston, Manchester", "postcode": "M41 5DH", "area_name": "Trafford" }, "geometry": { "type": "Point", "coordinates": [ -2.37015604972839, 53.447399139404297 ] } },
{ "type": "Feature", "properties": { "name": "Wing Haus", "address": " 888 Chester Road, Stretford, Manchester", "postcode": "M32 0PA", "area_name": "Trafford" }, "geometry": { "type": "Point", "coordinates": [ -2.299406, 53.453963 ] } },
{ "type": "Feature", "properties": { "name": "L & B Foods", "address": " 135 Barkway Road, Stretford, Manchester", "postcode": "M32 9DX", "area_name": "Trafford" }, "geometry": { "type": "Point", "coordinates": [ -2.326334, 53.44653 ] } }
]
}
