{
"type": "FeatureCollection",
"crs": { "type": "name", "properties": { "name": "urn:ogc:def:crs:OGC:1.3:CRS84" } },
"features": [
{ "type": "Feature", "properties": { "id": "6065", "name": "Heald Place Primary School", "address": "entrance on Parkfield Street, Rusholme, Manchester", "postcode": "M14 7PE", "area_code": "E08000003", "area_name": "Manchester" }, "geometry": { "type": "Point", "coordinates": [ -2.230923, 53.452039 ] } },
{ "type": "Feature", "properties": { "id": "6047", "name": "Arawak Walton Housing Association", "address": "Sycamore Court, 144 Sandal Street, Manchester", "postcode": "M40 7BS", "area_code": "E08000003", "area_name": "Manchester" }, "geometry": { "type": "Point", "coordinates": [ -2.205117, 53.490296 ] } },
{ "type": "Feature", "properties": { "id": "6163", "name": "English Martyr's Parish Centre", "address": "Alexandra Road South, Whalley Range, Manchester", "postcode": "M16 8GF", "area_code": "E08000003", "area_name": "Manchester" }, "geometry": { "type": "Point", "coordinates": [ -2.251054, 53.446686 ] } },
{ "type": "Feature", "properties": { "id": "5896", "name": "Wilbraham Primary School", "address": "Platt Lane, Fallowfield, Manchester", "postcode": "M14 7FB", "area_code": "E08000003", "area_name": "Manchester" }, "geometry": { "type": "Point", "coordinates": [ -2.237369, 53.44684 ] } },
{ "type": "Feature", "properties": { "id": "5752", "name": "Ukrainian Cultural Centre", "address": "31 Smedley Lane, Cheetham, Manchester", "postcode": "M8 8XB", "area_code": "E08000003", "area_name": "Manchester" }, "geometry": { "type": "Point", "coordinates": [ -2.232127, 53.504251 ] } },
{ "type": "Feature", "properties": { "id": "6006", "name": "St Peters Church", "address": "Stockport Road\/Barlow Road, Levenshulme, Manchester", "postcode": "M19 3BS", "area_code": "E08000003", "area_name": "Manchester" }, "geometry": { "type": "Point", "coordinates": [ -2.19117, 53.445449 ] } },
{ "type": "Feature", "properties": { "id": "5621", "name": "Victoria Square", "address": "Community Room, Oldham Road, Manchester", "postcode": "M4 5DX", "area_code": "E08000003", "area_name": "Manchester" }, "geometry": { "type": "Point", "coordinates": [ -2.229267, 53.485704 ] } },
{ "type": "Feature", "properties": { "id": "5804", "name": "Wilbraham St Ninians Church", "address": "Egerton Road South, Chorlton-Cum-Hardy, Manchester", "postcode": "M21 0XJ", "area_code": "E08000003", "area_name": "Manchester" }, "geometry": { "type": "Point", "coordinates": [ -2.269116, 53.441056 ] } },
{ "type": "Feature", "properties": { "id": "5900", "name": "Union Chapel", "address": "Wellington Road, entrance on Waller Avenue, Fallowfield, Manchester", "postcode": "M14 6EQ", "area_code": "E08000003", "area_name": "Manchester" }, "geometry": { "type": "Point", "coordinates": [ -2.223191, 53.442077 ] } },
{ "type": "Feature", "properties": { "id": "6015", "name": "Northmoor Road Methodist Church", "address": "Northmoor Road, Longsight, Manchester", "postcode": "M12 5RT", "area_code": "E08000003", "area_name": "Manchester" }, "geometry": { "type": "Point", "coordinates": [ -2.192541, 53.455712 ] } },
{ "type": "Feature", "properties": { "id": "6138", "name": "St Johns CE Primary School", "address": "Clarence Road, Longsight, Manchester", "postcode": "M13 0YE", "area_code": "E08000003", "area_name": "Manchester" }, "geometry": { "type": "Point", "coordinates": [ -2.206529, 53.458304 ] } },
{ "type": "Feature", "properties": { "id": "5801", "name": "Community Centre", "address": "23 Mersey Bank Avenue, Barlow Moor, Manchester", "postcode": "M21 7NT", "area_code": "E08000003", "area_name": "Manchester" }, "geometry": { "type": "Point", "coordinates": [ -2.262092, 53.422555 ] } },
{ "type": "Feature", "properties": { "id": "5881", "name": "Christ Church Parish Hall", "address": "Princess Road, entrance on Darley Avenue, West Didsbury, Manchester", "postcode": "M20 2ZD", "area_code": "E08000003", "area_name": "Manchester" }, "geometry": { "type": "Point", "coordinates": [ -2.255864, 53.422731 ] } },
{ "type": "Feature", "properties": { "id": "5828", "name": "Crumpsall Lane Primary School - Nursery", "address": "Crumpsall Lane, Manchester", "postcode": "M8 5SR", "area_code": "E08000003", "area_name": "Manchester" }, "geometry": { "type": "Point", "coordinates": [ -2.238958, 53.517873 ] } },
{ "type": "Feature", "properties": { "id": "6141", "name": "St Lukes Parish Hall", "address": "Brownley Road, Benchill, Wythenshawe, Manchester", "postcode": "M22 4PT", "area_code": "E08000003", "area_name": "Manchester" }, "geometry": { "type": "Point", "coordinates": [ -2.255046, 53.389295 ] } },
{ "type": "Feature", "properties": { "id": "5884", "name": "St James and Emmanuel Church Parish Centre", "address": "6 Barlow Moor Road, Didsbury, Manchester", "postcode": "M20 6TR", "area_code": "E08000003", "area_name": "Manchester" }, "geometry": { "type": "Point", "coordinates": [ -2.233736, 53.418569 ] } },
{ "type": "Feature", "properties": { "id": "6009", "name": "St Marks Church", "address": "Barlow Road, Levenshulme, Manchester", "postcode": "M19 3HP", "area_code": "E08000003", "area_name": "Manchester" }, "geometry": { "type": "Point", "coordinates": [ -2.179036, 53.445738 ] } },
{ "type": "Feature", "properties": { "id": "5773", "name": "Chorlton Library", "address": "Manchester Road, Chorlton, Manchester", "postcode": "M21 9PN", "area_code": "E08000003", "area_name": "Manchester" }, "geometry": { "type": "Point", "coordinates": [ -2.279043, 53.444269 ] } },
{ "type": "Feature", "properties": { "id": "5927", "name": "Abbey Hey Primary Academy", "address": "Abbey Hey Lane, Gorton, Manchester", "postcode": "M18 8PF", "area_code": "E08000003", "area_name": "Manchester" }, "geometry": { "type": "Point", "coordinates": [ -2.165392, 53.46413 ] } },
{ "type": "Feature", "properties": { "id": "5820", "name": "Clayton Sure Start Childrens Centre", "address": "101 North Road, Clayton, Manchester", "postcode": "M11 4NE", "area_code": "E08000003", "area_name": "Manchester" }, "geometry": { "type": "Point", "coordinates": [ -2.180346, 53.484898 ] } },
{ "type": "Feature", "properties": { "id": "6169", "name": "Manley Park Primary School", "address": "York Avenue, Whalley Range, Manchester", "postcode": "M16 0AS", "area_code": "E08000003", "area_name": "Manchester" }, "geometry": { "type": "Point", "coordinates": [ -2.268342, 53.449597 ] } },
{ "type": "Feature", "properties": { "id": "5854", "name": "St Cuthbert's RC Primary School", "address": "Heyscroft Road, Withington, Manchester", "postcode": "M20 4UZ", "area_code": "E08000003", "area_name": "Manchester" }, "geometry": { "type": "Point", "coordinates": [ -2.221425, 53.429703 ] } },
{ "type": "Feature", "properties": { "id": "5857", "name": "Didsbury Baptist Church", "address": "Beaver Road \/ School Lane, Didsbury, Manchester", "postcode": "M20 6SX", "area_code": "E08000003", "area_name": "Manchester" }, "geometry": { "type": "Point", "coordinates": [ -2.228901, 53.417662 ] } },
{ "type": "Feature", "properties": { "id": "5841", "name": "GMT Whitehouse Club", "address": "193 Middleton Road, Crumpsall, Manchester", "postcode": "M8 4JZ", "area_code": "E08000003", "area_name": "Manchester" }, "geometry": { "type": "Point", "coordinates": [ -2.249399, 53.52382 ] } },
{ "type": "Feature", "properties": { "id": "5682", "name": "Sandilands Primary School", "address": "Infant Department, Wendover Road, Brooklands, Manchester", "postcode": "M23 9JX", "area_code": "E08000003", "area_name": "Manchester" }, "geometry": { "type": "Point", "coordinates": [ -2.308835, 53.402462 ] } },
{ "type": "Feature", "properties": { "id": "5776", "name": "Chorlton Unitarian Church", "address": "Wilbraham Road, entrance via Car Park, Manchester", "postcode": "M21 9LB", "area_code": "E08000003", "area_name": "Manchester" }, "geometry": { "type": "Point", "coordinates": [ -2.285507, 53.442834 ] } },
{ "type": "Feature", "properties": { "id": "5915", "name": "Old Hall Drive Academy", "address": "Old Hall Drive, Gorton, Manchester", "postcode": "M18 7FU", "area_code": "E08000003", "area_name": "Manchester" }, "geometry": { "type": "Point", "coordinates": [ -2.170639, 53.458109 ] } },
{ "type": "Feature", "properties": { "id": "6107", "name": "St Christophers Parish Hall", "address": "Moorgate Avenue, Withington, Manchester", "postcode": "M20 1HE", "area_code": "E08000003", "area_name": "Manchester" }, "geometry": { "type": "Point", "coordinates": [ -2.245978, 53.433304 ] } },
{ "type": "Feature", "properties": { "id": "5975", "name": "Temporary Building", "address": "Riverdale Road, Blackley, Manchester", "postcode": "M9 8JX", "area_code": "E08000003", "area_name": "Manchester" }, "geometry": { "type": "Point", "coordinates": [ -2.235595, 53.526068 ] } },
{ "type": "Feature", "properties": { "id": "6132", "name": "38 Meldon Road", "address": "Anson Estate, Rusholme, Manchester", "postcode": "M13 0TR", "area_code": "E08000003", "area_name": "Manchester" }, "geometry": { "type": "Point", "coordinates": [ -2.203902, 53.450587 ] } },
{ "type": "Feature", "properties": { "id": "5798", "name": "Barlow Hall Primary School", "address": "Darley Avenue, Chorton-cum-Hardy, Manchester", "postcode": "M21 7JG", "area_code": "E08000003", "area_name": "Manchester" }, "geometry": { "type": "Point", "coordinates": [ -2.269786, 53.427993 ] } },
{ "type": "Feature", "properties": { "id": "5982", "name": "St Wilfrid's Enterprise Centre", "address": "Royce Road, Hulme, Manchester", "postcode": "M15 5BJ", "area_code": "E08000003", "area_name": "Manchester" }, "geometry": { "type": "Point", "coordinates": [ -2.253399, 53.468811 ] } },
{ "type": "Feature", "properties": { "id": "5755", "name": "Cheetham CE Community Academy", "address": "Halliwell Lane, Cheetham, Manchester", "postcode": "M8 9FR", "area_code": "E08000003", "area_name": "Manchester" }, "geometry": { "type": "Point", "coordinates": [ -2.24555, 53.507685 ] } },
{ "type": "Feature", "properties": { "id": "6145", "name": "Crossacres Primary School", "address": "Crossacres Road, Wythenshawe, Manchester", "postcode": "M22 5AD", "area_code": "E08000003", "area_name": "Manchester" }, "geometry": { "type": "Point", "coordinates": [ -2.245303, 53.386682 ] } },
{ "type": "Feature", "properties": { "id": "5738", "name": "St Mary's C.E. Primary School", "address": "St Mary's Road, Moston, Manchester", "postcode": "M40 0DF", "area_code": "E08000003", "area_name": "Manchester" }, "geometry": { "type": "Point", "coordinates": [ -2.178658, 53.517007 ] } },
{ "type": "Feature", "properties": { "id": "6190", "name": "St Marks URC", "address": "Oatlands Road, Woodhouse Park, Manchester", "postcode": "M22 1AH", "area_code": "E08000003", "area_name": "Manchester" }, "geometry": { "type": "Point", "coordinates": [ -2.267716, 53.376342 ] } },
{ "type": "Feature", "properties": { "id": "6193", "name": "St Anthony's Parish Centre", "address": "Portway, Manchester", "postcode": "M22 0WR", "area_code": "E08000003", "area_name": "Manchester" }, "geometry": { "type": "Point", "coordinates": [ -2.259032, 53.372127 ] } },
{ "type": "Feature", "properties": { "id": "5960", "name": "Glenbrook Road Hall", "address": "Glenbrook Road, Higher Blackley, Manchester", "postcode": "M9 0PQ", "area_code": "E08000003", "area_name": "Manchester" }, "geometry": { "type": "Point", "coordinates": [ -2.239941, 53.534436 ] } },
{ "type": "Feature", "properties": { "id": "5906", "name": "Owens Park", "address": "293 Wilmslow Road, Fallowfield, Manchester", "postcode": "M14 6HX", "area_code": "E08000003", "area_name": "Manchester" }, "geometry": { "type": "Point", "coordinates": [ -2.217371, 53.443292 ] } },
{ "type": "Feature", "properties": { "id": "5664", "name": "Sacred Heart Catholic Primary School", "address": "Floatshall Road, Baguley, Manchester", "postcode": "M23 1HP", "area_code": "E08000003", "area_name": "Manchester" }, "geometry": { "type": "Point", "coordinates": [ -2.289483, 53.396524 ] } },
{ "type": "Feature", "properties": { "id": "6027", "name": "Belle Vue Leisure Centre", "address": "Kirkmanshulme Lane, Longsight, Manchester", "postcode": "M12 4TF", "area_code": "E08000003", "area_name": "Manchester" }, "geometry": { "type": "Point", "coordinates": [ -2.191432, 53.460289 ] } },
{ "type": "Feature", "properties": { "id": "5890", "name": "Didsbury United Reformed Church", "address": "Parkfield Road South, Didsbury, Manchester", "postcode": "M20 6DA", "area_code": "E08000003", "area_name": "Manchester" }, "geometry": { "type": "Point", "coordinates": [ -2.238809, 53.421687 ] } },
{ "type": "Feature", "properties": { "id": "6129", "name": "Birch Community Centre", "address": "Brighton Grove, entrance on Danes Road, Rusholme, Manchester", "postcode": "M14 5JT", "area_code": "E08000003", "area_name": "Manchester" }, "geometry": { "type": "Point", "coordinates": [ -2.2156, 53.450405 ] } },
{ "type": "Feature", "properties": { "id": "6044", "name": "The Stirling Centre", "address": "Scotland Hall Road, Manchester", "postcode": "M40 2AZ", "area_code": "E08000003", "area_name": "Manchester" }, "geometry": { "type": "Point", "coordinates": [ -2.180201, 53.49324 ] } },
{ "type": "Feature", "properties": { "id": "5848", "name": "Castlefield Hotel", "address": "Liverpool Road, Manchester", "postcode": "M3 4JR", "area_code": "E08000003", "area_name": "Manchester" }, "geometry": { "type": "Point", "coordinates": [ -2.25688, 53.476516 ] } },
{ "type": "Feature", "properties": { "id": "5694", "name": "Church of the Nazarene", "address": "Wendover Road, Brooklands, Manchester", "postcode": "M23 9FN", "area_code": "E08000003", "area_name": "Manchester" }, "geometry": { "type": "Point", "coordinates": [ -2.304567, 53.405044 ] } },
{ "type": "Feature", "properties": { "id": "5994", "name": "Levenshulme Baptist Church", "address": "Elmsworth Avenue, Manchester", "postcode": "M19 3NS", "area_code": "E08000003", "area_name": "Manchester" }, "geometry": { "type": "Point", "coordinates": [ -2.185181, 53.442816 ] } },
{ "type": "Feature", "properties": { "id": "6160", "name": "Our Lady's RC Primary School", "address": "Whalley Road, Whalley Range, Manchester", "postcode": "M16 8AW", "area_code": "E08000003", "area_name": "Manchester" }, "geometry": { "type": "Point", "coordinates": [ -2.265457, 53.452911 ] } },
{ "type": "Feature", "properties": { "id": "6330", "name": "Hulme Hall", "address": "Oxford Place, Victoria Park, Manchester", "postcode": "M14 5RR", "area_code": "E08000003", "area_name": "Manchester" }, "geometry": { "type": "Point", "coordinates": [ -2.223498, 53.457581 ] } },
{ "type": "Feature", "properties": { "id": "6184", "name": "Woodhouse Park Lifestyle Centre", "address": "Portway, Woodhouse Park, Manchester", "postcode": "M22 1QW", "area_code": "E08000003", "area_name": "Manchester" }, "geometry": { "type": "Point", "coordinates": [ -2.273337, 53.373911 ] } },
{ "type": "Feature", "properties": { "id": "6119", "name": "Manchester College", "address": "Shena Simon Campus, Whitworth Street, (entrance on Chorlton Street), Manchester", "postcode": "M1 3HB", "area_code": "E08000003", "area_name": "Manchester" }, "geometry": { "type": "Point", "coordinates": [ -2.234824, 53.476678 ] } },
{ "type": "Feature", "properties": { "id": "5676", "name": "Word Of Life Community Church", "address": "formerly known as St Francis Community Centre, Chalford Road, Newall Green, Manchester", "postcode": "M23 2RD", "area_code": "E08000003", "area_name": "Manchester" }, "geometry": { "type": "Point", "coordinates": [ -2.283163, 53.384692 ] } },
{ "type": "Feature", "properties": { "id": "5749", "name": "Moston Fields Primary School", "address": "Croft Hill Road \/ Tyndall Avenue, Moston, Manchester", "postcode": "M40 9PP", "area_code": "E08000003", "area_name": "Manchester" }, "geometry": { "type": "Point", "coordinates": [ -2.193966, 53.517038 ] } },
{ "type": "Feature", "properties": { "id": "5712", "name": "Westcroft Community Centre", "address": "26 Westcroft Road, Burnage, Manchester", "postcode": "M20 6EF", "area_code": "E08000003", "area_name": "Manchester" }, "geometry": { "type": "Point", "coordinates": [ -2.215681, 53.42477 ] } },
{ "type": "Feature", "properties": { "id": "5838", "name": "Cravenwood Primary Academy", "address": "Cravenwood Road, Crumpsall, Manchester", "postcode": "M8 5AE", "area_code": "E08000003", "area_name": "Manchester" }, "geometry": { "type": "Point", "coordinates": [ -2.241529, 53.513913 ] } },
{ "type": "Feature", "properties": { "id": "5758", "name": "Unity Community Primary School", "address": "formely known as Cheetwood Centre, 41 Allesley Drive, Manchester", "postcode": "M7 4YE", "area_code": "E08000003", "area_name": "Manchester" }, "geometry": { "type": "Point", "coordinates": [ -2.249223, 53.501556 ] } },
{ "type": "Feature", "properties": { "id": "5969", "name": "Plant Hill Adult Learning Centre", "address": "Plant Hill Road, Higher Blackley, Manchester", "postcode": "M9 0WQ", "area_code": "E08000003", "area_name": "Manchester" }, "geometry": { "type": "Point", "coordinates": [ -2.22249, 53.529679 ] } },
{ "type": "Feature", "properties": { "id": "5720", "name": "Crosslee Primary School", "address": "Crosslee Road, Blackley, Manchester", "postcode": "M9 6TG", "area_code": "E08000003", "area_name": "Manchester" }, "geometry": { "type": "Point", "coordinates": [ -2.196436, 53.529446 ] } },
{ "type": "Feature", "properties": { "id": "5659", "name": "Royal Oak Community Centre", "address": "Brookcot Road, Manchester", "postcode": "M23 1DY", "area_code": "E08000003", "area_name": "Manchester" }, "geometry": { "type": "Point", "coordinates": [ -2.290356, 53.398787 ] } },
{ "type": "Feature", "properties": { "id": "5673", "name": "Newall Green Primary School", "address": "Firbank Road, Manchester", "postcode": "M23 2YH", "area_code": "E08000003", "area_name": "Manchester" }, "geometry": { "type": "Point", "coordinates": [ -2.27942, 53.387083 ] } },
{ "type": "Feature", "properties": { "id": "5887", "name": "Ivy Manchester Church", "address": "Barlow Moor Road, Didsbury, Manchester", "postcode": "M20 2GP", "area_code": "E08000003", "area_name": "Manchester" }, "geometry": { "type": "Point", "coordinates": [ -2.238375, 53.41954 ] } },
{ "type": "Feature", "properties": { "id": "5644", "name": "St Joseph's RC Primary School", "address": "Nursery Annexe, entrance on Daisy Bank Road, Longsight, Manchester", "postcode": "M13 0BT", "area_code": "E08000003", "area_name": "Manchester" }, "geometry": { "type": "Point", "coordinates": [ -2.208961, 53.459684 ] } },
{ "type": "Feature", "properties": { "id": "6059", "name": "Whalley Range Methodist Church", "address": "51 Withington Road, Moss Side, Manchester", "postcode": "M16 7EX", "area_code": "E08000003", "area_name": "Manchester" }, "geometry": { "type": "Point", "coordinates": [ -2.258035, 53.455741 ] } },
{ "type": "Feature", "properties": { "id": "5912", "name": "Divine Mercy RC Primary School", "address": "20 Blue Moon Way, Moss Side, Manchester", "postcode": "M14 7SH", "area_code": "E08000003", "area_name": "Manchester" }, "geometry": { "type": "Point", "coordinates": [ -2.235824, 53.450788 ] } },
{ "type": "Feature", "properties": { "id": "5788", "name": "St Werburgh's Church Hall", "address": "St Werburghs Road, Manchester", "postcode": "M21 0TJ", "area_code": "E08000003", "area_name": "Manchester" }, "geometry": { "type": "Point", "coordinates": [ -2.267753, 53.444592 ] } },
{ "type": "Feature", "properties": { "id": "5629", "name": "CE School of the Resurrection", "address": "Pilgrim Drive, Beswick, Manchester", "postcode": "M11 3TQ", "area_code": "E08000003", "area_name": "Manchester" }, "geometry": { "type": "Point", "coordinates": [ -2.200666, 53.479671 ] } },
{ "type": "Feature", "properties": { "id": "5785", "name": "St John's Parish Centre", "address": "Chequers Road, Chorlton-Cum-Hardy, Manchester", "postcode": "M21 9DX", "area_code": "E08000003", "area_name": "Manchester" }, "geometry": { "type": "Point", "coordinates": [ -2.278858, 53.439029 ] } },
{ "type": "Feature", "properties": { "id": "6098", "name": "Jimmy Egans Boxing Academy", "address": "Royalthorn Road, Benchill, Manchester", "postcode": "M22 8AD", "area_code": "E08000003", "area_name": "Manchester" }, "geometry": { "type": "Point", "coordinates": [ -2.260669, 53.394119 ] } },
{ "type": "Feature", "properties": { "id": "6113", "name": "Withington Girls’ School", "address": "100 Wellington Road, Fallowfield, Manchester", "postcode": "M14 6BL", "area_code": "E08000003", "area_name": "Manchester" }, "geometry": { "type": "Point", "coordinates": [ -2.22518, 53.439502 ] } },
{ "type": "Feature", "properties": { "id": "5869", "name": "East Didsbury Methodist Church Hall", "address": "496 Parrs Wood Road, East Didsbury, Manchester", "postcode": "M20 5QQ", "area_code": "E08000003", "area_name": "Manchester" }, "geometry": { "type": "Point", "coordinates": [ -2.226179, 53.40671 ] } },
{ "type": "Feature", "properties": { "id": "5647", "name": "Coverdale Baptist Church", "address": "Morbourne Close, Ardwick, Manchester", "postcode": "M12 4FG", "area_code": "E08000003", "area_name": "Manchester" }, "geometry": { "type": "Point", "coordinates": [ -2.214481, 53.467377 ] } },
{ "type": "Feature", "properties": { "id": "5656", "name": "Active Lifestyle Centre", "address": "Denmark Road, Moss Side, Manchester", "postcode": "M15 6FG", "area_code": "E08000003", "area_name": "Manchester" }, "geometry": { "type": "Point", "coordinates": [ -2.233332, 53.4605 ] } },
{ "type": "Feature", "properties": { "id": "5726", "name": "Chain Bar Methodist Hall", "address": "Nina Drive, Moston, Manchester", "postcode": "M40 5RT", "area_code": "E08000003", "area_name": "Manchester" }, "geometry": { "type": "Point", "coordinates": [ -2.178433, 53.524405 ] } },
{ "type": "Feature", "properties": { "id": "5834", "name": "St Thomas with St Mark Church", "address": "Junction of Chataway Road, and Hazelbottom Road, Lower Crumpsall, Manchester", "postcode": "M8 5UX", "area_code": "E08000003", "area_name": "Manchester" }, "geometry": { "type": "Point", "coordinates": [ -2.224686, 53.511366 ] } },
{ "type": "Feature", "properties": { "id": "5976", "name": "Bowker Vale Primary School", "address": "Middleton Road, Crumpsall, Manchester", "postcode": "M8 4NB", "area_code": "E08000003", "area_name": "Manchester" }, "geometry": { "type": "Point", "coordinates": [ -2.244919, 53.531631 ] } },
{ "type": "Feature", "properties": { "id": "5706", "name": "St Bernard's Parish Centre", "address": "Burnage Lane, Manchester", "postcode": "M19 1DR", "area_code": "E08000003", "area_name": "Manchester" }, "geometry": { "type": "Point", "coordinates": [ -2.201526, 53.429494 ] } },
{ "type": "Feature", "properties": { "id": "6123", "name": "Central Hall", "address": "Oldham Street, Manchester", "postcode": "M1 1JQ", "area_code": "E08000003", "area_name": "Manchester" }, "geometry": { "type": "Point", "coordinates": [ -2.236058, 53.481898 ] } },
{ "type": "Feature", "properties": { "id": "5667", "name": "Baguley Hall Primary School", "address": "Ackworth Drive, Baguley, Manchester", "postcode": "M23 1LB", "area_code": "E08000003", "area_name": "Manchester" }, "geometry": { "type": "Point", "coordinates": [ -2.285933, 53.394142 ] } },
{ "type": "Feature", "properties": { "id": "5797", "name": "Chorlton Park Primary School", "address": "Mauldeth Road West, Manchester", "postcode": "M21 7HH", "area_code": "E08000003", "area_name": "Manchester" }, "geometry": { "type": "Point", "coordinates": [ -2.270316, 53.433269 ] } },
{ "type": "Feature", "properties": { "id": "5878", "name": "Fielden Campus", "address": "The Manchester College, Barlow Moor Road, West Didsbury, Manchester", "postcode": "M20 2PQ", "area_code": "E08000003", "area_name": "Manchester" }, "geometry": { "type": "Point", "coordinates": [ -2.247432, 53.421841 ] } },
{ "type": "Feature", "properties": { "id": "6050", "name": "Our Lady's Parish Centre", "address": "Raby Street, Moss Side, Manchester", "postcode": "M16 7JQ", "area_code": "E08000003", "area_name": "Manchester" }, "geometry": { "type": "Point", "coordinates": [ -2.2477, 53.457641 ] } },
{ "type": "Feature", "properties": { "id": "6104", "name": "West View Court", "address": "Community Room, West View Road, Northenden, Manchester", "postcode": "M22 4LQ", "area_code": "E08000003", "area_name": "Manchester" }, "geometry": { "type": "Point", "coordinates": [ -2.248743, 53.404256 ] } },
{ "type": "Feature", "properties": { "id": "5924", "name": "Gorton North Sure Start Centre (St James Site)", "address": "Stelling Street, Gorton, Manchester", "postcode": "M18 8LW", "area_code": "E08000003", "area_name": "Manchester" }, "geometry": { "type": "Point", "coordinates": [ -2.171237, 53.464409 ] } },
{ "type": "Feature", "properties": { "id": "5817", "name": "St Clement`s Church", "address": "Ashton Old Road, Manchester", "postcode": "M11 1HF", "area_code": "E08000003", "area_name": "Manchester" }, "geometry": { "type": "Point", "coordinates": [ -2.158918, 53.473082 ] } },
{ "type": "Feature", "properties": { "id": "6062", "name": "The Phil Martin Centre", "address": "137-139 Princess Road, Moss Side, Manchester", "postcode": "M14 4RE", "area_code": "E08000003", "area_name": "Manchester" }, "geometry": { "type": "Point", "coordinates": [ -2.244746, 53.454663 ] } },
{ "type": "Feature", "properties": { "id": "5679", "name": "Newall Green Baptist Church", "address": "Tuffley Road, Newall Green, Manchester", "postcode": "M23 2SW", "area_code": "E08000003", "area_name": "Manchester" }, "geometry": { "type": "Point", "coordinates": [ -2.282786, 53.382212 ] } },
{ "type": "Feature", "properties": { "id": "6021", "name": "St Agnes CE Primary School", "address": "Hamilton Road, Longsight, Manchester", "postcode": "M13 0PE", "area_code": "E08000003", "area_name": "Manchester" }, "geometry": { "type": "Point", "coordinates": [ -2.200998, 53.454215 ] } },
{ "type": "Feature", "properties": { "id": "5997", "name": "St Andrew's Scout HQ", "address": "Kirk Road, Levenshulme, Manchester", "postcode": "M19 2RH", "area_code": "E08000003", "area_name": "Manchester" }, "geometry": { "type": "Point", "coordinates": [ -2.183722, 53.436167 ] } },
{ "type": "Feature", "properties": { "id": "5770", "name": "Oswald Road Primary School", "address": "Oswald Road, entrance off Nicolas Road, Chorlton, Manchester", "postcode": "M21 9PL", "area_code": "E08000003", "area_name": "Manchester" }, "geometry": { "type": "Point", "coordinates": [ -2.279215, 53.445267 ] } },
{ "type": "Feature", "properties": { "id": "6080", "name": "Broadhurst Primary School", "address": "Williams Road, Moston, Manchester", "postcode": "M40 0BX", "area_code": "E08000003", "area_name": "Manchester" }, "geometry": { "type": "Point", "coordinates": [ -2.179389, 53.507982 ] } },
{ "type": "Feature", "properties": { "id": "5717", "name": "Acacias Primary School", "address": "Alexandra Drive, Burnage, Manchester", "postcode": "M19 2WW", "area_code": "E08000003", "area_name": "Manchester" }, "geometry": { "type": "Point", "coordinates": [ -2.199168, 53.436591 ] } },
{ "type": "Feature", "properties": { "id": "5779", "name": "Brookburn Primary School", "address": "Brookburn Road, Chorlton-Cum-Hardy, Manchester", "postcode": "M21 8EH", "area_code": "E08000003", "area_name": "Manchester" }, "geometry": { "type": "Point", "coordinates": [ -2.282676, 53.435783 ] } },
{ "type": "Feature", "properties": { "id": "5921", "name": "Gorton Library", "address": "Garratt Way, Gorton, Manchester", "postcode": "M18 8HE", "area_code": "E08000003", "area_name": "Manchester" }, "geometry": { "type": "Point", "coordinates": [ -2.176031, 53.461982 ] } },
{ "type": "Feature", "properties": { "id": "6116", "name": "Withington Adult Education Centre", "address": "Near Withington Baths, 24A Burton Road, Withington, Manchester", "postcode": "M20 3ED", "area_code": "E08000003", "area_name": "Manchester" }, "geometry": { "type": "Point", "coordinates": [ -2.231167, 53.433262 ] } },
{ "type": "Feature", "properties": { "id": "6083", "name": "Moston Methodist Church", "address": "corner of Ilkley Street and Moston Lane, Moston, Manchester", "postcode": "M40 9PA", "area_code": "E08000003", "area_name": "Manchester" }, "geometry": { "type": "Point", "coordinates": [ -2.194344, 53.513936 ] } },
{ "type": "Feature", "properties": { "id": "5688", "name": "St Aidan's Centre", "address": "230a Wythenshawe Road, entrance on Northolt Road, Northern Moor, Manchester", "postcode": "M23 0PH", "area_code": "E08000003", "area_name": "Manchester" }, "geometry": { "type": "Point", "coordinates": [ -2.285109, 53.408049 ] } },
{ "type": "Feature", "properties": { "id": "5650", "name": "St Luke's Church and Neighbourhood Centre", "address": "Guide Post Road, Ardwick, Manchester", "postcode": "M13 9HP", "area_code": "E08000003", "area_name": "Manchester" }, "geometry": { "type": "Point", "coordinates": [ -2.215629, 53.465261 ] } },
{ "type": "Feature", "properties": { "id": "5641", "name": "Armitage CE Primary School", "address": "Rostron Avenue, off Bennett Street, Ardwick, Manchester", "postcode": "M12 5NP", "area_code": "E08000003", "area_name": "Manchester" }, "geometry": { "type": "Point", "coordinates": [ -2.205898, 53.467896 ] } },
{ "type": "Feature", "properties": { "id": "6071", "name": "Moston Children's Centre", "address": "Adrian Street, Moston, Manchester", "postcode": "M40 5EA", "area_code": "E08000003", "area_name": "Manchester" }, "geometry": { "type": "Point", "coordinates": [ -2.192775, 53.507206 ] } },
{ "type": "Feature", "properties": { "id": "5936", "name": "Mount Carmel RC Primary School", "address": "Nursery Block, Hunt Street, off Russett Road, Blackley, Manchester", "postcode": "M9 8BL", "area_code": "E08000003", "area_name": "Manchester" }, "geometry": { "type": "Point", "coordinates": [ -2.215182, 53.516543 ] } },
{ "type": "Feature", "properties": { "id": "5872", "name": "Christ Church UR Church", "address": "Parrs Wood Road, Corner of Fog Lane, Didsbury, Manchester", "postcode": "M20 6EE", "area_code": "E08000003", "area_name": "Manchester" }, "geometry": { "type": "Point", "coordinates": [ -2.217721, 53.423463 ] } },
{ "type": "Feature", "properties": { "id": "5767", "name": "Park Inn Hotel", "address": "4 Cheetham Hill Road, Cheetham, Manchester", "postcode": "M4 4EW", "area_code": "E08000003", "area_name": "Manchester" }, "geometry": { "type": "Point", "coordinates": [ -2.241059, 53.489546 ] } },
{ "type": "Feature", "properties": { "id": "5945", "name": "St Augustine's CE Primary School", "address": "St Augustine Street, Monsall, Manchester", "postcode": "M40 8PL", "area_code": "E08000003", "area_name": "Manchester" }, "geometry": { "type": "Point", "coordinates": [ -2.211282, 53.499427 ] } },
{ "type": "Feature", "properties": { "id": "5635", "name": "Medlock Primary School", "address": "Wadeson Road, Chorlton-on-Medlock, Manchester", "postcode": "M13 9UJ", "area_code": "E08000003", "area_name": "Manchester" }, "geometry": { "type": "Point", "coordinates": [ -2.224542, 53.469786 ] } },
{ "type": "Feature", "properties": { "id": "5918", "name": "Emmanuel Church Hall", "address": "Blackwin Street, West Gorton, Manchester", "postcode": "M12 5LD", "area_code": "E08000003", "area_name": "Manchester" }, "geometry": { "type": "Point", "coordinates": [ -2.188604, 53.467664 ] } },
{ "type": "Feature", "properties": { "id": "5866", "name": "Broad Oak Primary School", "address": "Broad Oak Lane, East Didsbury, Manchester", "postcode": "M20 5QB", "area_code": "E08000003", "area_name": "Manchester" }, "geometry": { "type": "Point", "coordinates": [ -2.227511, 53.402528 ] } },
{ "type": "Feature", "properties": { "id": "5732", "name": "St Margaret Mary's Church Hall", "address": "St Margaret's Road, New Moston, Manchester", "postcode": "M40 0JE", "area_code": "E08000003", "area_name": "Manchester" }, "geometry": { "type": "Point", "coordinates": [ -2.172328, 53.525403 ] } },
{ "type": "Feature", "properties": { "id": "6144", "name": "Wythenshawe Campus - Manchester College", "address": "Brownley Road, Wythenshawe, Manchester", "postcode": "M22 9UH", "area_code": "E08000003", "area_name": "Manchester" }, "geometry": { "type": "Point", "coordinates": [ -2.255632, 53.386597 ] } },
{ "type": "Feature", "properties": { "id": "6035", "name": "Abbott Primary School", "address": "Livesey Street, Collyhurst, Manchester", "postcode": "M40 7PR", "area_code": "E08000003", "area_name": "Manchester" }, "geometry": { "type": "Point", "coordinates": [ -2.226913, 53.490715 ] } },
{ "type": "Feature", "properties": { "id": "5875", "name": "South Manchester Family Church", "address": "Kingsburn Hall, 814 Burnage Lane, Manchester", "postcode": "M19 1RS", "area_code": "E08000003", "area_name": "Manchester" }, "geometry": { "type": "Point", "coordinates": [ -2.213904, 53.418382 ] } },
{ "type": "Feature", "properties": { "id": "5903", "name": "St Kentigerns RC Primary School", "address": "Bethnall Drive, Fallowfield, Manchester", "postcode": "M14 7ED", "area_code": "E08000003", "area_name": "Manchester" }, "geometry": { "type": "Point", "coordinates": [ -2.235838, 53.442286 ] } },
{ "type": "Feature", "properties": { "id": "5653", "name": "Elizabeth Gaskell's House", "address": "84 Plymouth Grove, Manchester", "postcode": "M13 9LW", "area_code": "E08000003", "area_name": "Manchester" }, "geometry": { "type": "Point", "coordinates": [ -2.221798, 53.463706 ] } },
{ "type": "Feature", "properties": { "id": "5979", "name": "New Hope Fellowship Church", "address": "Tatton Street, Hulme, Manchester", "postcode": "M15 4EQ", "area_code": "E08000003", "area_name": "Manchester" }, "geometry": { "type": "Point", "coordinates": [ -2.263269, 53.469185 ] } },
{ "type": "Feature", "properties": { "id": "5714", "name": "The Klondyke", "address": "Formally Levenshulme Bowling & Social Club, Burnage Range, Levenshulme, Manchester", "postcode": "M19 2HQ", "area_code": "E08000003", "area_name": "Manchester" }, "geometry": { "type": "Point", "coordinates": [ -2.196461, 53.443553 ] } },
{ "type": "Feature", "properties": { "id": "5735", "name": "Vasa Club", "address": "Whitemoss Road, Blackley, Manchester", "postcode": "M9 6EF", "area_code": "E08000003", "area_name": "Manchester" }, "geometry": { "type": "Point", "coordinates": [ -2.2061, 53.528109 ] } },
{ "type": "Feature", "properties": { "id": "6018", "name": "United Church of God Assembly", "address": "1 Rushford Street, Longsight, Manchester", "postcode": "M12 4UG", "area_code": "E08000003", "area_name": "Manchester" }, "geometry": { "type": "Point", "coordinates": [ -2.196568, 53.457071 ] } },
{ "type": "Feature", "properties": { "id": "5957", "name": "Pike Fold Community School", "address": "Old Market Street, Blackley, Manchester", "postcode": "M9 8QP", "area_code": "E08000003", "area_name": "Manchester" }, "geometry": { "type": "Point", "coordinates": [ -2.223766, 53.522648 ] } },
{ "type": "Feature", "properties": { "id": "5729", "name": "Joy Community Church", "address": "formerly known as St Marks Church Hall, Booth Hall Road, Charlestown, Manchester", "postcode": "M9 7BL", "area_code": "E08000003", "area_name": "Manchester" }, "geometry": { "type": "Point", "coordinates": [ -2.192264, 53.524312 ] } },
{ "type": "Feature", "properties": { "id": "5831", "name": "St Matthew's Parish Hall", "address": "Cleveland Road, Crumpsall, Manchester", "postcode": "M8 4QU", "area_code": "E08000003", "area_name": "Manchester" }, "geometry": { "type": "Point", "coordinates": [ -2.232575, 53.520016 ] } },
{ "type": "Feature", "properties": { "id": "5837", "name": "St Anne's Parish Hall", "address": "Crescent Avenue, Crumpsall, Manchester", "postcode": "M8 5UD", "area_code": "E08000003", "area_name": "Manchester" }, "geometry": { "type": "Point", "coordinates": [ -2.236986, 53.513239 ] } },
{ "type": "Feature", "properties": { "id": "5991", "name": "Wesleyan Holiness Centre", "address": "150 Boundary Lane, Hulme, Manchester", "postcode": "M15 6NW", "area_code": "E08000003", "area_name": "Manchester" }, "geometry": { "type": "Point", "coordinates": [ -2.239995, 53.463931 ] } },
{ "type": "Feature", "properties": { "id": "6053", "name": "Greenheys Centre", "address": "Upper Lloyd Street, Moss Side, Manchester", "postcode": "M14 4HZ", "area_code": "E08000003", "area_name": "Manchester" }, "geometry": { "type": "Point", "coordinates": [ -2.236146, 53.457009 ] } },
{ "type": "Feature", "properties": { "id": "5851", "name": "Anthony Burgess Foundation", "address": "Chorlton Mill, 3 Cambridge Street, Manchester", "postcode": "M1 5BY", "area_code": "E08000003", "area_name": "Manchester" }, "geometry": { "type": "Point", "coordinates": [ -2.243464, 53.472598 ] } },
{ "type": "Feature", "properties": { "id": "5963", "name": "Higher Blackley Education Village", "address": "Our Lady's High School, Alworth Road, Blackley, Manchester", "postcode": "M9 0RP", "area_code": "E08000003", "area_name": "Manchester" }, "geometry": { "type": "Point", "coordinates": [ -2.218631, 53.536041 ] } },
{ "type": "Feature", "properties": { "id": "5814", "name": "St Barnabas CE Academy", "address": "Parkhouse Street, Openshaw, Manchester", "postcode": "M11 2JX", "area_code": "E08000003", "area_name": "Manchester" }, "geometry": { "type": "Point", "coordinates": [ -2.177049, 53.474782 ] } },
{ "type": "Feature", "properties": { "id": "6068", "name": "St Luke's Social Club", "address": "Sulby Street, off Lightbowne Road, Moston, Manchester", "postcode": "M40 5HR", "area_code": "E08000003", "area_name": "Manchester" }, "geometry": { "type": "Point", "coordinates": [ -2.189952, 53.509835 ] } },
{ "type": "Feature", "properties": { "id": "5685", "name": "Wythenshawe Town FC Social Club", "address": "Timpson Road, Manchester", "postcode": "M23 9LL", "area_code": "E08000003", "area_name": "Manchester" }, "geometry": { "type": "Point", "coordinates": [ -2.29875, 53.399178 ] } },
{ "type": "Feature", "properties": { "id": "5807", "name": "Ravensbury School", "address": "Tartan Street, Clayton, Manchester", "postcode": "M11 4EG", "area_code": "E08000003", "area_name": "Manchester" }, "geometry": { "type": "Point", "coordinates": [ -2.185872, 53.487263 ] } },
{ "type": "Feature", "properties": { "id": "5893", "name": "Cavendish Primary School", "address": "Cavendish Road, West Didsbury, Manchester", "postcode": "M20 1JG", "area_code": "E08000003", "area_name": "Manchester" }, "geometry": { "type": "Point", "coordinates": [ -2.241527, 53.428648 ] } },
{ "type": "Feature", "properties": { "id": "5933", "name": "Aspinal Methodist Church", "address": "Reddish Lane, Gorton, Manchester", "postcode": "M18 7JH", "area_code": "E08000003", "area_name": "Manchester" }, "geometry": { "type": "Point", "coordinates": [ -2.159746, 53.456731 ] } },
{ "type": "Feature", "properties": { "id": "5988", "name": "Union Hall Evangelical Church", "address": "Stretford Road, Hulme, Manchester", "postcode": "M15 6DY", "area_code": "E08000003", "area_name": "Manchester" }, "geometry": { "type": "Point", "coordinates": [ -2.243755, 53.468256 ] } },
{ "type": "Feature", "properties": { "id": "5863", "name": "Didsbury CE Primary School", "address": "Elm Grove, Didsbury, Manchester", "postcode": "M20 6RL", "area_code": "E08000003", "area_name": "Manchester" }, "geometry": { "type": "Point", "coordinates": [ -2.230998, 53.415914 ] } },
{ "type": "Feature", "properties": { "id": "5966", "name": "E-Act Blackley Academy", "address": "Victoria Avenue, Blackley, Manchester", "postcode": "M9 0RD", "area_code": "E08000003", "area_name": "Manchester" }, "geometry": { "type": "Point", "coordinates": [ -2.214122, 53.533461 ] } },
{ "type": "Feature", "properties": { "id": "5761", "name": "St Chad's RC Primary School", "address": "Balmfield Street, Cheetham, Manchester", "postcode": "M8 0SP", "area_code": "E08000003", "area_name": "Manchester" }, "geometry": { "type": "Point", "coordinates": [ -2.238696, 53.50093 ] } },
{ "type": "Feature", "properties": { "id": "6074", "name": "Broadway Leisure Centre", "address": "Broadway, New Moston, Manchester", "postcode": "M40 3LN", "area_code": "E08000003", "area_name": "Manchester" }, "geometry": { "type": "Point", "coordinates": [ -2.16724, 53.520503 ] } },
{ "type": "Feature", "properties": { "id": "6032", "name": "Newton Heath Library", "address": "Old Church Street, Newton Heath, Manchester", "postcode": "M40 2JB", "area_code": "E08000003", "area_name": "Manchester" }, "geometry": { "type": "Point", "coordinates": [ -2.182935, 53.501505 ] } },
{ "type": "Feature", "properties": { "id": "6024", "name": "Gorton Primary School", "address": "Mount Road, Manchester", "postcode": "M18 7GR", "area_code": "E08000003", "area_name": "Manchester" }, "geometry": { "type": "Point", "coordinates": [ -2.181355, 53.452763 ] } },
{ "type": "Feature", "properties": { "id": "5909", "name": "The Armitage Sports Centre", "address": "Moseley Road, Manchester", "postcode": "M14 6HE", "area_code": "E08000003", "area_name": "Manchester" }, "geometry": { "type": "Point", "coordinates": [ -2.21298, 53.444316 ] } },
{ "type": "Feature", "properties": { "id": "5723", "name": "St John Bosco RC Primary School", "address": "Hall Moss Road, Blackley, Manchester", "postcode": "M9 7AT", "area_code": "E08000003", "area_name": "Manchester" }, "geometry": { "type": "Point", "coordinates": [ -2.195505, 53.526994 ] } },
{ "type": "Feature", "properties": { "id": "6135", "name": "Birchfields Primary School", "address": "Lytham Road, Fallowfield, Manchester", "postcode": "M14 6PL", "area_code": "E08000003", "area_name": "Manchester" }, "geometry": { "type": "Point", "coordinates": [ -2.205503, 53.445389 ] } },
{ "type": "Feature", "properties": { "id": "5794", "name": "Chorlton Central Church", "address": "Barlow Moor Road, Chorlton-Cum-Hardy, Manchester", "postcode": "M21 8BF", "area_code": "E08000003", "area_name": "Manchester" }, "geometry": { "type": "Point", "coordinates": [ -2.2743, 53.439543 ] } },
{ "type": "Feature", "properties": { "id": "5741", "name": "St Mary`s Church", "address": "47 Nuthurst Road, Manchester", "postcode": "M40 0EW", "area_code": "E08000003", "area_name": "Manchester" }, "geometry": { "type": "Point", "coordinates": [ -2.176341, 53.51817 ] } },
{ "type": "Feature", "properties": { "id": "5860", "name": "St Catherine's Community Centre", "address": "School Lane, Didsbury, Manchester", "postcode": "M20 6HS", "area_code": "E08000003", "area_name": "Manchester" }, "geometry": { "type": "Point", "coordinates": [ -2.221882, 53.416255 ] } },
{ "type": "Feature", "properties": { "id": "6101", "name": "Wythenshawe Cricket Club", "address": "Longley Lane, Northenden, Manchester", "postcode": "M22 4JF", "area_code": "E08000003", "area_name": "Manchester" }, "geometry": { "type": "Point", "coordinates": [ -2.257961, 53.403868 ] } },
{ "type": "Feature", "properties": { "id": "5691", "name": "Lawton Moor Methodist Church", "address": "Button Lane, Northern Moor, Manchester", "postcode": "M23 0ND", "area_code": "E08000003", "area_name": "Manchester" }, "geometry": { "type": "Point", "coordinates": [ -2.287649, 53.412205 ] } },
{ "type": "Feature", "properties": { "id": "5700", "name": "Burnage United Reformed Church Hall", "address": "111 Burnage Lane, Burnage, Manchester", "postcode": "M19 2WH", "area_code": "E08000003", "area_name": "Manchester" }, "geometry": { "type": "Point", "coordinates": [ -2.199947, 53.436013 ] } },
{ "type": "Feature", "properties": { "id": "5811", "name": "Higher Openshaw Community School", "address": "Saunton Road, Manchester", "postcode": "M11 1AJ", "area_code": "E08000003", "area_name": "Manchester" }, "geometry": { "type": "Point", "coordinates": [ -2.17037, 53.477309 ] } },
{ "type": "Feature", "properties": { "id": "5638", "name": "St Luke's C of E Primary School", "address": "Langport Avenue, Longsight, Manchester", "postcode": "M12 4NG", "area_code": "E08000003", "area_name": "Manchester" }, "geometry": { "type": "Point", "coordinates": [ -2.210224, 53.465488 ] } },
{ "type": "Feature", "properties": { "id": "6092", "name": "Benchill Community Centre", "address": "Benchill Road, Benchill, Wythenshawe, Manchester", "postcode": "M22 8EJ", "area_code": "E08000003", "area_name": "Manchester" }, "geometry": { "type": "Point", "coordinates": [ -2.266306, 53.393657 ] } },
{ "type": "Feature", "properties": { "id": "6199", "name": "The Romper Public House", "address": "Wilmslow Old Road, Cheshire", "postcode": "WA15 8XJ", "area_code": "E08000003", "area_name": "Manchester" }, "geometry": { "type": "Point", "coordinates": [ -2.288852, 53.358962 ] } },
{ "type": "Feature", "properties": { "id": "5746", "name": "Miners Community Art and Music Centre", "address": "Teddington Road, Manchester", "postcode": "M40 0DJ", "area_code": "E08000003", "area_name": "Manchester" }, "geometry": { "type": "Point", "coordinates": [ -2.176124, 53.516822 ] } },
{ "type": "Feature", "properties": { "id": "5942", "name": "Harpurhey Neighbourhood Project", "address": "Carisbrook Street, entrance off Conran Street, Harpurhey, Manchester", "postcode": "M9 5UX", "area_code": "E08000003", "area_name": "Manchester" }, "geometry": { "type": "Point", "coordinates": [ -2.215942, 53.508668 ] } },
{ "type": "Feature", "properties": { "id": "5616", "name": "Church of the Apostle's", "address": "Ridgeway Street, Ancoats, Manchester", "postcode": "M40 7FY", "area_code": "E08000003", "area_name": "Manchester" }, "geometry": { "type": "Point", "coordinates": [ -2.215132, 53.485802 ] } },
{ "type": "Feature", "properties": { "id": "6056", "name": "Claremont Primary School", "address": "entrance via Kippax Street, Moss Side, Manchester", "postcode": "M14 7NA", "area_code": "E08000003", "area_name": "Manchester" }, "geometry": { "type": "Point", "coordinates": [ -2.234345, 53.452975 ] } },
{ "type": "Feature", "properties": { "id": "6029", "name": "Community Library near Victoria Mill", "address": "Lower Vickers Street, Manchester", "postcode": "M40 7LJ", "area_code": "E08000003", "area_name": "Manchester" }, "geometry": { "type": "Point", "coordinates": [ -2.214292, 53.489633 ] } },
{ "type": "Feature", "properties": { "id": "5709", "name": "Temporary Building", "address": "Albion Inn Car Park, 576 Burnage Lane, Burnage, Manchester", "postcode": "M19 1NA", "area_code": "E08000003", "area_name": "Manchester" }, "geometry": { "type": "Point", "coordinates": [ -2.211179, 53.421209 ] } },
{ "type": "Feature", "properties": { "id": "6095", "name": "Northenden Community School", "address": "Bazley Road, Northenden, Manchester", "postcode": "M22 4FL", "area_code": "E08000003", "area_name": "Manchester" }, "geometry": { "type": "Point", "coordinates": [ -2.259709, 53.409267 ] } },
{ "type": "Feature", "properties": { "id": "6196", "name": "Ringway Primary School", "address": "Rossett Avenue, Cornishway, Wythenshawe, Manchester", "postcode": "M22 0WW", "area_code": "E08000003", "area_name": "Manchester" }, "geometry": { "type": "Point", "coordinates": [ -2.260794, 53.370299 ] } },
{ "type": "Feature", "properties": { "id": "5782", "name": "St Clement's Church", "address": "Edge Lane, Chorlton, Manchester", "postcode": "M21 9AE", "area_code": "E08000003", "area_name": "Manchester" }, "geometry": { "type": "Point", "coordinates": [ -2.284273, 53.440498 ] } },
{ "type": "Feature", "properties": { "id": "5844", "name": "Allotments Pavilion", "address": "Hoddesdon St cul-de-sac, off Hazelbottom Road, Lower Crumpsall, Manchester", "postcode": "M8 0GQ", "area_code": "E08000003", "area_name": "Manchester" }, "geometry": { "type": "Point", "coordinates": [ -2.226782, 53.508978 ] } },
{ "type": "Feature", "properties": { "id": "6086", "name": "Wellspring Community Church", "address": "formely Sharon Pentecostal Church, Brendon Avenue, Harpurhey, Manchester", "postcode": "M40 9DN", "area_code": "E08000003", "area_name": "Manchester" }, "geometry": { "type": "Point", "coordinates": [ -2.195031, 53.509351 ] } },
{ "type": "Feature", "properties": { "id": "6178", "name": "Ladybarn Community Centre", "address": "Royle Street, Fallowfield, Manchester", "postcode": "M14 6RN", "area_code": "E08000003", "area_name": "Manchester" }, "geometry": { "type": "Point", "coordinates": [ -2.214964, 53.437973 ] } },
{ "type": "Feature", "properties": { "id": "5626", "name": "Ashbury Meadow Childrens Centre", "address": "Rylance Street, Beswick, Manchester", "postcode": "M11 3NA", "area_code": "E08000003", "area_name": "Manchester" }, "geometry": { "type": "Point", "coordinates": [ -2.206387, 53.478681 ] } },
{ "type": "Feature", "properties": { "id": "6077", "name": "Scout Hut", "address": "Eastwood Road, New Moston, Manchester", "postcode": "M40 3TE", "area_code": "E08000003", "area_name": "Manchester" }, "geometry": { "type": "Point", "coordinates": [ -2.159687, 53.517133 ] } },
{ "type": "Feature", "properties": { "id": "5954", "name": "Parish Church of Saint John the Evangelist", "address": "100 Ashley Lane, Manchester", "postcode": "M9 4NT", "area_code": "E08000003", "area_name": "Manchester" }, "geometry": { "type": "Point", "coordinates": [ -2.201197, 53.509617 ] } },
{ "type": "Feature", "properties": { "id": "6175", "name": "St Chad's Church Hall", "address": "St Chads Road, Withington, Manchester", "postcode": "M20 4WH", "area_code": "E08000003", "area_name": "Manchester" }, "geometry": { "type": "Point", "coordinates": [ -2.216091, 53.434369 ] } },
{ "type": "Feature", "properties": { "id": "6089", "name": "Moston Lane Primary School", "address": "Nursery Annexe, Whitman Street, Moston, Manchester", "postcode": "M9 4NY", "area_code": "E08000003", "area_name": "Manchester" }, "geometry": { "type": "Point", "coordinates": [ -2.202586, 53.512511 ] } },
{ "type": "Feature", "properties": { "id": "5951", "name": "Manchester Youth Zone", "address": "931 Rochdale Road, Harpurhey, Manchester", "postcode": "M9 8AE", "area_code": "E08000003", "area_name": "Manchester" }, "geometry": { "type": "Point", "coordinates": [ -2.213197, 53.514587 ] } },
{ "type": "Feature", "properties": { "id": "6151", "name": "St Richards Church Hall", "address": "Leominster Drive, Peel Hall, Manchester", "postcode": "M22 5DL", "area_code": "E08000003", "area_name": "Manchester" }, "geometry": { "type": "Point", "coordinates": [ -2.247865, 53.37998 ] } },
{ "type": "Feature", "properties": { "id": "5670", "name": "St Martin's Church Hall", "address": "Blackcarr Road, Baguley, Manchester", "postcode": "M23 1LX", "area_code": "E08000003", "area_name": "Manchester" }, "geometry": { "type": "Point", "coordinates": [ -2.278898, 53.392262 ] } },
{ "type": "Feature", "properties": { "id": "5764", "name": "Trinity United Church Hall", "address": "entrance Cheetham Hill Road, Cheetham, Manchester", "postcode": "M8 9LG", "area_code": "E08000003", "area_name": "Manchester" }, "geometry": { "type": "Point", "coordinates": [ -2.240974, 53.509087 ] } },
{ "type": "Feature", "properties": { "id": "6041", "name": "Christ The King Primary School", "address": "Culcheth Lane, Newton Heath, Manchester", "postcode": "M40 1LU", "area_code": "E08000003", "area_name": "Manchester" }, "geometry": { "type": "Point", "coordinates": [ -2.176059, 53.497614 ] } },
{ "type": "Feature", "properties": { "id": "6038", "name": "Brighter Beginnings Day Nursery", "address": "formerly known as Newton Heath Sure Start, Great Newton Street, off Droylsden Road, Manchester", "postcode": "M40 1WT", "area_code": "E08000003", "area_name": "Manchester" }, "geometry": { "type": "Point", "coordinates": [ -2.17566, 53.499538 ] } },
{ "type": "Feature", "properties": { "id": "6181", "name": "Gandhi Hall", "address": "Brunswick Road, Withington, Manchester", "postcode": "M20 4QB", "area_code": "E08000003", "area_name": "Manchester" }, "geometry": { "type": "Point", "coordinates": [ -2.223158, 53.432837 ] } },
{ "type": "Feature", "properties": { "id": "6187", "name": "Manchester Enterprise Academy", "address": "Simonsway, Wythenshawe, Manchester", "postcode": "M22 9RH", "area_code": "E08000003", "area_name": "Manchester" }, "geometry": { "type": "Point", "coordinates": [ -2.272103, 53.380763 ] } },
{ "type": "Feature", "properties": { "id": "6166", "name": "St Margaret's C of E Primary School", "address": "Withington Road, Whalley Range, Manchester", "postcode": "M16 8FQ", "area_code": "E08000003", "area_name": "Manchester" }, "geometry": { "type": "Point", "coordinates": [ -2.258689, 53.4495 ] } },
{ "type": "Feature", "properties": { "id": "5697", "name": "Rackhouse Primary School", "address": "Yarmouth Drive, Wythenshawe, Manchester", "postcode": "M23 0BT", "area_code": "E08000003", "area_name": "Manchester" }, "geometry": { "type": "Point", "coordinates": [ -2.278636, 53.409691 ] } },
{ "type": "Feature", "properties": { "id": "5825", "name": "Seymour Road Academy", "address": "Nursery Department, Seymour Road South, Clayton, Manchester", "postcode": "M11 4PR", "area_code": "E08000003", "area_name": "Manchester" }, "geometry": { "type": "Point", "coordinates": [ -2.170786, 53.483465 ] } },
{ "type": "Feature", "properties": { "id": "5985", "name": "Hulme Hall", "address": "also known as Claremont Resource Centre, Rolls Crescent, Hulme, Manchester", "postcode": "M15 5FS", "area_code": "E08000003", "area_name": "Manchester" }, "geometry": { "type": "Point", "coordinates": [ -2.249989, 53.465214 ] } },
{ "type": "Feature", "properties": { "id": "5948", "name": "Saviour Church", "address": "Eggington Street, Manchester", "postcode": "M40 7RN", "area_code": "E08000003", "area_name": "Manchester" }, "geometry": { "type": "Point", "coordinates": [ -2.22404, 53.497909 ] } },
{ "type": "Feature", "properties": { "id": "6110", "name": "Old Moat Primary School", "address": "entrance on Hough Road, Withington, Manchester", "postcode": "M20 3FN", "area_code": "E08000003", "area_name": "Manchester" }, "geometry": { "type": "Point", "coordinates": [ -2.237, 53.43459 ] } },
{ "type": "Feature", "properties": { "id": "6157", "name": "St Andrew's Church", "address": "Brownley Road, Wythenshawe, Manchester", "postcode": "M22 0DW", "area_code": "E08000003", "area_name": "Manchester" }, "geometry": { "type": "Point", "coordinates": [ -2.259077, 53.377098 ] } },
{ "type": "Feature", "properties": { "id": "5972", "name": "St Andrew's Hall", "address": "Longhurst Road, Higher Blackley, Manchester", "postcode": "M9 8NS", "area_code": "E08000003", "area_name": "Manchester" }, "geometry": { "type": "Point", "coordinates": [ -2.231346, 53.532476 ] } },
{ "type": "Feature", "properties": { "id": "5791", "name": "Loreto High School", "address": "Nell Lane, Chorlton, Manchester", "postcode": "M21 7SW", "area_code": "E08000003", "area_name": "Manchester" }, "geometry": { "type": "Point", "coordinates": [ -2.263533, 53.434067 ] } },
{ "type": "Feature", "properties": { "id": "6148", "name": "Haveley Hey Community School", "address": "The Bridge Nursery, Gladeside Road, Benchill, Manchester", "postcode": "M22 9QY", "area_code": "E08000003", "area_name": "Manchester" }, "geometry": { "type": "Point", "coordinates": [ -2.267629, 53.384171 ] } },
{ "type": "Feature", "properties": { "id": "5930", "name": "Active Me Studios", "address": "194-196 Abbey Hey Lane, Gorton, Manchester", "postcode": "M18 8TW", "area_code": "E08000003", "area_name": "Manchester" }, "geometry": { "type": "Point", "coordinates": [ -2.155901, 53.467783 ] } },
{ "type": "Feature", "properties": { "id": "5939", "name": "Holy Trinity Church Hall", "address": "Goodman Street, Blackley, Manchester", "postcode": "M9 4BW", "area_code": "E08000003", "area_name": "Manchester" }, "geometry": { "type": "Point", "coordinates": [ -2.206296, 53.515741 ] } },
{ "type": "Feature", "properties": { "id": "6003", "name": "Crowcroft Park Primary School", "address": "Northmoor Road, entrance on Stovell Avenue, Longsight, Manchester", "postcode": "M12 5SY", "area_code": "E08000003", "area_name": "Manchester" }, "geometry": { "type": "Point", "coordinates": [ -2.189814, 53.451986 ] } },
{ "type": "Feature", "properties": { "id": "6012", "name": "Levenshulme Inspire", "address": "747 Stockport Road, Manchester", "postcode": "M19 3AR", "area_code": "E08000003", "area_name": "Manchester" }, "geometry": { "type": "Point", "coordinates": [ -2.191513, 53.448019 ] } },
{ "type": "Feature", "properties": { "id": "5632", "name": "St Anne's Church", "address": "Carruthers Street, Ancoats, Manchester", "postcode": "M4 7EQ", "area_code": "E08000003", "area_name": "Manchester" }, "geometry": { "type": "Point", "coordinates": [ -2.217113, 53.481626 ] } },
{ "type": "Feature", "properties": { "id": "5846", "name": "Central Library", "address": "St Peters Square, Manchester", "postcode": "M2 5PD", "area_code": "E08000003", "area_name": "Manchester" }, "geometry": { "type": "Point", "coordinates": [ -2.244594, 53.477944 ] } },
{ "type": "Feature", "properties": { "id": "6172", "name": "Whalley Range High School For Girls", "address": "Wilbraham Road, Whalley Range, Manchester", "postcode": "M16 8GW", "area_code": "E08000003", "area_name": "Manchester" }, "geometry": { "type": "Point", "coordinates": [ -2.247011, 53.44274 ] } },
{ "type": "Feature", "properties": { "id": "6154", "name": "Brownley Green Baptist Church", "address": "Crossacres Road, Manchester", "postcode": "M22 9TB", "area_code": "E08000003", "area_name": "Manchester" }, "geometry": { "type": "Point", "coordinates": [ -2.257998, 53.382628 ] } },
{ "type": "Feature", "properties": { "id": "6000", "name": "Alma Park Primary School", "address": "Errwood Road, Manchester", "postcode": "M19 2PF", "area_code": "E08000003", "area_name": "Manchester" }, "geometry": { "type": "Point", "coordinates": [ -2.192311, 53.441474 ] } },
{ "type": "Feature", "properties": { "id": "5822", "name": "Clayton Methodist Church Hall", "address": "North Road, Clayton, Manchester", "postcode": "M11 4LE", "area_code": "E08000003", "area_name": "Manchester" }, "geometry": { "type": "Point", "coordinates": [ -2.170238, 53.485758 ] } },
{ "type": "Feature", "properties": { "id": "4055", "name": "Community Room", "address": "15 Springbank, Brentwood, Salford", "postcode": "M6 8RH", "area_code": "E08000006", "area_name": "Salford" }, "geometry": { "type": "Point", "coordinates": [ -2.299923, 53.491004 ] } },
{ "type": "Feature", "properties": { "id": "4064", "name": "St George Knanaya Church", "address": "Highgate Lane, Little Hulton", "postcode": "M38 9SZ", "area_code": "E08000006", "area_name": "Salford" }, "geometry": { "type": "Point", "coordinates": [ -2.433858, 53.535768 ] } },
{ "type": "Feature", "properties": { "id": "4169", "name": "Wharton & Cleggs Lane Methodist Church Hall", "address": "Cleggs Lane, Little Hulton", "postcode": "M38 9RW", "area_code": "E08000006", "area_name": "Salford" }, "geometry": { "type": "Point", "coordinates": [ -2.420246, 53.534152 ] } },
{ "type": "Feature", "properties": { "id": "3906", "name": "Community House", "address": "89 Heath Avenue, Salford", "postcode": "M7 1NY", "area_code": "E08000006", "area_name": "Salford" }, "geometry": { "type": "Point", "coordinates": [ -2.268705, 53.492687 ] } },
{ "type": "Feature", "properties": { "id": "4223", "name": "Alder Brook Primary Partnership Centre", "address": "(Ex Alder Park Primary), Walnut Road, Winton, Eccles", "postcode": "M30 8LE", "area_code": "E08000006", "area_name": "Salford" }, "geometry": { "type": "Point", "coordinates": [ -2.373069, 53.494555 ] } },
{ "type": "Feature", "properties": { "id": "3926", "name": "St Boniface School", "address": "(Nursery Unit), Yew Street, Salford", "postcode": "M7 2HL", "area_code": "E08000006", "area_name": "Salford" }, "geometry": { "type": "Point", "coordinates": [ -2.266697, 53.501797 ] } },
{ "type": "Feature", "properties": { "id": "4232", "name": "Westwood Park Community Centre", "address": "Grasmere Crescent, Winton", "postcode": "M30 8DN", "area_code": "E08000006", "area_name": "Salford" }, "geometry": { "type": "Point", "coordinates": [ -2.369388, 53.492526 ] } },
{ "type": "Feature", "properties": { "id": "4238", "name": "The Hollies", "address": "Moorfield Close, Swinton", "postcode": "M27 0FN", "area_code": "E08000006", "area_name": "Salford" }, "geometry": { "type": "Point", "coordinates": [ -2.354171, 53.504041 ] } },
{ "type": "Feature", "properties": { "id": "4000", "name": "Youth Offending Service", "address": "St Simon Street, Salford", "postcode": "M3 7ES", "area_code": "E08000006", "area_name": "Salford" }, "geometry": { "type": "Point", "coordinates": [ -2.25797, 53.489726 ] } },
{ "type": "Feature", "properties": { "id": "4112", "name": "St Mark's Primary School", "address": "(Nursery Unit), Queensway, Clifton, Swinton", "postcode": "M27 8QE", "area_code": "E08000006", "area_name": "Salford" }, "geometry": { "type": "Point", "coordinates": [ -2.328923, 53.520302 ] } },
{ "type": "Feature", "properties": { "id": "4180", "name": "Temporary Building", "address": "Bracken Avenue, Walkden", "postcode": "M28 3FY", "area_code": "E08000006", "area_name": "Salford" }, "geometry": { "type": "Point", "coordinates": [ -2.387041, 53.524235 ] } },
{ "type": "Feature", "properties": { "id": "3943", "name": "Irlam and Cadishead Leisure Centre", "address": "Liverpool Road, Irlam", "postcode": "M44 6BR", "area_code": "E08000006", "area_name": "Salford" }, "geometry": { "type": "Point", "coordinates": [ -2.420939, 53.444051 ] } },
{ "type": "Feature", "properties": { "id": "3997", "name": "The Friars Primary School", "address": "Cannon Street, Salford", "postcode": "M3 7EU", "area_code": "E08000006", "area_name": "Salford" }, "geometry": { "type": "Point", "coordinates": [ -2.259063, 53.488985 ] } },
{ "type": "Feature", "properties": { "id": "3994", "name": "St Thomas's Church", "address": "Ford Lane, Salford", "postcode": "M6 6PE", "area_code": "E08000006", "area_name": "Salford" }, "geometry": { "type": "Point", "coordinates": [ -2.284892, 53.492649 ] } },
{ "type": "Feature", "properties": { "id": "3929", "name": "Wesley Methodist Church", "address": "Lords Street, Cadishead", "postcode": "M44 5EH", "area_code": "E08000006", "area_name": "Salford" }, "geometry": { "type": "Point", "coordinates": [ -2.444257, 53.425099 ] } },
{ "type": "Feature", "properties": { "id": "4075", "name": "Little Hulton Library", "address": "Longshaw Drive, Little Hulton", "postcode": "M28 0AZ", "area_code": "E08000006", "area_name": "Salford" }, "geometry": { "type": "Point", "coordinates": [ -2.421154, 53.529657 ] } },
{ "type": "Feature", "properties": { "id": "4187", "name": "James Brindley Primary School", "address": "Parr Fold Avenue, Walkden, Worsley", "postcode": "M28 7HE", "area_code": "E08000006", "area_name": "Salford" }, "geometry": { "type": "Point", "coordinates": [ -2.403538, 53.514212 ] } },
{ "type": "Feature", "properties": { "id": "3903", "name": "Bridgewater Park\/Boothstown Junior Football Club", "address": "Amberhill Way", "postcode": "M28 1UP", "area_code": "E08000006", "area_name": "Salford" }, "geometry": { "type": "Point", "coordinates": [ -2.420741, 53.498711 ] } },
{ "type": "Feature", "properties": { "id": "3918", "name": "Temporary Building", "address": "St John's Street, Salford", "postcode": "M7 2EA", "area_code": "E08000006", "area_name": "Salford" }, "geometry": { "type": "Point", "coordinates": [ -2.262013, 53.504962 ] } },
{ "type": "Feature", "properties": { "id": "4130", "name": "Swinton and Pendlebury Leisure Centre", "address": "Cromwell Road, Pendlebury", "postcode": "M27 9SZ", "area_code": "E08000006", "area_name": "Salford" }, "geometry": { "type": "Point", "coordinates": [ -2.343715, 53.516161 ] } },
{ "type": "Feature", "properties": { "id": "4206", "name": "Temporary Building", "address": "Bishop Road, Salford", "postcode": "M6 8PX", "area_code": "E08000006", "area_name": "Salford" }, "geometry": { "type": "Point", "coordinates": [ -2.319428, 53.493263 ] } },
{ "type": "Feature", "properties": { "id": "4181", "name": "Guild Hall Community Centre", "address": "Guild Avenue, Walkden", "postcode": "M28 3AS", "area_code": "E08000006", "area_name": "Salford" }, "geometry": { "type": "Point", "coordinates": [ -2.398675, 53.521491 ] } },
{ "type": "Feature", "properties": { "id": "3932", "name": "Dale House", "address": "The Meadows, New Moss Road, Cadishead", "postcode": "M44 5AP", "area_code": "E08000006", "area_name": "Salford" }, "geometry": { "type": "Point", "coordinates": [ -2.437495, 53.428981 ] } },
{ "type": "Feature", "properties": { "id": "3870", "name": "The Lancastrian Organ Theatre Trust", "address": "Alexandra Road, Eccles", "postcode": "M30 7HJ", "area_code": "E08000006", "area_name": "Salford" }, "geometry": { "type": "Point", "coordinates": [ -2.362013, 53.477771 ] } },
{ "type": "Feature", "properties": { "id": "3976", "name": "Unitarian Church Hall", "address": "Monton Green, Eccles", "postcode": "M30 9LL", "area_code": "E08000006", "area_name": "Salford" }, "geometry": { "type": "Point", "coordinates": [ -2.352598, 53.492604 ] } },
{ "type": "Feature", "properties": { "id": "4207", "name": "Elmwood Church", "address": "240 Eccles Old Road, Salford", "postcode": "M6 8AG", "area_code": "E08000006", "area_name": "Salford" }, "geometry": { "type": "Point", "coordinates": [ -2.32157, 53.489473 ] } },
{ "type": "Feature", "properties": { "id": "4096", "name": "Helly Hansen Watersports Centre", "address": "15 The Quays, Salford", "postcode": "M50 3SQ", "area_code": "E08000006", "area_name": "Salford" }, "geometry": { "type": "Point", "coordinates": [ -2.288003, 53.471231 ] } },
{ "type": "Feature", "properties": { "id": "4214", "name": "Mary Magdalene Church", "address": "Westbourne Road, Winton, Eccles", "postcode": "M30 8DE", "area_code": "E08000006", "area_name": "Salford" }, "geometry": { "type": "Point", "coordinates": [ -2.36726, 53.492119 ] } },
{ "type": "Feature", "properties": { "id": "4159", "name": "Bethesda Church Hall", "address": "Junction of Eccles Road\/Worsley Road, Swinton", "postcode": "M27 5SW", "area_code": "E08000006", "area_name": "Salford" }, "geometry": { "type": "Point", "coordinates": [ -2.338299, 53.506415 ] } },
{ "type": "Feature", "properties": { "id": "4072", "name": "Bethany Family Worship Centre", "address": "Kenyon Way, Little Hulton", "postcode": "M38 0EN", "area_code": "E08000006", "area_name": "Salford" }, "geometry": { "type": "Point", "coordinates": [ -2.431469, 53.524901 ] } },
{ "type": "Feature", "properties": { "id": "3897", "name": "The Boundary Stone", "address": "Bridgewater Road, Worsley", "postcode": "M28 1AD", "area_code": "E08000010", "area_name": "Wigan" }, "geometry": { "type": "Point", "coordinates": [ -2.423242, 53.509075 ] } },
{ "type": "Feature", "properties": { "id": "4226", "name": "Barton Moss Primary School", "address": "Trippier Road, Peel Green, Eccles", "postcode": "M30 7PT", "area_code": "E08000006", "area_name": "Salford" }, "geometry": { "type": "Point", "coordinates": [ -2.38031, 53.476744 ] } },
{ "type": "Feature", "properties": { "id": "4166", "name": "Swinton Gateway Centre", "address": "Chorley Road, Swinton", "postcode": "M27 6BP", "area_code": "E08000006", "area_name": "Salford" }, "geometry": { "type": "Point", "coordinates": [ -2.342204, 53.512236 ] } },
{ "type": "Feature", "properties": { "id": "4039", "name": "Willow Tree Primary School", "address": "Greenland Street, Salford", "postcode": "M6 5TJ", "area_code": "E08000006", "area_name": "Salford" }, "geometry": { "type": "Point", "coordinates": [ -2.296358, 53.485476 ] } },
{ "type": "Feature", "properties": { "id": "3951", "name": "Masonic Hall", "address": "Hospital Road, Pendlebury", "postcode": "M27 4EY", "area_code": "E08000006", "area_name": "Salford" }, "geometry": { "type": "Point", "coordinates": [ -2.319269, 53.508148 ] } },
{ "type": "Feature", "properties": { "id": "3919", "name": "Broughton Hub", "address": "Rigby Street, Salford", "postcode": "M7 4BQ", "area_code": "E08000006", "area_name": "Salford" }, "geometry": { "type": "Point", "coordinates": [ -2.259764, 53.507025 ] } },
{ "type": "Feature", "properties": { "id": "4197", "name": "The Canterbury Centre", "address": "Canterbury Gardens, 640 Eccles New Road, Salford", "postcode": "M5 5AG", "area_code": "E08000006", "area_name": "Salford" }, "geometry": { "type": "Point", "coordinates": [ -2.329822, 53.484624 ] } },
{ "type": "Feature", "properties": { "id": "3980", "name": "Irlam Community Centre", "address": "Locklands Lane\/Ferryhill Road, Irlam", "postcode": "M44 6RB", "area_code": "E08000006", "area_name": "Salford" }, "geometry": { "type": "Point", "coordinates": [ -2.419114, 53.446817 ] } },
{ "type": "Feature", "properties": { "id": "4163", "name": "Humphrey Booth Resource Centre", "address": "Worsley Road, Swinton", "postcode": "M27 5WW", "area_code": "E08000006", "area_name": "Salford" }, "geometry": { "type": "Point", "coordinates": [ -2.333919, 53.507371 ] } },
{ "type": "Feature", "properties": { "id": "4042", "name": "Holy Family RC Primary School", "address": "3 Lower Seedley Road, Salford", "postcode": "M6 5WX", "area_code": "E08000006", "area_name": "Salford" }, "geometry": { "type": "Point", "coordinates": [ -2.291677, 53.488749 ] } },
{ "type": "Feature", "properties": { "id": "4190", "name": "Walkden Methodist Church", "address": "Manchester Road East, Walkden", "postcode": "M38 9AN", "area_code": "E08000006", "area_name": "Salford" }, "geometry": { "type": "Point", "coordinates": [ -2.411605, 53.52683 ] } },
{ "type": "Feature", "properties": { "id": "3874", "name": "Castle Community Centre", "address": "Lewis Street, Eccles", "postcode": "M30 0PU", "area_code": "E08000006", "area_name": "Salford" }, "geometry": { "type": "Point", "coordinates": [ -2.352402, 53.479921 ] } },
{ "type": "Feature", "properties": { "id": "4140", "name": "St Charles Primary School", "address": "Emlyn Street, Off Moorside Road, Swinton", "postcode": "M27 9PD", "area_code": "E08000006", "area_name": "Salford" }, "geometry": { "type": "Point", "coordinates": [ -2.352957, 53.512215 ] } },
{ "type": "Feature", "properties": { "id": "3986", "name": "Boundary Road Methodist Church", "address": "Boundary Road, Irlam", "postcode": "M44 6HD", "area_code": "E08000006", "area_name": "Salford" }, "geometry": { "type": "Point", "coordinates": [ -2.410654, 53.454747 ] } },
{ "type": "Feature", "properties": { "id": "4081", "name": "Hilton Lane Primary School", "address": "Madams Wood Road, Worsley", "postcode": "M28 0JY", "area_code": "E08000006", "area_name": "Salford" }, "geometry": { "type": "Point", "coordinates": [ -2.41756, 53.524735 ] } },
{ "type": "Feature", "properties": { "id": "4045", "name": "Pendleton Gateway Centre", "address": "1 Broadwalk, Salford", "postcode": "M6 5FX", "area_code": "E08000006", "area_name": "Salford" }, "geometry": { "type": "Point", "coordinates": [ -2.284742, 53.488361 ] } },
{ "type": "Feature", "properties": { "id": "4182", "name": "Temporary Building", "address": "Christ the King School, Holly Avenue, Walkden", "postcode": "M28 3DW", "area_code": "E08000006", "area_name": "Salford" }, "geometry": { "type": "Point", "coordinates": [ -2.390737, 53.521059 ] } },
{ "type": "Feature", "properties": { "id": "3967", "name": "Monton Methodist Church", "address": "Park Road, Monton, Eccles", "postcode": "M30 9JG", "area_code": "E08000006", "area_name": "Salford" }, "geometry": { "type": "Point", "coordinates": [ -2.349509, 53.492676 ] } },
{ "type": "Feature", "properties": { "id": "4196", "name": "Temporary Building", "address": "Cemetery Road, Salford", "postcode": "M5 5WG", "area_code": "E08000006", "area_name": "Salford" }, "geometry": { "type": "Point", "coordinates": [ -2.301235, 53.480493 ] } },
{ "type": "Feature", "properties": { "id": "4229", "name": "Peel Green House", "address": "Liverpool Road, Peel Green, Eccles", "postcode": "M30 7LP", "area_code": "E08000006", "area_name": "Salford" }, "geometry": { "type": "Point", "coordinates": [ -2.371679, 53.476996 ] } },
{ "type": "Feature", "properties": { "id": "3936", "name": "Irlam Catholic Club", "address": "Liverpool Road, Irlam", "postcode": "M44 5BE", "area_code": "E08000006", "area_name": "Salford" }, "geometry": { "type": "Point", "coordinates": [ -2.428565, 53.437435 ] } },
{ "type": "Feature", "properties": { "id": "4235", "name": "Barclays Community Centre", "address": "Cook Street, Eccles", "postcode": "M30 8QG", "area_code": "E08000006", "area_name": "Salford" }, "geometry": { "type": "Point", "coordinates": [ -2.362273, 53.483514 ] } },
{ "type": "Feature", "properties": { "id": "4185", "name": "Temporary Building", "address": "Birch Road, Walkden", "postcode": "M28 7FJ", "area_code": "E08000006", "area_name": "Salford" }, "geometry": { "type": "Point", "coordinates": [ -2.39096, 53.517373 ] } },
{ "type": "Feature", "properties": { "id": "4239", "name": "Worsley Court House", "address": "Worsley Road, Worsley", "postcode": "M28 2PB", "area_code": "E08000006", "area_name": "Salford" }, "geometry": { "type": "Point", "coordinates": [ -2.381317, 53.499895 ] } },
{ "type": "Feature", "properties": { "id": "4030", "name": "Binoh Centre", "address": "115 Leicester Road, Salford", "postcode": "M7 4GP", "area_code": "E08000006", "area_name": "Salford" }, "geometry": { "type": "Point", "coordinates": [ -2.251685, 53.512597 ] } },
{ "type": "Feature", "properties": { "id": "3888", "name": "Boothstown Community Centre", "address": "Standfield Drive, Boothstown", "postcode": "M28 1NB", "area_code": "E08000006", "area_name": "Salford" }, "geometry": { "type": "Point", "coordinates": [ -2.417572, 53.504484 ] } },
{ "type": "Feature", "properties": { "id": "4049", "name": "The Advent Centre", "address": "Lindinis Avenue, Salford", "postcode": "M6 5AB", "area_code": "E08000006", "area_name": "Salford" }, "geometry": { "type": "Point", "coordinates": [ -2.279691, 53.483341 ] } },
{ "type": "Feature", "properties": { "id": "3915", "name": "Riverview Primary School", "address": "1 Wheaters Street, Salford", "postcode": "M7 1QZ", "area_code": "E08000006", "area_name": "Salford" }, "geometry": { "type": "Point", "coordinates": [ -2.264292, 53.493666 ] } },
{ "type": "Feature", "properties": { "id": "3864", "name": "St Michaels Church", "address": "Liverpool Road, Eccles", "postcode": "M30 7LP", "area_code": "E08000006", "area_name": "Salford" }, "geometry": { "type": "Point", "coordinates": [ -2.371679, 53.476996 ] } },
{ "type": "Feature", "properties": { "id": "4203", "name": "Chandos Sports and Social Club", "address": "Chandos Grove, (Dodd Street Entrance), Salford", "postcode": "M5 5LJ", "area_code": "E08000006", "area_name": "Salford" }, "geometry": { "type": "Point", "coordinates": [ -2.30252, 53.485325 ] } },
{ "type": "Feature", "properties": { "id": "3877", "name": "Eccles Gateway Centre", "address": "28 Barton Lane, Eccles", "postcode": "M30 0TU", "area_code": "E08000006", "area_name": "Salford" }, "geometry": { "type": "Point", "coordinates": [ -2.339314, 53.48253 ] } },
{ "type": "Feature", "properties": { "id": "4104", "name": "Agecroft Fire Station", "address": "Bolton Road, Pendlebury", "postcode": "M27 8XS", "area_code": "E08000006", "area_name": "Salford" }, "geometry": { "type": "Point", "coordinates": [ -2.310408, 53.504666 ] } },
{ "type": "Feature", "properties": { "id": "3912", "name": "St James' Church Parish Hall", "address": "Great Cheetham Street East, Salford", "postcode": "M7 4UH", "area_code": "E08000006", "area_name": "Salford" }, "geometry": { "type": "Point", "coordinates": [ -2.252085, 53.503743 ] } },
{ "type": "Feature", "properties": { "id": "3881", "name": "Barton Village Community Centre", "address": "Enfield Close, Eccles", "postcode": "M30 0QD", "area_code": "E08000006", "area_name": "Salford" }, "geometry": { "type": "Point", "coordinates": [ -2.354315, 53.478001 ] } },
{ "type": "Feature", "properties": { "id": "3909", "name": "Marlborough Road", "address": "Academy, Dudley Street, Salford", "postcode": "M7 4XD", "area_code": "E08000006", "area_name": "Salford" }, "geometry": { "type": "Point", "coordinates": [ -2.249819, 53.5055 ] } },
{ "type": "Feature", "properties": { "id": "4058", "name": "Mount Chapel Church", "address": "32 Eccles Old Road, Salford", "postcode": "M6 7AF", "area_code": "E08000006", "area_name": "Salford" }, "geometry": { "type": "Point", "coordinates": [ -2.29327, 53.492297 ] } },
{ "type": "Feature", "properties": { "id": "4186", "name": "Temporary Building", "address": "Junction of Edge Fold Road\/Broadway, Worsley", "postcode": "M28 7GE", "area_code": "E08000006", "area_name": "Salford" }, "geometry": { "type": "Point", "coordinates": [ -2.396969, 53.514926 ] } },
{ "type": "Feature", "properties": { "id": "4234", "name": "Temporary Building", "address": "Junction of Hiley Road\/Brookhouse Avenue, Eccles", "postcode": "M30 7PB", "area_code": "E08000006", "area_name": "Salford" }, "geometry": { "type": "Point", "coordinates": [ -2.376208, 53.477961 ] } },
{ "type": "Feature", "properties": { "id": "4200", "name": "Weaste & Seedley Social Club", "address": "Weaste Lane, Salford", "postcode": "M5 5JL", "area_code": "E08000006", "area_name": "Salford" }, "geometry": { "type": "Point", "coordinates": [ -2.308359, 53.486343 ] } },
{ "type": "Feature", "properties": { "id": "4015", "name": "St Aidans Church", "address": "Littleton Road, Salford", "postcode": "M7 3SE", "area_code": "E08000006", "area_name": "Salford" }, "geometry": { "type": "Point", "coordinates": [ -2.278113, 53.502274 ] } },
{ "type": "Feature", "properties": { "id": "4006", "name": "The Beacon Centre", "address": "London Street, Salford", "postcode": "M6 6QT", "area_code": "E08000006", "area_name": "Salford" }, "geometry": { "type": "Point", "coordinates": [ -2.278564, 53.49519 ] } },
{ "type": "Feature", "properties": { "id": "4172", "name": "Bridgewater Youth Club", "address": "Bridgewater Street, Little Hulton", "postcode": "M38 9WD", "area_code": "E08000006", "area_name": "Salford" }, "geometry": { "type": "Point", "coordinates": [ -2.409238, 53.529851 ] } },
{ "type": "Feature", "properties": { "id": "4220", "name": "Winton Library", "address": "Old Parrin Lane, Eccles", "postcode": "M30 8BY", "area_code": "E08000006", "area_name": "Salford" }, "geometry": { "type": "Point", "coordinates": [ -2.368322, 53.489741 ] } },
{ "type": "Feature", "properties": { "id": "4025", "name": "Brentnall Primary School", "address": "Northumberland Street, Salford", "postcode": "M7 4RP", "area_code": "E08000006", "area_name": "Salford" }, "geometry": { "type": "Point", "coordinates": [ -2.259742, 53.508356 ] } },
{ "type": "Feature", "properties": { "id": "3884", "name": "Temporary Building", "address": "Trident Road, Eccles", "postcode": "M30 7WF", "area_code": "E08000006", "area_name": "Salford" }, "geometry": { "type": "Point", "coordinates": [ -2.382008, 53.472891 ] } },
{ "type": "Feature", "properties": { "id": "3958", "name": "Duncan Mathieson Scout Hall", "address": "Odessa Avenue, Salford", "postcode": "M6 8LG", "area_code": "E08000006", "area_name": "Salford" }, "geometry": { "type": "Point", "coordinates": [ -2.323461, 53.496451 ] } },
{ "type": "Feature", "properties": { "id": "4009", "name": "Summerville Primary School", "address": "Summerville Road, Salford", "postcode": "M6 7HB", "area_code": "E08000006", "area_name": "Salford" }, "geometry": { "type": "Point", "coordinates": [ -2.303075, 53.499741 ] } },
{ "type": "Feature", "properties": { "id": "3970", "name": "The Deans Football Club", "address": "Salisbury Road, Eccles", "postcode": "M30 9BG", "area_code": "E08000006", "area_name": "Salford" }, "geometry": { "type": "Point", "coordinates": [ -2.33226, 53.493848 ] } },
{ "type": "Feature", "properties": { "id": "4249", "name": "Temporary Building", "address": "Lay-By, Worsley Brow, Worsley", "postcode": "M28 2WH", "area_code": "E08000006", "area_name": "Salford" }, "geometry": { "type": "Point", "coordinates": [ -2.38612, 53.504266 ] } },
{ "type": "Feature", "properties": { "id": "3922", "name": "St Clement's Church Hall", "address": "Ellis Street, Salford", "postcode": "M8 9TZ", "area_code": "E08000006", "area_name": "Salford" }, "geometry": { "type": "Point", "coordinates": [ -2.253934, 53.49571 ] } },
{ "type": "Feature", "properties": { "id": "4175", "name": "St John (Ellesmere)", "address": "Community Centre, Algernon Road, Walkden", "postcode": "M28 3RE", "area_code": "E08000006", "area_name": "Salford" }, "geometry": { "type": "Point", "coordinates": [ -2.40365, 53.530974 ] } },
{ "type": "Feature", "properties": { "id": "4156", "name": "Swinton Football Club", "address": "Barton Road, Swinton", "postcode": "M27 5LJ", "area_code": "E08000006", "area_name": "Salford" }, "geometry": { "type": "Point", "coordinates": [ -2.327503, 53.506516 ] } },
{ "type": "Feature", "properties": { "id": "3961", "name": "The Height Library", "address": "King Street, Salford", "postcode": "M6 7GY", "area_code": "E08000006", "area_name": "Salford" }, "geometry": { "type": "Point", "coordinates": [ -2.308953, 53.499645 ] } },
{ "type": "Feature", "properties": { "id": "4126", "name": "Mossfield Primary School", "address": "Mossfield Road, Pendlebury", "postcode": "M27 6EH", "area_code": "E08000006", "area_name": "Salford" }, "geometry": { "type": "Point", "coordinates": [ -2.339169, 53.519059 ] } },
{ "type": "Feature", "properties": { "id": "4087", "name": "Islington Community Centre", "address": "Canon Hussey Court, Islington Way, Salford", "postcode": "M3 5HZ", "area_code": "E08000006", "area_name": "Salford" }, "geometry": { "type": "Point", "coordinates": [ -2.262052, 53.481943 ] } },
{ "type": "Feature", "properties": { "id": "4084", "name": "Salford Lads and Girls Club", "address": "St. Ignatius Walk, Salford", "postcode": "M5 3RX", "area_code": "E08000006", "area_name": "Salford" }, "geometry": { "type": "Point", "coordinates": [ -2.274704, 53.476485 ] } },
{ "type": "Feature", "properties": { "id": "3950", "name": "Pendleton College", "address": "Dronfield Road, Salford", "postcode": "M6 7FR", "area_code": "E08000006", "area_name": "Salford" }, "geometry": { "type": "Point", "coordinates": [ -2.305317, 53.494936 ] } },
{ "type": "Feature", "properties": { "id": "3900", "name": "Ellenbrook Primary School", "address": "Longwall Avenue, Worsley", "postcode": "M28 7PS", "area_code": "E08000006", "area_name": "Salford" }, "geometry": { "type": "Point", "coordinates": [ -2.408381, 53.50997 ] } },
{ "type": "Feature", "properties": { "id": "3921", "name": "St Boniface Social Club", "address": "Lower Broughton Road, Salford", "postcode": "M7 2JX", "area_code": "E08000006", "area_name": "Salford" }, "geometry": { "type": "Point", "coordinates": [ -2.268025, 53.497219 ] } },
{ "type": "Feature", "properties": { "id": "4193", "name": "Temporary Building", "address": "Mesne Lea Primary School, Henniker Street, Walkden", "postcode": "M28 7FG", "area_code": "E08000006", "area_name": "Salford" }, "geometry": { "type": "Point", "coordinates": [ -2.394046, 53.51542 ] } },
{ "type": "Feature", "properties": { "id": "3885", "name": "Christ Church Primary School", "address": "Nelson Street, Eccles", "postcode": "M30 0GZ", "area_code": "E08000006", "area_name": "Salford" }, "geometry": { "type": "Point", "coordinates": [ -2.355253, 53.483895 ] } },
{ "type": "Feature", "properties": { "id": "4099", "name": "Sacred Trinity Church", "address": "Chapel Street, Salford", "postcode": "M3 5DW", "area_code": "E08000006", "area_name": "Salford" }, "geometry": { "type": "Point", "coordinates": [ -2.250327, 53.484806 ] } },
{ "type": "Feature", "properties": { "id": "3939", "name": "St Mary's Primary School", "address": "Buckingham Road, Cadishead", "postcode": "M44 5HG", "area_code": "E08000006", "area_name": "Salford" }, "geometry": { "type": "Point", "coordinates": [ -2.448519, 53.42823 ] } },
{ "type": "Feature", "properties": { "id": "4109", "name": "St Thomas Church", "address": "Delamere Avenue, Clifton, Swinton", "postcode": "M27 8GL", "area_code": "E08000006", "area_name": "Salford" }, "geometry": { "type": "Point", "coordinates": [ -2.323278, 53.519805 ] } },
{ "type": "Feature", "properties": { "id": "4211", "name": "Holy Cross Church Hall", "address": "Aldred Street, Eccles", "postcode": "M30 8PS", "area_code": "E08000006", "area_name": "Salford" }, "geometry": { "type": "Point", "coordinates": [ -2.36129, 53.481396 ] } },
{ "type": "Feature", "properties": { "id": "4115", "name": "Clifton Community Centre", "address": "6 Wynne Avenue, Clifton", "postcode": "M27 8FU", "area_code": "E08000006", "area_name": "Salford" }, "geometry": { "type": "Point", "coordinates": [ -2.334156, 53.524349 ] } },
{ "type": "Feature", "properties": { "id": "3973", "name": "Connect Church", "address": "(Mather Avenue Entrance), 1 Old Wellington Road, Eccles", "postcode": "M30 0UG", "area_code": "E08000006", "area_name": "Salford" }, "geometry": { "type": "Point", "coordinates": [ -2.342772, 53.485298 ] } },
{ "type": "Feature", "properties": { "id": "4103", "name": "Temporary Building", "address": "Rechar Way (Off Agecroft Road), Pendlebury", "postcode": "M27 8WA", "area_code": "E08000006", "area_name": "Salford" }, "geometry": { "type": "Point", "coordinates": [ -2.302482, 53.509513 ] } },
{ "type": "Feature", "properties": { "id": "4153", "name": "Carr and Hume Estate Agents", "address": "Folly Lane, Swinton", "postcode": "M27 0DD", "area_code": "E08000006", "area_name": "Salford" }, "geometry": { "type": "Point", "coordinates": [ -2.349928, 53.497861 ] } },
{ "type": "Feature", "properties": { "id": "4146", "name": "St Mary's RC Primary School", "address": "Milner Street, Swinton", "postcode": "M27 4AS", "area_code": "E08000006", "area_name": "Salford" }, "geometry": { "type": "Point", "coordinates": [ -2.331853, 53.511197 ] } },
{ "type": "Feature", "properties": { "id": "3979", "name": "Temporary Building", "address": "Car Park, John William Street, Eccles", "postcode": "M30 0BL", "area_code": "E08000006", "area_name": "Salford" }, "geometry": { "type": "Point", "coordinates": [ -2.33763, 53.484827 ] } },
{ "type": "Feature", "properties": { "id": "4019", "name": "St Pauls Church", "address": "Moor Lane, Salford", "postcode": "M7 3WX", "area_code": "E08000006", "area_name": "Salford" }, "geometry": { "type": "Point", "coordinates": [ -2.270396, 53.514534 ] } },
{ "type": "Feature", "properties": { "id": "4033", "name": "Langworthy Cornerstone", "address": "451 Liverpool Street, Salford", "postcode": "M6 5QQ", "area_code": "E08000006", "area_name": "Salford" }, "geometry": { "type": "Point", "coordinates": [ -2.296843, 53.483785 ] } },
{ "type": "Feature", "properties": { "id": "4134", "name": "Fletcher Hall", "address": "Vicarage Road, Swinton", "postcode": "M27 0WA", "area_code": "E08000006", "area_name": "Salford" }, "geometry": { "type": "Point", "coordinates": [ -2.342964, 53.511111 ] } },
{ "type": "Feature", "properties": { "id": "3990", "name": "St Sebastian's", "address": "Community Centre, 1 Douglas Green, Salford", "postcode": "M6 6ET", "area_code": "E08000006", "area_name": "Salford" }, "geometry": { "type": "Point", "coordinates": [ -2.281946, 53.498587 ] } },
{ "type": "Feature", "properties": { "id": "4108", "name": "Kings Church", "address": "431 Bolton Road, Pendlebury", "postcode": "M27 8TD", "area_code": "E08000006", "area_name": "Salford" }, "geometry": { "type": "Point", "coordinates": [ -2.322925, 53.513001 ] } },
{ "type": "Feature", "properties": { "id": "4143", "name": "Clifton Primary School", "address": "Wroe Street, Clifton, Swinton", "postcode": "M27 6PF", "area_code": "E08000006", "area_name": "Salford" }, "geometry": { "type": "Point", "coordinates": [ -2.336852, 53.523578 ] } },
{ "type": "Feature", "properties": { "id": "3989", "name": "Temporary Building", "address": "Lay-By, Seaford Road\/Greyhound Drive, Salford", "postcode": "M6 6ER", "area_code": "E08000006", "area_name": "Salford" }, "geometry": { "type": "Point", "coordinates": [ -2.27246, 53.497658 ] } },
{ "type": "Feature", "properties": { "id": "4137", "name": "All Saints Church", "address": "Charles Street, Swinton", "postcode": "M27 9UQ", "area_code": "E08000006", "area_name": "Salford" }, "geometry": { "type": "Point", "coordinates": [ -2.347256, 53.515728 ] } },
{ "type": "Feature", "properties": { "id": "4246", "name": "Worsley Road United Reformed Church", "address": "Worsley Road, Swinton", "postcode": "M27 0AG", "area_code": "E08000006", "area_name": "Salford" }, "geometry": { "type": "Point", "coordinates": [ -2.350289, 53.503244 ] } },
{ "type": "Feature", "properties": { "id": "4093", "name": "Hawkshaw Court", "address": "Howard Street, Salford", "postcode": "M5 4SD", "area_code": "E08000006", "area_name": "Salford" }, "geometry": { "type": "Point", "coordinates": [ -2.28492, 53.478708 ] } },
{ "type": "Feature", "properties": { "id": "3964", "name": "Eccles Masonic Hall", "address": "Half Edge Lane, Eccles", "postcode": "M30 9BA", "area_code": "E08000006", "area_name": "Salford" }, "geometry": { "type": "Point", "coordinates": [ -2.33153, 53.489176 ] } },
{ "type": "Feature", "properties": { "id": "3983", "name": "Moorfield Primary School", "address": "Acorn Centre, Cutnook Lane, Irlam", "postcode": "M44 6GX", "area_code": "E08000006", "area_name": "Salford" }, "geometry": { "type": "Point", "coordinates": [ -2.417361, 53.453825 ] } },
{ "type": "Feature", "properties": { "id": "4067", "name": "Dukesgate Academy", "address": "Earlesdon Crescent, Little Hulton, Worsley", "postcode": "M38 9HF", "area_code": "E08000006", "area_name": "Salford" }, "geometry": { "type": "Point", "coordinates": [ -2.420238, 53.536221 ] } },
{ "type": "Feature", "properties": { "id": "4152", "name": "KD Sports Centre", "address": "Albion Street, Swinton", "postcode": "M27 4FG", "area_code": "E08000006", "area_name": "Salford" }, "geometry": { "type": "Point", "coordinates": [ -2.326357, 53.512434 ] } },
{ "type": "Feature", "properties": { "id": "4003", "name": "Brunswick House", "address": "62 Broad Street, Salford", "postcode": "M6 5BZ", "area_code": "E08000006", "area_name": "Salford" }, "geometry": { "type": "Point", "coordinates": [ -2.283358, 53.491034 ] } },
{ "type": "Feature", "properties": { "id": "4245", "name": "Beesley Green", "address": "Community Centre, Greenleach Lane, Worsley", "postcode": "M28 2QW", "area_code": "E08000006", "area_name": "Salford" }, "geometry": { "type": "Point", "coordinates": [ -2.381288, 53.510151 ] } },
{ "type": "Feature", "properties": { "id": "4123", "name": "Pendlebury Social Club", "address": "609 Bolton Road, Pendlebury", "postcode": "M27 4EJ", "area_code": "E08000006", "area_name": "Salford" }, "geometry": { "type": "Point", "coordinates": [ -2.330335, 53.517691 ] } },
{ "type": "Feature", "properties": { "id": "4070", "name": "Streetgate Community Centre", "address": "Streetgate, Little Hulton", "postcode": "M38 9UR", "area_code": "E08000006", "area_name": "Salford" }, "geometry": { "type": "Point", "coordinates": [ -2.424272, 53.532216 ] } },
{ "type": "Feature", "properties": { "id": "4242", "name": "Holy Rood Church Hall", "address": "Moorside Road, Swinton", "postcode": "M27 0HJ", "area_code": "E08000006", "area_name": "Salford" }, "geometry": { "type": "Point", "coordinates": [ -2.355343, 53.507193 ] } },
{ "type": "Feature", "properties": { "id": "4052", "name": "Affinity Sutton Centre", "address": "Doveridge Gardens\/Seedley Road, Salford", "postcode": "M6 7LY", "area_code": "E08000006", "area_name": "Salford" }, "geometry": { "type": "Point", "coordinates": [ -2.290578, 53.490964 ] } },
{ "type": "Feature", "properties": { "id": "4124", "name": "Wardley Community Centre", "address": "30 Ash Drive, Wardley, Swinton", "postcode": "M27 9RS", "area_code": "E08000006", "area_name": "Salford" }, "geometry": { "type": "Point", "coordinates": [ -2.357315, 53.519393 ] } },
{ "type": "Feature", "properties": { "id": "4079", "name": "Former Armitage Social Club", "address": "Madamswood Road, Little Hulton", "postcode": "M28 0JU", "area_code": "E08000006", "area_name": "Salford" }, "geometry": { "type": "Point", "coordinates": [ -2.421641, 53.524189 ] } },
{ "type": "Feature", "properties": { "id": "3894", "name": "Boothstown Methodist Church", "address": "Chaddock Lane, Worsley", "postcode": "M28 1DD", "area_code": "E08000006", "area_name": "Salford" }, "geometry": { "type": "Point", "coordinates": [ -2.425062, 53.504161 ] } },
{ "type": "Feature", "properties": { "id": "4036", "name": "Clarendon Leisure Centre", "address": "Liverpool Street, Salford", "postcode": "M5 4HU", "area_code": "E08000006", "area_name": "Salford" }, "geometry": { "type": "Point", "coordinates": [ -2.284643, 53.482376 ] } },
{ "type": "Feature", "properties": { "id": "4118", "name": "Clifton Neighbourhood Centre", "address": "Manchester Road, Clifton", "postcode": "M27 6PP", "area_code": "E08000006", "area_name": "Salford" }, "geometry": { "type": "Point", "coordinates": [ -2.340811, 53.528232 ] } },
{ "type": "Feature", "properties": { "id": "4179", "name": "Walkden Gateway Centre", "address": "Smith Street, Walkden", "postcode": "M28 3EZ", "area_code": "E08000006", "area_name": "Salford" }, "geometry": { "type": "Point", "coordinates": [ -2.398541, 53.524898 ] } },
{ "type": "Feature", "properties": { "id": "4090", "name": "St Clement's Church", "address": "Groves Avenue, Salford", "postcode": "M5 3LQ", "area_code": "E08000006", "area_name": "Salford" }, "geometry": { "type": "Point", "coordinates": [ -2.276623, 53.472731 ] } },
{ "type": "Feature", "properties": { "id": "7835", "name": "Guywood Centre", "address": "21 Guywood Lane, Romiley, Stockport", "postcode": "SK6 4AN", "area_code": "E08000007", "area_name": "Stockport" }, "geometry": { "type": "Point", "coordinates": [ -2.088667, 53.415035 ] } },
{ "type": "Feature", "properties": { "id": "7945", "name": "Davenport Methodist Church", "address": "Garners Lane, Stockport", "postcode": "SK3 8QS", "area_code": "E08000007", "area_name": "Stockport" }, "geometry": { "type": "Point", "coordinates": [ -2.16237, 53.390725 ] } },
{ "type": "Feature", "properties": { "id": "7837", "name": "1st Romiley Scout Group", "address": "Heys Avenue, Romilley, Stockport", "postcode": "SK6 4HY", "area_code": "E08000007", "area_name": "Stockport" }, "geometry": { "type": "Point", "coordinates": [ -2.073173, 53.416475 ] } },
{ "type": "Feature", "properties": { "id": "8016", "name": "West Heatons Tennis Club", "address": "Princes Road, Stockport", "postcode": "SK4 3NQ", "area_code": "E08000007", "area_name": "Stockport" }, "geometry": { "type": "Point", "coordinates": [ -2.195368, 53.421892 ] } },
{ "type": "Feature", "properties": { "id": "7898", "name": "All Hallows Church", "address": "222 Councillor Lane, Cheadle, Stockport", "postcode": "SK8 2JG", "area_code": "E08000007", "area_name": "Stockport" }, "geometry": { "type": "Point", "coordinates": [ -2.18959, 53.388275 ] } },
{ "type": "Feature", "properties": { "id": "7989", "name": "1ST Norbury Scout Group", "address": "School Street, Hazel Grove, Stockport", "postcode": "SK7 4RA", "area_code": "E08000007", "area_name": "Stockport" }, "geometry": { "type": "Point", "coordinates": [ -2.117912, 53.376538 ] } },
{ "type": "Feature", "properties": { "id": "8127", "name": "St Johns Church", "address": "Marple Road, Offerton, Stockport", "postcode": "SK2 5TX", "area_code": "E08000007", "area_name": "Stockport" }, "geometry": { "type": "Point", "coordinates": [ -2.116976, 53.39714 ] } },
{ "type": "Feature", "properties": { "id": "8171", "name": "All Saints Church", "address": "All Saints Road, Heaton Norris, Stockport", "postcode": "SK4 1NL", "area_code": "E08000007", "area_name": "Stockport" }, "geometry": { "type": "Point", "coordinates": [ -2.16625, 53.421721 ] } },
{ "type": "Feature", "properties": { "id": "7937", "name": "Chelwood Baptist Church", "address": "Adswood Road, Cheadle Hulme, Stockport", "postcode": "SK8 5QA", "area_code": "E08000007", "area_name": "Stockport" }, "geometry": { "type": "Point", "coordinates": [ -2.178652, 53.386611 ] } },
{ "type": "Feature", "properties": { "id": "7846", "name": "Westmorland Primary School", "address": "Drama Room, Westmorland Drive, Brinnington, Stockport", "postcode": "SK5 8HH", "area_code": "E08000007", "area_name": "Stockport" }, "geometry": { "type": "Point", "coordinates": [ -2.136771, 53.430801 ] } },
{ "type": "Feature", "properties": { "id": "8118", "name": "High Lane Primary School", "address": "Andrew Lane, High Lane, Stockport", "postcode": "SK6 8JQ", "area_code": "E08000007", "area_name": "Stockport" }, "geometry": { "type": "Point", "coordinates": [ -2.070007, 53.367318 ] } },
{ "type": "Feature", "properties": { "id": "8020", "name": "Heaton Moor Library", "address": "Balmoral Road Entrance, Heaton Moor, Stockport", "postcode": "SK4 3LD", "area_code": "E08000007", "area_name": "Stockport" }, "geometry": { "type": "Point", "coordinates": [ -2.190725, 53.416677 ] } },
{ "type": "Feature", "properties": { "id": "7926", "name": "The Methodist Church Schoolroom", "address": "Station Road, Cheadle Hulme, Cheadle, Stockport", "postcode": "SK8 7AL", "area_code": "E08000007", "area_name": "Stockport" }, "geometry": { "type": "Point", "coordinates": [ -2.181833, 53.374553 ] } },
{ "type": "Feature", "properties": { "id": "7849", "name": "St Luke`s Parish Hall", "address": "Northumberland Road, Brinnington, Stockport", "postcode": "SK5 8LS", "area_code": "E08000007", "area_name": "Stockport" }, "geometry": { "type": "Point", "coordinates": [ -2.135408, 53.427926 ] } },
{ "type": "Feature", "properties": { "id": "8206", "name": "Great Moor Junior School", "address": "Southwood Road, Great Moor, Stockport", "postcode": "SK2 7DG", "area_code": "E08000007", "area_name": "Stockport" }, "geometry": { "type": "Point", "coordinates": [ -2.138318, 53.388202 ] } },
{ "type": "Feature", "properties": { "id": "8227", "name": "Cheadle Heath Sports Club", "address": "New Function Room, Norbeck Avenue, Cheadle, Stockport", "postcode": "SK8 2ET", "area_code": "E08000007", "area_name": "Stockport" }, "geometry": { "type": "Point", "coordinates": [ -2.190768, 53.396183 ] } },
{ "type": "Feature", "properties": { "id": "7922", "name": "St James R.C High School", "address": "St James Way, Cheadle Hulme, Cheadle", "postcode": "SK8 6PZ", "area_code": "E08000007", "area_name": "Stockport" }, "geometry": { "type": "Point", "coordinates": [ -2.198329, 53.359848 ] } },
{ "type": "Feature", "properties": { "id": "8146", "name": "St Joseph`s Catholic Primary School", "address": "Reddish, Higginson Road, Off Gorton Road, Reddish, Stockport", "postcode": "SK5 6BG", "area_code": "E08000007", "area_name": "Stockport" }, "geometry": { "type": "Point", "coordinates": [ -2.161754, 53.438455 ] } },
{ "type": "Feature", "properties": { "id": "7806", "name": "Queens Arms", "address": "2 Higher Bents Lane, Bredbury, Stockport", "postcode": "SK6 2TN", "area_code": "E08000007", "area_name": "Stockport" }, "geometry": { "type": "Point", "coordinates": [ -2.116397, 53.432557 ] } },
{ "type": "Feature", "properties": { "id": "7930", "name": "Bridge Hall Community Centre", "address": "Siddington Avenue, Bridge Hall, Stockport", "postcode": "SK3 8NR", "area_code": "E08000007", "area_name": "Stockport" }, "geometry": { "type": "Point", "coordinates": [ -2.172504, 53.394252 ] } },
{ "type": "Feature", "properties": { "id": "8031", "name": "Heaton Moor United Church", "address": "Stanley Road, Heaton Moor, Stockport", "postcode": "SK4 4HL", "area_code": "E08000007", "area_name": "Stockport" }, "geometry": { "type": "Point", "coordinates": [ -2.184995, 53.420686 ] } },
{ "type": "Feature", "properties": { "id": "8094", "name": "Visitors Centre", "address": "Etherow Country Park, Compstall", "postcode": "SK6 5JD", "area_code": "E08000007", "area_name": "Stockport" }, "geometry": { "type": "Point", "coordinates": [ -2.052679, 53.41529 ] } },
{ "type": "Feature", "properties": { "id": "8068", "name": "St Andrew`s Community Church Hall", "address": "Hall Street, Stockport", "postcode": "SK1 4DA", "area_code": "E08000007", "area_name": "Stockport" }, "geometry": { "type": "Point", "coordinates": [ -2.146986, 53.407823 ] } },
{ "type": "Feature", "properties": { "id": "8071", "name": "Stockport Sunday School", "address": "Compass Point, Nangreave Road, Stockport", "postcode": "SK2 6DQ", "area_code": "E08000007", "area_name": "Stockport" }, "geometry": { "type": "Point", "coordinates": [ -2.143293, 53.396628 ] } },
{ "type": "Feature", "properties": { "id": "7962", "name": "Lark Hill Nursery School", "address": "Northgate Road, Edgeley, Stockport", "postcode": "SK3 9PH", "area_code": "E08000007", "area_name": "Stockport" }, "geometry": { "type": "Point", "coordinates": [ -2.177841, 53.404725 ] } },
{ "type": "Feature", "properties": { "id": "8109", "name": "Guide Hut", "address": "Brickbridge Road, Marple, Stockport", "postcode": "SK6 7BQ", "area_code": "E08000007", "area_name": "Stockport" }, "geometry": { "type": "Point", "coordinates": [ -2.059807, 53.391575 ] } },
{ "type": "Feature", "properties": { "id": "8048", "name": "Heaton Mersey Methodist Church", "address": "Cavendish Road, Heaton Mersey, Stockport", "postcode": "SK4 3DP", "area_code": "E08000007", "area_name": "Stockport" }, "geometry": { "type": "Point", "coordinates": [ -2.201002, 53.413766 ] } },
{ "type": "Feature", "properties": { "id": "8115", "name": "High Lane Village Hall", "address": "Windlehurst Road, High Lane, Stockport", "postcode": "SK6 8AB", "area_code": "E08000007", "area_name": "Stockport" }, "geometry": { "type": "Point", "coordinates": [ -2.078649, 53.367349 ] } },
{ "type": "Feature", "properties": { "id": "8182", "name": "The Triangle Church (Lancashire Hill S. S.)", "address": "Sandy Lane, South Reddish, Stockport", "postcode": "SK5 7NZ", "area_code": "E08000007", "area_name": "Stockport" }, "geometry": { "type": "Point", "coordinates": [ -2.159367, 53.419941 ] } },
{ "type": "Feature", "properties": { "id": "8075", "name": "Quaker Meeting House", "address": "2 Cooper Street, Stockport", "postcode": "SK1 3DW", "area_code": "E08000007", "area_name": "Stockport" }, "geometry": { "type": "Point", "coordinates": [ -2.154275, 53.401585 ] } },
{ "type": "Feature", "properties": { "id": "8008", "name": "Outwood Primary School", "address": "Outwood Road, Heald Green, Cheadle", "postcode": "SK8 3ND", "area_code": "E08000007", "area_name": "Stockport" }, "geometry": { "type": "Point", "coordinates": [ -2.218986, 53.362131 ] } },
{ "type": "Feature", "properties": { "id": "8027", "name": "St Thomas the Apostle Church", "address": "Wellington Road North, Heaton Chapel, Stockport", "postcode": "SK4 4QG", "area_code": "E08000007", "area_name": "Stockport" }, "geometry": { "type": "Point", "coordinates": [ -2.178678, 53.428964 ] } },
{ "type": "Feature", "properties": { "id": "7822", "name": "Community Room", "address": "Bredbury Library, George Lane, Bredbury, Stockport", "postcode": "SK6 1DJ", "area_code": "E08000007", "area_name": "Stockport" }, "geometry": { "type": "Point", "coordinates": [ -2.101442, 53.416722 ] } },
{ "type": "Feature", "properties": { "id": "7826", "name": "The Hub", "address": "(formerly the Highgate Centre), Bents Avenue, Bredbury, Stockport", "postcode": "SK6 2LF", "area_code": "E08000007", "area_name": "Stockport" }, "geometry": { "type": "Point", "coordinates": [ -2.106756, 53.417304 ] } },
{ "type": "Feature", "properties": { "id": "7879", "name": "Gatley Primary School", "address": "Hawthorn Road, Gatley, Cheadle", "postcode": "SK8 4NB", "area_code": "E08000007", "area_name": "Stockport" }, "geometry": { "type": "Point", "coordinates": [ -2.237415, 53.390356 ] } },
{ "type": "Feature", "properties": { "id": "8124", "name": "St Pauls Church Schoolroom", "address": "Strines Road, Strines, Marple, Stockport", "postcode": "SK6 7GB", "area_code": "E08000007", "area_name": "Stockport" }, "geometry": { "type": "Point", "coordinates": [ -2.043746, 53.37507 ] } },
{ "type": "Feature", "properties": { "id": "7934", "name": "Edgeley Library", "address": "Edgeley Road, Edgeley, Stockport", "postcode": "SK3 9NB", "area_code": "E08000007", "area_name": "Stockport" }, "geometry": { "type": "Point", "coordinates": [ -2.172922, 53.400921 ] } },
{ "type": "Feature", "properties": { "id": "7807", "name": "St Barnabas Church Hall", "address": "Osborne Street, Bredbury, Stockport", "postcode": "SK6 2DA", "area_code": "E08000007", "area_name": "Stockport" }, "geometry": { "type": "Point", "coordinates": [ -2.125366, 53.416441 ] } },
{ "type": "Feature", "properties": { "id": "7919", "name": "Thorn Grove Primary School", "address": "Woodstock Avenue, Cheadle Hulme, Cheadle", "postcode": "SK8 7LD", "area_code": "E08000007", "area_name": "Stockport" }, "geometry": { "type": "Point", "coordinates": [ -2.190453, 53.362567 ] } },
{ "type": "Feature", "properties": { "id": "7877", "name": "Mobile Polling Station", "address": "Cambridge Road, Cheadle", "postcode": "SK8 4AE", "area_code": "E08000007", "area_name": "Stockport" }, "geometry": { "type": "Point", "coordinates": [ -2.23271, 53.39326 ] } },
{ "type": "Feature", "properties": { "id": "7908", "name": "Emmanuel C of E Church-Main Building", "address": "Bruntwood Lane, Cheadle", "postcode": "SK8 6BE", "area_code": "E08000007", "area_name": "Stockport" }, "geometry": { "type": "Point", "coordinates": [ -2.210098, 53.372924 ] } },
{ "type": "Feature", "properties": { "id": "8159", "name": "Reddish Northend Football Club", "address": "Mike Doyle Centre, Browning Road, Reddish, Stockport", "postcode": "SK5 6JW", "area_code": "E08000007", "area_name": "Stockport" }, "geometry": { "type": "Point", "coordinates": [ -2.166547, 53.447499 ] } },
{ "type": "Feature", "properties": { "id": "7955", "name": "Learning Support Service", "address": "Cheadle Heath Centre, Edgeley Road, Stockport", "postcode": "SK3 0RJ", "area_code": "E08000007", "area_name": "Stockport" }, "geometry": { "type": "Point", "coordinates": [ -2.19166, 53.400461 ] } },
{ "type": "Feature", "properties": { "id": "7956", "name": "Alexandra Park Primary School", "address": "Bombay Road, Edgeley, Stockport", "postcode": "SK3 9RF", "area_code": "E08000007", "area_name": "Stockport" }, "geometry": { "type": "Point", "coordinates": [ -2.176585, 53.399387 ] } },
{ "type": "Feature", "properties": { "id": "8195", "name": "Scout HQ", "address": "Rear Of, Trinity Methodist Church, Bramhall Lane, Stockport", "postcode": "SK3 8TP", "area_code": "E08000007", "area_name": "Stockport" }, "geometry": { "type": "Point", "coordinates": [ -2.153666, 53.383024 ] } },
{ "type": "Feature", "properties": { "id": "8065", "name": "1ST Offerton Scout Group", "address": "Behind St Albans Parish Hall, Off Offerton Lane, Offerton, Stockport", "postcode": "SK2 5AG", "area_code": "E08000007", "area_name": "Stockport" }, "geometry": { "type": "Point", "coordinates": [ -2.132487, 53.40348 ] } },
{ "type": "Feature", "properties": { "id": "8228", "name": "Mobile Polling Station", "address": "Brecon Towers, Blackberry Lane, Brinnington, Stockport", "postcode": "SK5 8JW", "area_code": "E08000007", "area_name": "Stockport" }, "geometry": { "type": "Point", "coordinates": [ -2.133096, 53.434589 ] } },
{ "type": "Feature", "properties": { "id": "8062", "name": "Union United Reformed Church", "address": "Maitland Street, Stockport", "postcode": "SK1 4ND", "area_code": "E08000007", "area_name": "Stockport" }, "geometry": { "type": "Point", "coordinates": [ -2.144284, 53.400411 ] } },
{ "type": "Feature", "properties": { "id": "7959", "name": "Salvation Army Church", "address": "121 Stockport Road, Cheadle Heath, Stockport", "postcode": "SK3 0JE", "area_code": "E08000007", "area_name": "Stockport" }, "geometry": { "type": "Point", "coordinates": [ -2.187895, 53.403135 ] } },
{ "type": "Feature", "properties": { "id": "8155", "name": "St Agnes` Church", "address": "Gorton Road, St Agnes Street, Reddish, Stockport", "postcode": "SK5 6QU", "area_code": "E08000007", "area_name": "Stockport" }, "geometry": { "type": "Point", "coordinates": [ -2.157273, 53.451988 ] } },
{ "type": "Feature", "properties": { "id": "7832", "name": "St Chads Church", "address": "Lounge Area, Church Lane, Romiley, Stockport", "postcode": "SK6 4AA", "area_code": "E08000007", "area_name": "Stockport" }, "geometry": { "type": "Point", "coordinates": [ -2.090272, 53.412841 ] } },
{ "type": "Feature", "properties": { "id": "8135", "name": "Offerton Community Centre", "address": "Mallowdale Road, Offerton, Stockport", "postcode": "SK2 5NX", "area_code": "E08000007", "area_name": "Stockport" }, "geometry": { "type": "Point", "coordinates": [ -2.121277, 53.391214 ] } },
{ "type": "Feature", "properties": { "id": "8078", "name": "Rose Hill Primary School", "address": "Elmfield Drive Rose Hill, Marple, Stockport", "postcode": "SK6 6DW", "area_code": "E08000007", "area_name": "Stockport" }, "geometry": { "type": "Point", "coordinates": [ -2.074538, 53.397104 ] } },
{ "type": "Feature", "properties": { "id": "8000", "name": "Etchells Primary School", "address": "East Avenue Finney Lane, Heald Green, Cheadle", "postcode": "SK8 3DL", "area_code": "E08000007", "area_name": "Stockport" }, "geometry": { "type": "Point", "coordinates": [ -2.219003, 53.371246 ] } },
{ "type": "Feature", "properties": { "id": "8088", "name": "Mellor Sports Club", "address": "Longhurst Lane, Mellor, Stockport", "postcode": "SK6 5PN", "area_code": "E08000007", "area_name": "Stockport" }, "geometry": { "type": "Point", "coordinates": [ -2.038201, 53.393085 ] } },
{ "type": "Feature", "properties": { "id": "7970", "name": "Our Lady`s Catholic Primary School", "address": "Old Chapel Street, Edgeley, Stockport", "postcode": "SK3 9HX", "area_code": "E08000007", "area_name": "Stockport" }, "geometry": { "type": "Point", "coordinates": [ -2.163695, 53.403073 ] } },
{ "type": "Feature", "properties": { "id": "7789", "name": "Bramhall Village Club", "address": "Lumb Lane, Bramhall, Stockport", "postcode": "SK7 1LR", "area_code": "E08000007", "area_name": "Stockport" }, "geometry": { "type": "Point", "coordinates": [ -2.159267, 53.35703 ] } },
{ "type": "Feature", "properties": { "id": "8052", "name": "Heaton Mersey Sports & Social Club", "address": "Harwood Road, Heaton Mersey, Stockport", "postcode": "SK4 3AW", "area_code": "E08000007", "area_name": "Stockport" }, "geometry": { "type": "Point", "coordinates": [ -2.209872, 53.412689 ] } },
{ "type": "Feature", "properties": { "id": "7758", "name": "Nevill Road Junior School", "address": "Nevill Road, Bramhall, Stockport", "postcode": "SK7 3ET", "area_code": "E08000007", "area_name": "Stockport" }, "geometry": { "type": "Point", "coordinates": [ -2.16327, 53.37831 ] } },
{ "type": "Feature", "properties": { "id": "7815", "name": "Woodley Civic Hall", "address": "Hyde Road, Woodley, Stockport", "postcode": "SK6 1QG", "area_code": "E08000007", "area_name": "Stockport" }, "geometry": { "type": "Point", "coordinates": [ -2.103583, 53.424783 ] } },
{ "type": "Feature", "properties": { "id": "7855", "name": "The Pavilion", "address": "Heaton Norris Park, Love Lane, Off Parsonage Street, Southdown Close, Stockport", "postcode": "SK4 1JA", "area_code": "E08000007", "area_name": "Stockport" }, "geometry": { "type": "Point", "coordinates": [ -2.163802, 53.415216 ] } },
{ "type": "Feature", "properties": { "id": "7874", "name": "Trinity Methodist\/United Reform Church", "address": "Massie Street, Cheadle, Stockport", "postcode": "SK8 1DU", "area_code": "E08000007", "area_name": "Stockport" }, "geometry": { "type": "Point", "coordinates": [ -2.215548, 53.392429 ] } },
{ "type": "Feature", "properties": { "id": "7992", "name": "3RD Hazel Grove Scout Hq", "address": "Macclesfield Road, Near Haddon Road, Hazel Grove, Stockport", "postcode": "SK7 6BD", "area_code": "E08000007", "area_name": "Stockport" }, "geometry": { "type": "Point", "coordinates": [ -2.113422, 53.372067 ] } },
{ "type": "Feature", "properties": { "id": "8121", "name": "Brookside Primary School", "address": "Ashbourne Drive, High Lane, Stockport", "postcode": "SK6 8DB", "area_code": "E08000007", "area_name": "Stockport" }, "geometry": { "type": "Point", "coordinates": [ -2.068284, 53.360776 ] } },
{ "type": "Feature", "properties": { "id": "7941", "name": "Adswood Community Centre", "address": "213, Garners Lane, Adswood, Stockport", "postcode": "SK3 8QJ", "area_code": "E08000007", "area_name": "Stockport" }, "geometry": { "type": "Point", "coordinates": [ -2.167145, 53.38901 ] } },
{ "type": "Feature", "properties": { "id": "7792", "name": "Woodford Community Centre", "address": "Chester Road, Woodford, Stockport", "postcode": "SK7 1PS", "area_code": "E08000007", "area_name": "Stockport" }, "geometry": { "type": "Point", "coordinates": [ -2.170271, 53.339865 ] } },
{ "type": "Feature", "properties": { "id": "8045", "name": "1ST Heaton Norris Scout Group", "address": "Locksley Close, Heaton Norris, Stockport", "postcode": "SK4 2LW", "area_code": "E08000007", "area_name": "Stockport" }, "geometry": { "type": "Point", "coordinates": [ -2.17732, 53.41339 ] } },
{ "type": "Feature", "properties": { "id": "7884", "name": "Kingsway School (Lower)", "address": "Broadway Campus, High Grove Road, Gatley", "postcode": "SK8 4QX", "area_code": "E08000007", "area_name": "Stockport" }, "geometry": { "type": "Point", "coordinates": [ -2.226631, 53.386979 ] } },
{ "type": "Feature", "properties": { "id": "8112", "name": "Hawk Green Reading Room", "address": "Upper Hibbert Lane, Hawk Green, Stockport", "postcode": "SK6 7HX", "area_code": "E08000007", "area_name": "Stockport" }, "geometry": { "type": "Point", "coordinates": [ -2.064474, 53.385335 ] } },
{ "type": "Feature", "properties": { "id": "7973", "name": "Norbury Hall Primary School", "address": "Shepley Drive, Hazel Grove, Stockport", "postcode": "SK7 6LE", "area_code": "E08000007", "area_name": "Stockport" }, "geometry": { "type": "Point", "coordinates": [ -2.120774, 53.373138 ] } },
{ "type": "Feature", "properties": { "id": "7829", "name": "Overdale Childrens Centre", "address": "Powicke Drive, Romiley, Stockport", "postcode": "SK6 3EF", "area_code": "E08000007", "area_name": "Stockport" }, "geometry": { "type": "Point", "coordinates": [ -2.107202, 53.409079 ] } },
{ "type": "Feature", "properties": { "id": "7859", "name": "Elim Church", "address": "Mottram Street, (Off Middle Hillgate), Stockport", "postcode": "SK1 3PA", "area_code": "E08000007", "area_name": "Stockport" }, "geometry": { "type": "Point", "coordinates": [ -2.155177, 53.405835 ] } },
{ "type": "Feature", "properties": { "id": "7819", "name": "Woodley Primary School", "address": "Sherwood Road, Woodley, Stockport", "postcode": "SK6 1LH", "area_code": "E08000007", "area_name": "Stockport" }, "geometry": { "type": "Point", "coordinates": [ -2.092605, 53.427463 ] } },
{ "type": "Feature", "properties": { "id": "8101", "name": "Marple United Reformed Church", "address": "Hibbert Lane, Marple, Stockport", "postcode": "SK6 7NN", "area_code": "E08000007", "area_name": "Stockport" }, "geometry": { "type": "Point", "coordinates": [ -2.065703, 53.392633 ] } },
{ "type": "Feature", "properties": { "id": "7986", "name": "The Civic Hall - Hazel Grove", "address": "London Road, Hazel Grove, Stockport", "postcode": "SK7 4DF", "area_code": "E08000007", "area_name": "Stockport" }, "geometry": { "type": "Point", "coordinates": [ -2.120612, 53.379413 ] } },
{ "type": "Feature", "properties": { "id": "8084", "name": "Ludworth and Mellor Womens Institute", "address": "Lower Fold, Marple Bridge, Stockport", "postcode": "SK6 5DX", "area_code": "E08000007", "area_name": "Stockport" }, "geometry": { "type": "Point", "coordinates": [ -2.051975, 53.405215 ] } },
{ "type": "Feature", "properties": { "id": "8149", "name": "Christ Church Schoolroom", "address": "Gorton Road, Reddish, Stockport", "postcode": "SK5 6EQ", "area_code": "E08000007", "area_name": "Stockport" }, "geometry": { "type": "Point", "coordinates": [ -2.158907, 53.442 ] } },
{ "type": "Feature", "properties": { "id": "7798", "name": "Hursthead Infant School", "address": "Kirkstead Road, Cheadle Hulme", "postcode": "SK8 7PZ", "area_code": "E08000007", "area_name": "Stockport" }, "geometry": { "type": "Point", "coordinates": [ -2.181284, 53.361907 ] } },
{ "type": "Feature", "properties": { "id": "7780", "name": "Centenary Hall", "address": "Benja Fold, Off Ack Lane East, Stockport", "postcode": "SK7 2BX", "area_code": "E08000007", "area_name": "Stockport" }, "geometry": { "type": "Point", "coordinates": [ -2.16625, 53.360104 ] } },
{ "type": "Feature", "properties": { "id": "8144", "name": "Reddish Library", "address": "Gorton Road, Reddish, Stockport", "postcode": "SK5 6UG", "area_code": "E08000007", "area_name": "Stockport" }, "geometry": { "type": "Point", "coordinates": [ -2.158377, 53.441183 ] } },
{ "type": "Feature", "properties": { "id": "8011", "name": "Mobile Polling Station", "address": "At Junction Of, Bradgate Avenue, And Bradshaw Hall Lane, Heald Green", "postcode": "SK8 3AG", "area_code": "E08000007", "area_name": "Stockport" }, "geometry": { "type": "Point", "coordinates": [ -2.214398, 53.370193 ] } },
{ "type": "Feature", "properties": { "id": "7966", "name": "Edgeley Community Church", "address": "Edgeley Road, Edgeley, Stockport", "postcode": "SK3 9NB", "area_code": "E08000007", "area_name": "Stockport" }, "geometry": { "type": "Point", "coordinates": [ -2.172922, 53.400921 ] } },
{ "type": "Feature", "properties": { "id": "7918", "name": "Emmanuel C of E Church - Main Building", "address": "Bruntwood Lane, Cheadle, Stockport", "postcode": "SK8 6BE", "area_code": "E08000007", "area_name": "Stockport" }, "geometry": { "type": "Point", "coordinates": [ -2.210098, 53.372924 ] } },
{ "type": "Feature", "properties": { "id": "8178", "name": "Reddish Vale Family Centre", "address": "(Next to Reddish Vale Nursery School), Reddish Vale Road, Reddish, Stockport", "postcode": "SK5 7EU", "area_code": "E08000007", "area_name": "Stockport" }, "geometry": { "type": "Point", "coordinates": [ -2.156204, 53.435541 ] } },
{ "type": "Feature", "properties": { "id": "7862", "name": "Kimberley Street Day Centre", "address": "Shaw Heath Recreation Ground, Kimberley Street, Off Lowfield Road, Stockport", "postcode": "SK3 8EB", "area_code": "E08000007", "area_name": "Stockport" }, "geometry": { "type": "Point", "coordinates": [ -2.161918, 53.398329 ] } },
{ "type": "Feature", "properties": { "id": "8132", "name": "Warren Wood Primary School", "address": "Turnstone Road, Offerton, Stockport", "postcode": "SK2 5XU", "area_code": "E08000007", "area_name": "Stockport" }, "geometry": { "type": "Point", "coordinates": [ -2.105129, 53.392011 ] } },
{ "type": "Feature", "properties": { "id": "7767", "name": "Brownie Hut", "address": "Bramhall Green Roundabout, Behind Bridge News, Bridge Lane, Bramhall", "postcode": "SK7 3AB", "area_code": "E08000007", "area_name": "Stockport" }, "geometry": { "type": "Point", "coordinates": [ -2.157436, 53.374012 ] } },
{ "type": "Feature", "properties": { "id": "7982", "name": "Hazel Grove Methodist Church", "address": "Wesley street, Hazel Grove, Stockport", "postcode": "SK7 4JQ", "area_code": "E08000007", "area_name": "Stockport" }, "geometry": { "type": "Point", "coordinates": [ -2.118903, 53.381095 ] } },
{ "type": "Feature", "properties": { "id": "7996", "name": "Heald Green Methodist Church", "address": "Brown Lane, Heald Green, Stockport", "postcode": "SK8 3RR", "area_code": "E08000007", "area_name": "Stockport" }, "geometry": { "type": "Point", "coordinates": [ -2.23711, 53.373332 ] } },
{ "type": "Feature", "properties": { "id": "7895", "name": "St Cuthberts Church", "address": "Cuthbert Road, Cheadle", "postcode": "SK8 2DT", "area_code": "E08000007", "area_name": "Stockport" }, "geometry": { "type": "Point", "coordinates": [ -2.205477, 53.396456 ] } },
{ "type": "Feature", "properties": { "id": "7887", "name": "The Bowling Pavilion", "address": "Gatley Recreation Ground, Northenden Road, Gatley, Stockport", "postcode": "SK8 4EL", "area_code": "E08000007", "area_name": "Stockport" }, "geometry": { "type": "Point", "coordinates": [ -2.239358, 53.393606 ] } },
{ "type": "Feature", "properties": { "id": "8209", "name": "Moorfield Primary School", "address": "Lyndhurst Avenue, Hazel Grove, Stockport", "postcode": "SK7 5HP", "area_code": "E08000007", "area_name": "Stockport" }, "geometry": { "type": "Point", "coordinates": [ -2.13337, 53.373152 ] } },
{ "type": "Feature", "properties": { "id": "8141", "name": "Dial Park Hall", "address": "Alfreton Road, Off Dial Park Road, Offerton, Stockport", "postcode": "SK2 5PB", "area_code": "E08000007", "area_name": "Stockport" }, "geometry": { "type": "Point", "coordinates": [ -2.119869, 53.388373 ] } },
{ "type": "Feature", "properties": { "id": "7764", "name": "St Michaels Scout Centre", "address": "St Michaels Avenue, Bramhall, Stockport", "postcode": "SK7 2PG", "area_code": "E08000007", "area_name": "Stockport" }, "geometry": { "type": "Point", "coordinates": [ -2.16323, 53.363982 ] } },
{ "type": "Feature", "properties": { "id": "8198", "name": "St Saviour`s Parish Hall", "address": "Gladstone Street, Great Moor, Stockport", "postcode": "SK2 7HB", "area_code": "E08000007", "area_name": "Stockport" }, "geometry": { "type": "Point", "coordinates": [ -2.134635, 53.388386 ] } },
{ "type": "Feature", "properties": { "id": "7979", "name": "St.Simon`s Catholic Primary School", "address": "Bosden Avenue, Off Bosdenfold Avenue, Hazel Grove, Stockport", "postcode": "SK7 4LH", "area_code": "E08000007", "area_name": "Stockport" }, "geometry": { "type": "Point", "coordinates": [ -2.114187, 53.382709 ] } },
{ "type": "Feature", "properties": { "id": "7881", "name": "Kingsway School (Upper)", "address": "Foxland Road, Cheadle, Stockport", "postcode": "SK8 4QX", "area_code": "E08000007", "area_name": "Stockport" }, "geometry": { "type": "Point", "coordinates": [ -2.226631, 53.386979 ] } },
{ "type": "Feature", "properties": { "id": "8185", "name": "St Mary`s Church Hall", "address": "St. Mary`s Drive, South Reddish, Stockport", "postcode": "SK5 7AX", "area_code": "E08000007", "area_name": "Stockport" }, "geometry": { "type": "Point", "coordinates": [ -2.15582, 53.429303 ] } },
{ "type": "Feature", "properties": { "id": "8038", "name": "St Martins Church Hall", "address": "112 Crescent Park, Norris Bank, Stockport", "postcode": "SK4 2JE", "area_code": "E08000007", "area_name": "Stockport" }, "geometry": { "type": "Point", "coordinates": [ -2.180354, 53.412172 ] } },
{ "type": "Feature", "properties": { "id": "8081", "name": "Marple Senior Citizens Hall", "address": "Memorial Park, Marple, Stockport", "postcode": "SK6 6BA", "area_code": "E08000007", "area_name": "Stockport" }, "geometry": { "type": "Point", "coordinates": [ -2.06225, 53.396248 ] } },
{ "type": "Feature", "properties": { "id": "8042", "name": "Mersey Vale Primary School", "address": "Valley Road, Heaton Mersey, Stockport", "postcode": "SK4 2BZ", "area_code": "E08000007", "area_name": "Stockport" }, "geometry": { "type": "Point", "coordinates": [ -2.191548, 53.408991 ] } },
{ "type": "Feature", "properties": { "id": "8037", "name": "Mobile Polling Station", "address": "Adjacent to Marbury Green, Stockport", "postcode": "SK4 5NL", "area_code": "E08000007", "area_name": "Stockport" }, "geometry": { "type": "Point", "coordinates": [ -2.172507, 53.43577 ] } },
{ "type": "Feature", "properties": { "id": "8175", "name": "Broadstone Hall Primary School", "address": "Broadstone Hall Road South, Heaton Chapel, Stockport", "postcode": "SK4 5JD", "area_code": "E08000007", "area_name": "Stockport" }, "geometry": { "type": "Point", "coordinates": [ -2.166722, 53.430763 ] } },
{ "type": "Feature", "properties": { "id": "7786", "name": "Moss Hey Primary School", "address": "Eskdale Avenue, Bramhall, Stockport", "postcode": "SK7 1DS", "area_code": "E08000007", "area_name": "Stockport" }, "geometry": { "type": "Point", "coordinates": [ -2.176658, 53.355154 ] } },
{ "type": "Feature", "properties": { "id": "7905", "name": "Ladybridge Park Residents Club", "address": "Edenbridge Road, Cheadle Hulme, Stockport", "postcode": "SK8 5PX", "area_code": "E08000007", "area_name": "Stockport" }, "geometry": { "type": "Point", "coordinates": [ -2.183891, 53.384752 ] } },
{ "type": "Feature", "properties": { "id": "7852", "name": "Crescent Road Hall", "address": "Crescent Road, Off Carrington Road, Stockport", "postcode": "SK1 2QQ", "area_code": "E08000007", "area_name": "Stockport" }, "geometry": { "type": "Point", "coordinates": [ -2.140475, 53.417394 ] } },
{ "type": "Feature", "properties": { "id": "8059", "name": "Woodbank Community Centre", "address": "Turncroft Lane, Stockport", "postcode": "SK1 4BN", "area_code": "E08000007", "area_name": "Stockport" }, "geometry": { "type": "Point", "coordinates": [ -2.139161, 53.40687 ] } },
{ "type": "Feature", "properties": { "id": "7811", "name": "St Mark`s Parish Hall", "address": "Redhouse Lane, Bredbury, Stockport", "postcode": "SK6 1BX", "area_code": "E08000007", "area_name": "Stockport" }, "geometry": { "type": "Point", "coordinates": [ -2.105342, 53.423372 ] } },
{ "type": "Feature", "properties": { "id": "8056", "name": "Emmanuel Community Church", "address": "55 Green Lane, Heaton Moor, Stockport", "postcode": "SK4 3LH", "area_code": "E08000007", "area_name": "Stockport" }, "geometry": { "type": "Point", "coordinates": [ -2.184768, 53.416903 ] } },
{ "type": "Feature", "properties": { "id": "7944", "name": "Mobile Polling Station", "address": "Car Park, Davenport Playing Fields, Highfield Close, Stockport", "postcode": "SK3 8UB", "area_code": "E08000007", "area_name": "Stockport" }, "geometry": { "type": "Point", "coordinates": [ -2.157258, 53.386687 ] } },
{ "type": "Feature", "properties": { "id": "7773", "name": "2ND Bramhall Scout Headquarters", "address": "Fir Road, Bramhall, Stockport", "postcode": "SK7 2NP", "area_code": "E08000007", "area_name": "Stockport" }, "geometry": { "type": "Point", "coordinates": [ -2.1589, 53.371494 ] } },
{ "type": "Feature", "properties": { "id": "8242", "name": "Stockport Cricket Club", "address": "Beech Road, Cale Green, Stockport", "postcode": "SK3 8HD", "area_code": "E08000007", "area_name": "Stockport" }, "geometry": { "type": "Point", "coordinates": [ -2.156521, 53.394795 ] } },
{ "type": "Feature", "properties": { "id": "8152", "name": "Vale View Primary School", "address": "Mill Lane, North Reddish, Stockport", "postcode": "SK5 6TP", "area_code": "E08000007", "area_name": "Stockport" }, "geometry": { "type": "Point", "coordinates": [ -2.15181, 53.444283 ] } },
{ "type": "Feature", "properties": { "id": "8004", "name": "Heald Green Village Hall", "address": "Outwood Road, Heald Green, Stockport", "postcode": "SK8 3JL", "area_code": "E08000007", "area_name": "Stockport" }, "geometry": { "type": "Point", "coordinates": [ -2.230074, 53.367485 ] } },
{ "type": "Feature", "properties": { "id": "7891", "name": "Oak Tree Primary School", "address": "After School Club Building, Buckingham Road, Cheadle Hulme, Stockport", "postcode": "SK8 5HH", "area_code": "E08000007", "area_name": "Stockport" }, "geometry": { "type": "Point", "coordinates": [ -2.196444, 53.381531 ] } },
{ "type": "Feature", "properties": { "id": "8202", "name": "Davenport Lawn Tennis Club", "address": "Flowery Field, Woodsmoor, Stockport", "postcode": "SK2 7ED", "area_code": "E08000007", "area_name": "Stockport" }, "geometry": { "type": "Point", "coordinates": [ -2.14495, 53.383916 ] } },
{ "type": "Feature", "properties": { "id": "7770", "name": "Bramhall High School", "address": "Recreation Centre, Seal Road, Bramhall, Stockport", "postcode": "SK7 2JT", "area_code": "E08000007", "area_name": "Stockport" }, "geometry": { "type": "Point", "coordinates": [ -2.153113, 53.367088 ] } },
{ "type": "Feature", "properties": { "id": "8091", "name": "Jubilee Methodist Church Hall", "address": "Cote Green Lane, Marple Bridge, Stockport", "postcode": "SK6 5EB", "area_code": "E08000007", "area_name": "Stockport" }, "geometry": { "type": "Point", "coordinates": [ -2.049512, 53.408658 ] } },
{ "type": "Feature", "properties": { "id": "7777", "name": "Mobile Polling Station", "address": "Dean Moor Road, Hazel Grove, Stockport", "postcode": "SK7 5LW", "area_code": "E08000007", "area_name": "Stockport" }, "geometry": { "type": "Point", "coordinates": [ -2.145779, 53.37596 ] } },
{ "type": "Feature", "properties": { "id": "7911", "name": "Cheadle Hulme United Reformed Church", "address": "65 Swann Lane, Cheadle Hulme, Stockport", "postcode": "SK8 7HU", "area_code": "E08000007", "area_name": "Stockport" }, "geometry": { "type": "Point", "coordinates": [ -2.184371, 53.370477 ] } },
{ "type": "Feature", "properties": { "id": "8189", "name": "Bairstow Club", "address": "Rupert Street, Off Reddish Road, Houldsworth Square, Reddish, Stockport", "postcode": "SK5 6DL", "area_code": "E08000007", "area_name": "Stockport" }, "geometry": { "type": "Point", "coordinates": [ -2.162108, 53.436378 ] } },
{ "type": "Feature", "properties": { "id": "8108", "name": "Mobile Polling Station", "address": "Marple Sixth Form College, Buxton Lane, Marple", "postcode": "SK6 7QY", "area_code": "E08000007", "area_name": "Stockport" }, "geometry": { "type": "Point", "coordinates": [ -2.070978, 53.390868 ] } },
{ "type": "Feature", "properties": { "id": "8215", "name": "The Methodist Church Lounge Area", "address": "Station Road, Cheadle Hulme, Cheadle, Stockport", "postcode": "SK8 7AL", "area_code": "E08000007", "area_name": "Stockport" }, "geometry": { "type": "Point", "coordinates": [ -2.181833, 53.374553 ] } },
{ "type": "Feature", "properties": { "id": "8192", "name": "St Anne`s Rc High School", "address": "Glenfield Road, Heaton Chapel, Stockport", "postcode": "SK4 2QN", "area_code": "E08000007", "area_name": "Stockport" }, "geometry": { "type": "Point", "coordinates": [ -2.17163, 53.420453 ] } },
{ "type": "Feature", "properties": { "id": "7871", "name": "Vernon Park Primary School", "address": "Peak Street, Stockport", "postcode": "SK1 2NF", "area_code": "E08000007", "area_name": "Stockport" }, "geometry": { "type": "Point", "coordinates": [ -2.147827, 53.411525 ] } },
{ "type": "Feature", "properties": { "id": "8213", "name": "Britannia Hotel", "address": "67 Dialstone Lane, Stockport", "postcode": "SK2 6AG", "area_code": "E08000007", "area_name": "Stockport" }, "geometry": { "type": "Point", "coordinates": [ -2.134623, 53.398921 ] } },
{ "type": "Feature", "properties": { "id": "8023", "name": "St Paul`s Church Schoolroom", "address": "St. Pauls Road, Heaton Moor, Stockport", "postcode": "SK4 4RY", "area_code": "E08000007", "area_name": "Stockport" }, "geometry": { "type": "Point", "coordinates": [ -2.185923, 53.423058 ] } },
{ "type": "Feature", "properties": { "id": "7976", "name": "Torkington Primary School", "address": "Torkington Road, Hazel Grove, Stockport", "postcode": "SK7 6NR", "area_code": "E08000007", "area_name": "Stockport" }, "geometry": { "type": "Point", "coordinates": [ -2.10325, 53.379645 ] } },
{ "type": "Feature", "properties": { "id": "7868", "name": "Learners Lounge", "address": "Stonemill Terrace, Stockport", "postcode": "SK5 7RZ", "area_code": "E08000007", "area_name": "Stockport" }, "geometry": { "type": "Point", "coordinates": [ -2.158635, 53.417426 ] } },
{ "type": "Feature", "properties": { "id": "8167", "name": "North Reddish Scout & Guide Centre", "address": "Criterion Street, Reddish, Stockport", "postcode": "SK5 6RZ", "area_code": "E08000007", "area_name": "Stockport" }, "geometry": { "type": "Point", "coordinates": [ -2.156384, 53.447711 ] } },
{ "type": "Feature", "properties": { "id": "8129", "name": "Dialstone Methodist Church", "address": "Dialstone Lane, Stockport", "postcode": "SK2 7LQ", "area_code": "E08000007", "area_name": "Stockport" }, "geometry": { "type": "Point", "coordinates": [ -2.131207, 53.393172 ] } },
{ "type": "Feature", "properties": { "id": "7783", "name": "Fords Lane Evangelical Church", "address": "Fords lane, Bramhall, Stockport", "postcode": "SK7 1DQ", "area_code": "E08000007", "area_name": "Stockport" }, "geometry": { "type": "Point", "coordinates": [ -2.172567, 53.357983 ] } },
{ "type": "Feature", "properties": { "id": "8138", "name": "Offerton Fire Station", "address": "Lisburne Lane, Offerton, Stockport", "postcode": "SK2 5NP", "area_code": "E08000007", "area_name": "Stockport" }, "geometry": { "type": "Point", "coordinates": [ -2.125854, 53.393348 ] } },
{ "type": "Feature", "properties": { "id": "2472", "name": "Flixton Cricket and Sports Club", "address": "Lawrence Road, Flixton", "postcode": "M41 8UU", "area_code": "E08000009", "area_name": "Trafford" }, "geometry": { "type": "Point", "coordinates": [ -2.387009, 53.451303 ] } },
{ "type": "Feature", "properties": { "id": "2478", "name": "Stretford Sports Village Chester Centre", "address": "Great Stone Road, Stretford", "postcode": "M32 0ZS", "area_code": "E08000009", "area_name": "Trafford" }, "geometry": { "type": "Point", "coordinates": [ -2.292675, 53.458331 ] } },
{ "type": "Feature", "properties": { "id": "2570", "name": "Sevenways Methodist Church", "address": "Barton Road, Stretford", "postcode": "M32 9RD", "area_code": "E08000009", "area_name": "Trafford" }, "geometry": { "type": "Point", "coordinates": [ -2.316342, 53.449228 ] } },
{ "type": "Feature", "properties": { "id": "2445", "name": "Christ Church Hall", "address": "Lostock Road, Urmston", "postcode": "M41 0TD", "area_code": "E08000009", "area_name": "Trafford" }, "geometry": { "type": "Point", "coordinates": [ -2.346071, 53.45737 ] } },
{ "type": "Feature", "properties": { "id": "2402", "name": "Park Road Academy Primary School", "address": "Frieston Road, Timperley", "postcode": "WA14 5AP", "area_code": "E08000009", "area_name": "Trafford" }, "geometry": { "type": "Point", "coordinates": [ -2.340089, 53.40608 ] } },
{ "type": "Feature", "properties": { "id": "2580", "name": "Willows Primary School", "address": "Victoria Road, Timperley", "postcode": "WA15 6PP", "area_code": "E08000009", "area_name": "Trafford" }, "geometry": { "type": "Point", "coordinates": [ -2.330461, 53.396202 ] } },
{ "type": "Feature", "properties": { "id": "2487", "name": "All Saints Church Hall", "address": "Barton Road, Stretford", "postcode": "M32 9RL", "area_code": "E08000009", "area_name": "Trafford" }, "geometry": { "type": "Point", "coordinates": [ -2.322083, 53.453689 ] } },
{ "type": "Feature", "properties": { "id": "2504", "name": "2ND Hale Scout HQ", "address": "Lilac Road, Hale", "postcode": "WA15 8BJ", "area_code": "E08000009", "area_name": "Trafford" }, "geometry": { "type": "Point", "coordinates": [ -2.330278, 53.380454 ] } },
{ "type": "Feature", "properties": { "id": "2346", "name": "Oldfield Brow Primary School", "address": "Taylor Road, Altrincham", "postcode": "WA14 4LE", "area_code": "E08000009", "area_name": "Trafford" }, "geometry": { "type": "Point", "coordinates": [ -2.377778, 53.391774 ] } },
{ "type": "Feature", "properties": { "id": "2507", "name": "St Peters Assembly Rooms", "address": "136 Cecil Road, Hale", "postcode": "WA15 9NU", "area_code": "E08000009", "area_name": "Trafford" }, "geometry": { "type": "Point", "coordinates": [ -2.344881, 53.373725 ] } },
{ "type": "Feature", "properties": { "id": "2405", "name": "Mobile Polling Station Broadheath", "address": "Corner of St Andrews Avenue, and Bridge Grove, Timperley", "postcode": "WA15 6LD", "area_code": "E08000009", "area_name": "Trafford" }, "geometry": { "type": "Point", "coordinates": [ -2.338426, 53.399424 ] } },
{ "type": "Feature", "properties": { "id": "2500", "name": "Cloverlea Primary School", "address": "Green Lane North, Timperley", "postcode": "WA15 7NQ", "area_code": "E08000009", "area_name": "Trafford" }, "geometry": { "type": "Point", "coordinates": [ -2.321251, 53.389369 ] } },
{ "type": "Feature", "properties": { "id": "2510", "name": "Stamford Park Infants School", "address": "Oak Road Entrance, Hale", "postcode": "WA15 9JB", "area_code": "E08000009", "area_name": "Trafford" }, "geometry": { "type": "Point", "coordinates": [ -2.340502, 53.382538 ] } },
{ "type": "Feature", "properties": { "id": "2406", "name": "The Life Centre", "address": "235 Washway Road, Sale", "postcode": "M33 4BP", "area_code": "E08000009", "area_name": "Trafford" }, "geometry": { "type": "Point", "coordinates": [ -2.336595, 53.415061 ] } },
{ "type": "Feature", "properties": { "id": "2349", "name": "Evangelical Church", "address": "Devonshire Road, Altrincham", "postcode": "WA14 4EZ", "area_code": "E08000009", "area_name": "Trafford" }, "geometry": { "type": "Point", "coordinates": [ -2.354086, 53.396152 ] } },
{ "type": "Feature", "properties": { "id": "2475", "name": "Flixton House", "address": "Flixton Road, Flixton", "postcode": "M41 5GJ", "area_code": "E08000009", "area_name": "Trafford" }, "geometry": { "type": "Point", "coordinates": [ -2.383195, 53.445796 ] } },
{ "type": "Feature", "properties": { "id": "2413", "name": "Clubhouse Sale Football Club", "address": "Heywood Road, Sale", "postcode": "M33 3WB", "area_code": "E08000009", "area_name": "Trafford" }, "geometry": { "type": "Point", "coordinates": [ -2.321909, 53.416854 ] } },
{ "type": "Feature", "properties": { "id": "2551", "name": "Firs Primary School", "address": "Firs Road, Sale", "postcode": "M33 5EL", "area_code": "E08000009", "area_name": "Trafford" }, "geometry": { "type": "Point", "coordinates": [ -2.352276, 53.422836 ] } },
{ "type": "Feature", "properties": { "id": "2358", "name": "Altrincham Town Hall", "address": "Market Street, Altrincham", "postcode": "WA14 1PG", "area_code": "E08000009", "area_name": "Trafford" }, "geometry": { "type": "Point", "coordinates": [ -2.352153, 53.387933 ] } },
{ "type": "Feature", "properties": { "id": "2341", "name": "St Georges Parish Hall", "address": "Church Walk, Altrincham", "postcode": "WA14 4TT", "area_code": "E08000009", "area_name": "Trafford" }, "geometry": { "type": "Point", "coordinates": [ -2.352112, 53.39027 ] } },
{ "type": "Feature", "properties": { "id": "2355", "name": "St Vincents Catholic Primary School", "address": "Junior Department, Osborne Road, Altrincham", "postcode": "WA15 8EU", "area_code": "E08000009", "area_name": "Trafford" }, "geometry": { "type": "Point", "coordinates": [ -2.344485, 53.389771 ] } },
{ "type": "Feature", "properties": { "id": "2584", "name": "Altrincham United Reformed Church", "address": "Woodlands Parkway, Timperley, Altrincham", "postcode": "WA15 7QT", "area_code": "E08000009", "area_name": "Trafford" }, "geometry": { "type": "Point", "coordinates": [ -2.341551, 53.39333 ] } },
{ "type": "Feature", "properties": { "id": "2567", "name": "Moss Park Junior School", "address": "Moss Park Road, Stretford", "postcode": "M32 9HR", "area_code": "E08000009", "area_name": "Trafford" }, "geometry": { "type": "Point", "coordinates": [ -2.322763, 53.448132 ] } },
{ "type": "Feature", "properties": { "id": "2529", "name": "Sale Waterside", "address": "Tatton Road Entrance, Sale", "postcode": "M33 7ZF", "area_code": "E08000009", "area_name": "Trafford" }, "geometry": { "type": "Point", "coordinates": [ -2.32, 53.425111 ] } },
{ "type": "Feature", "properties": { "id": "2390", "name": "St Albans Hall", "address": "Lindsell Road, West Timperley, Altrincham", "postcode": "WA14 5NX", "area_code": "E08000009", "area_name": "Trafford" }, "geometry": { "type": "Point", "coordinates": [ -2.353799, 53.40329 ] } },
{ "type": "Feature", "properties": { "id": "2596", "name": "Unitarian Church Hall", "address": "Queens Road, Urmston", "postcode": "M41 9HA", "area_code": "E08000009", "area_name": "Trafford" }, "geometry": { "type": "Point", "coordinates": [ -2.352896, 53.445009 ] } },
{ "type": "Feature", "properties": { "id": "2457", "name": "St Marys Church Hall", "address": "Entwistle Avenue, Off Davyhulme Road, Davyhulme", "postcode": "M41 5TP", "area_code": "E08000009", "area_name": "Trafford" }, "geometry": { "type": "Point", "coordinates": [ -2.367594, 53.455849 ] } },
{ "type": "Feature", "properties": { "id": "2380", "name": "Jubilee Centre", "address": "The Firs, Bowdon", "postcode": "WA14 2TQ", "area_code": "E08000009", "area_name": "Trafford" }, "geometry": { "type": "Point", "coordinates": [ -2.362827, 53.378931 ] } },
{ "type": "Feature", "properties": { "id": "2352", "name": "Altrincham Methodist Church", "address": "Barrington Road, Altrincham", "postcode": "WA14 1HF", "area_code": "E08000009", "area_name": "Trafford" }, "geometry": { "type": "Point", "coordinates": [ -2.349286, 53.390378 ] } },
{ "type": "Feature", "properties": { "id": "2454", "name": "8TH Flixton Scout Group", "address": "Woodsend Crescent Road, Flixton", "postcode": "M41 8AD", "area_code": "E08000009", "area_name": "Trafford" }, "geometry": { "type": "Point", "coordinates": [ -2.397246, 53.449399 ] } },
{ "type": "Feature", "properties": { "id": "2426", "name": "Partington Community Centre", "address": "Central Road, Partington", "postcode": "M31 4FL", "area_code": "E08000009", "area_name": "Trafford" }, "geometry": { "type": "Point", "coordinates": [ -2.425053, 53.417437 ] } },
{ "type": "Feature", "properties": { "id": "2376", "name": "Bollin Primary School", "address": "Apsley Grove, Bowdon", "postcode": "WA14 3AH", "area_code": "E08000009", "area_name": "Trafford" }, "geometry": { "type": "Point", "coordinates": [ -2.365565, 53.373961 ] } },
{ "type": "Feature", "properties": { "id": "2573", "name": "Heyes Lane Primary School", "address": "Crofton Avenue, Timperley", "postcode": "WA15 6BZ", "area_code": "E08000009", "area_name": "Trafford" }, "geometry": { "type": "Point", "coordinates": [ -2.325453, 53.406058 ] } },
{ "type": "Feature", "properties": { "id": "2362", "name": "Townscroft Lodge", "address": "Green Lane, Sale", "postcode": "M33 5GP", "area_code": "E08000009", "area_name": "Trafford" }, "geometry": { "type": "Point", "coordinates": [ -2.342474, 53.431475 ] } },
{ "type": "Feature", "properties": { "id": "2419", "name": "Carrington Business Park", "address": "Manchester Road, Carrington", "postcode": "M31 4DD", "area_code": "E08000009", "area_name": "Trafford" }, "geometry": { "type": "Point", "coordinates": [ -2.400959, 53.431203 ] } },
{ "type": "Feature", "properties": { "id": "2535", "name": "Sale United Reformed Church", "address": "Montague Road, Sale", "postcode": "M33 3BU", "area_code": "E08000009", "area_name": "Trafford" }, "geometry": { "type": "Point", "coordinates": [ -2.31664, 53.422468 ] } },
{ "type": "Feature", "properties": { "id": "2436", "name": "Old Trafford Community Academy", "address": "Malvern Street, Old Trafford", "postcode": "M15 4FL", "area_code": "E08000009", "area_name": "Trafford" }, "geometry": { "type": "Point", "coordinates": [ -2.265141, 53.465109 ] } },
{ "type": "Feature", "properties": { "id": "2516", "name": "St Ann's Parish Centre", "address": "Cross Street, Off Chester Road, Stretford", "postcode": "M32 8LF", "area_code": "E08000009", "area_name": "Trafford" }, "geometry": { "type": "Point", "coordinates": [ -2.303883, 53.448297 ] } },
{ "type": "Feature", "properties": { "id": "2606", "name": "St Johns Church Hall", "address": "Brooklands Road, Sale", "postcode": "M33 3PB", "area_code": "E08000009", "area_name": "Trafford" }, "geometry": { "type": "Point", "coordinates": [ -2.317693, 53.408371 ] } },
{ "type": "Feature", "properties": { "id": "2409", "name": "Mobile Polling Station", "address": "Eastway\/Walton Road, Sale", "postcode": "M33 4ER", "area_code": "E08000009", "area_name": "Trafford" }, "geometry": { "type": "Point", "coordinates": [ -2.337878, 53.408028 ] } },
{ "type": "Feature", "properties": { "id": "2373", "name": "St Lukes Church", "address": "Vicarage Lane, Bowdon", "postcode": "WA14 3BJ", "area_code": "E08000009", "area_name": "Trafford" }, "geometry": { "type": "Point", "coordinates": [ -2.361832, 53.371491 ] } },
{ "type": "Feature", "properties": { "id": "2609", "name": "Broomwood Primary School", "address": "Mainwood Road, Timperley", "postcode": "WA15 7JU", "area_code": "E08000009", "area_name": "Trafford" }, "geometry": { "type": "Point", "coordinates": [ -2.30838, 53.391488 ] } },
{ "type": "Feature", "properties": { "id": "2423", "name": "Our Lady of Lourdes Catholic Primary", "address": "Lock Lane, Partington", "postcode": "M31 4PJ", "area_code": "E08000009", "area_name": "Trafford" }, "geometry": { "type": "Point", "coordinates": [ -2.436427, 53.418701 ] } },
{ "type": "Feature", "properties": { "id": "2367", "name": "Fiona Gardens", "address": "29 Atkinson Road, Sale", "postcode": "M33 6GG", "area_code": "E08000009", "area_name": "Trafford" }, "geometry": { "type": "Point", "coordinates": [ -2.326926, 53.427456 ] } },
{ "type": "Feature", "properties": { "id": "2513", "name": "Hale Library", "address": "Leigh Road, Hale", "postcode": "WA15 9BG", "area_code": "E08000009", "area_name": "Trafford" }, "geometry": { "type": "Point", "coordinates": [ -2.343644, 53.376938 ] } },
{ "type": "Feature", "properties": { "id": "2400", "name": "Woodheys Park Pavilion", "address": "Kenmore Road\/Woodhouse Lane, Sale", "postcode": "M33 4LP", "area_code": "E08000009", "area_name": "Trafford" }, "geometry": { "type": "Point", "coordinates": [ -2.355328, 53.409919 ] } },
{ "type": "Feature", "properties": { "id": "2547", "name": "St Annes Church Hall", "address": "Trinity Road, Sale", "postcode": "M33 3ED", "area_code": "E08000009", "area_name": "Trafford" }, "geometry": { "type": "Point", "coordinates": [ -2.307114, 53.420228 ] } },
{ "type": "Feature", "properties": { "id": "2525", "name": "Longford Park Special School", "address": "74 Cromwell Road, Stretford", "postcode": "M32 8QJ", "area_code": "E08000009", "area_name": "Trafford" }, "geometry": { "type": "Point", "coordinates": [ -2.294817, 53.448015 ] } },
{ "type": "Feature", "properties": { "id": "2587", "name": "Methodist Church Meeting Room", "address": "George Street, Urmston", "postcode": "M41 9BA", "area_code": "E08000009", "area_name": "Trafford" }, "geometry": { "type": "Point", "coordinates": [ -2.344275, 53.447586 ] } },
{ "type": "Feature", "properties": { "id": "2532", "name": "Sale Sports Club", "address": "Clarendon Crescent, Sale", "postcode": "M33 2DE", "area_code": "E08000009", "area_name": "Trafford" }, "geometry": { "type": "Point", "coordinates": [ -2.305608, 53.42638 ] } },
{ "type": "Feature", "properties": { "id": "2386", "name": "The Parish Room", "address": "Bent Lane, Warburton", "postcode": "WA13 9TQ", "area_code": "E08000009", "area_name": "Trafford" }, "geometry": { "type": "Point", "coordinates": [ -2.445414, 53.399028 ] } },
{ "type": "Feature", "properties": { "id": "2593", "name": "Urmston Primary School", "address": "Wycliffe Road, Urmston", "postcode": "M41 5AH", "area_code": "E08000009", "area_name": "Trafford" }, "geometry": { "type": "Point", "coordinates": [ -2.359226, 53.449331 ] } },
{ "type": "Feature", "properties": { "id": "2484", "name": "Metros Sports and Social Club", "address": "Moss Road, Stretford", "postcode": "M32 0AH", "area_code": "E08000009", "area_name": "Trafford" }, "geometry": { "type": "Point", "coordinates": [ -2.310018, 53.451213 ] } },
{ "type": "Feature", "properties": { "id": "2564", "name": "Victoria Park Infant School", "address": "Henshaw Street, Stretford", "postcode": "M32 8BU", "area_code": "E08000009", "area_name": "Trafford" }, "geometry": { "type": "Point", "coordinates": [ -2.309099, 53.449193 ] } },
{ "type": "Feature", "properties": { "id": "2544", "name": "Lime Tree Primary School", "address": "Budworth Road, Sale", "postcode": "M33 2RP", "area_code": "E08000009", "area_name": "Trafford" }, "geometry": { "type": "Point", "coordinates": [ -2.297843, 53.415739 ] } },
{ "type": "Feature", "properties": { "id": "2393", "name": "Broadheath Primary School", "address": "Sinderland Road, Altrincham", "postcode": "WA14 5JQ", "area_code": "E08000009", "area_name": "Trafford" }, "geometry": { "type": "Point", "coordinates": [ -2.360126, 53.404465 ] } },
{ "type": "Feature", "properties": { "id": "2558", "name": "Sale West Community Centre", "address": "Newbury Avenue, Sale", "postcode": "M33 4QW", "area_code": "E08000009", "area_name": "Trafford" }, "geometry": { "type": "Point", "coordinates": [ -2.358027, 53.419619 ] } },
{ "type": "Feature", "properties": { "id": "2410", "name": "Brooklands Primary School", "address": "Woodbourne Road, Sale", "postcode": "M33 3SY", "area_code": "E08000009", "area_name": "Trafford" }, "geometry": { "type": "Point", "coordinates": [ -2.326637, 53.413426 ] } },
{ "type": "Feature", "properties": { "id": "2497", "name": "Well Green Primary School", "address": "Briony Avenue, Hale", "postcode": "WA15 8QA", "area_code": "E08000009", "area_name": "Trafford" }, "geometry": { "type": "Point", "coordinates": [ -2.316255, 53.376762 ] } },
{ "type": "Feature", "properties": { "id": "2541", "name": "Sale Moor Methodist Church", "address": "Northenden Road, Sale Moor", "postcode": "M33 2PP", "area_code": "E08000009", "area_name": "Trafford" }, "geometry": { "type": "Point", "coordinates": [ -2.293477, 53.419597 ] } },
{ "type": "Feature", "properties": { "id": "2439", "name": "St Johns Hall", "address": "St Johns Road, Old Trafford", "postcode": "M16 7GX", "area_code": "E08000009", "area_name": "Trafford" }, "geometry": { "type": "Point", "coordinates": [ -2.268164, 53.457139 ] } },
{ "type": "Feature", "properties": { "id": "2396", "name": "Tyntesfield Primary School", "address": "Alma Road, Sale", "postcode": "M33 4HE", "area_code": "E08000009", "area_name": "Trafford" }, "geometry": { "type": "Point", "coordinates": [ -2.346445, 53.41088 ] } },
{ "type": "Feature", "properties": { "id": "2519", "name": "Kings Road Primary School", "address": "Kings Road, Firswood", "postcode": "M16 0GR", "area_code": "E08000009", "area_name": "Trafford" }, "geometry": { "type": "Point", "coordinates": [ -2.281652, 53.453979 ] } },
{ "type": "Feature", "properties": { "id": "2463", "name": "182 North Trafford Sqn Atc", "address": "Flixton Road, Flixton", "postcode": "M41 5PR", "area_code": "E08000009", "area_name": "Trafford" }, "geometry": { "type": "Point", "coordinates": [ -2.372168, 53.448536 ] } },
{ "type": "Feature", "properties": { "id": "2451", "name": "Woodsend Library", "address": "Woodsend Road, Flixton", "postcode": "M41 8GN", "area_code": "E08000009", "area_name": "Trafford" }, "geometry": { "type": "Point", "coordinates": [ -2.393504, 53.455039 ] } },
{ "type": "Feature", "properties": { "id": "2561", "name": "St Matthews Hall - Dance Hall", "address": "Chapel Lane, Stretford", "postcode": "M32 9AJ", "area_code": "E08000009", "area_name": "Trafford" }, "geometry": { "type": "Point", "coordinates": [ -2.311646, 53.443362 ] } },
{ "type": "Feature", "properties": { "id": "2383", "name": "Little Heath Village Hall", "address": "School Lane, Dunham Massey, Altrincham", "postcode": "WA14 4SE", "area_code": "E08000009", "area_name": "Trafford" }, "geometry": { "type": "Point", "coordinates": [ -2.391853, 53.388609 ] } },
{ "type": "Feature", "properties": { "id": "2460", "name": "Woodhouse Primary School", "address": "Nursery Road, Davyhulme", "postcode": "M41 7NP", "area_code": "E08000009", "area_name": "Trafford" }, "geometry": { "type": "Point", "coordinates": [ -2.37011, 53.457702 ] } },
{ "type": "Feature", "properties": { "id": "2370", "name": "St Mary Magdalene with Sale West Community Church", "address": "44 Moss Lane, Sale", "postcode": "M33 6GD", "area_code": "E08000009", "area_name": "Trafford" }, "geometry": { "type": "Point", "coordinates": [ -2.33774, 53.424738 ] } },
{ "type": "Feature", "properties": { "id": "2448", "name": "Our Lady and the English Martyrs Parish Centre", "address": "Davyhulme Road, Urmston", "postcode": "M41 7DS", "area_code": "E08000009", "area_name": "Trafford" }, "geometry": { "type": "Point", "coordinates": [ -2.360543, 53.457255 ] } },
{ "type": "Feature", "properties": { "id": "2469", "name": "Flixton Primary School", "address": "Delamere Road, Flixton", "postcode": "M41 5QL", "area_code": "E08000009", "area_name": "Trafford" }, "geometry": { "type": "Point", "coordinates": [ -2.378333, 53.449209 ] } },
{ "type": "Feature", "properties": { "id": "2491", "name": "Lostock Youth Centre", "address": "Selby Road, Stretford", "postcode": "M32 9PL", "area_code": "E08000009", "area_name": "Trafford" }, "geometry": { "type": "Point", "coordinates": [ -2.331554, 53.453681 ] } },
{ "type": "Feature", "properties": { "id": "2576", "name": "Holy Cross Church Hall", "address": "Park Road, Timperley", "postcode": "WA15 6QG", "area_code": "E08000009", "area_name": "Trafford" }, "geometry": { "type": "Point", "coordinates": [ -2.332331, 53.40266 ] } },
{ "type": "Feature", "properties": { "id": "2429", "name": "Sale West Conference Centre", "address": "Room 3, Manor Avenue, Sale", "postcode": "M33 5JX", "area_code": "E08000009", "area_name": "Trafford" }, "geometry": { "type": "Point", "coordinates": [ -2.354017, 53.425967 ] } },
{ "type": "Feature", "properties": { "id": "2538", "name": "Sale Nomads", "address": "Friars Road, Sale", "postcode": "M33 7UU", "area_code": "E08000009", "area_name": "Trafford" }, "geometry": { "type": "Point", "coordinates": [ -2.323908, 53.422422 ] } },
{ "type": "Feature", "properties": { "id": "2481", "name": "Gorse Hill Primary School", "address": "Burleigh Road, Stretford", "postcode": "M32 0PF", "area_code": "E08000009", "area_name": "Trafford" }, "geometry": { "type": "Point", "coordinates": [ -2.299011, 53.455582 ] } },
{ "type": "Feature", "properties": { "id": "2494", "name": "Elmridge Primary School", "address": "Wilton Drive, Hale Barns", "postcode": "WA15 0JF", "area_code": "E08000009", "area_name": "Trafford" }, "geometry": { "type": "Point", "coordinates": [ -2.311557, 53.367318 ] } },
{ "type": "Feature", "properties": { "id": "2603", "name": "The Larkhill Centre", "address": "Thorley Lane, Timperley", "postcode": "WA15 7BJ", "area_code": "E08000009", "area_name": "Trafford" }, "geometry": { "type": "Point", "coordinates": [ -2.317166, 53.396103 ] } },
{ "type": "Feature", "properties": { "id": "2442", "name": "Davyhulme Primary School", "address": "Canterbury Road, Davyhulme", "postcode": "M41 0RX", "area_code": "E08000009", "area_name": "Trafford" }, "geometry": { "type": "Point", "coordinates": [ -2.351148, 53.453966 ] } },
{ "type": "Feature", "properties": { "id": "2554", "name": "The Avenue Methodist Church", "address": "Wincham Road, Sale", "postcode": "M33 4PL", "area_code": "E08000009", "area_name": "Trafford" }, "geometry": { "type": "Point", "coordinates": [ -2.342676, 53.413551 ] } },
{ "type": "Feature", "properties": { "id": "2590", "name": "Community Centre", "address": "Humphrey Lane, Urmston", "postcode": "M41 9PT", "area_code": "E08000009", "area_name": "Trafford" }, "geometry": { "type": "Point", "coordinates": [ -2.331202, 53.45094 ] } },
{ "type": "Feature", "properties": { "id": "2466", "name": "Shawe Hall Community Centre", "address": "Church Road, Flixton", "postcode": "M41 6HJ", "area_code": "E08000009", "area_name": "Trafford" }, "geometry": { "type": "Point", "coordinates": [ -2.37007, 53.442682 ] } },
{ "type": "Feature", "properties": { "id": "2523", "name": "Old Trafford Sports Barn", "address": "St Hildas Road, Old Trafford", "postcode": "M16 9PQ", "area_code": "E08000009", "area_name": "Trafford" }, "geometry": { "type": "Point", "coordinates": [ -2.271909, 53.461148 ] } },
{ "type": "Feature", "properties": { "id": "2600", "name": "2ND Timperley Scout HQ", "address": "Heyes Drive, Timperley", "postcode": "WA15 6ED", "area_code": "E08000009", "area_name": "Trafford" }, "geometry": { "type": "Point", "coordinates": [ -2.322666, 53.401509 ] } },
{ "type": "Feature", "properties": { "id": "2416", "name": "Sale Moor Community Centre", "address": "Norris Road, Sale", "postcode": "M33 2TN", "area_code": "E08000009", "area_name": "Trafford" }, "geometry": { "type": "Point", "coordinates": [ -2.303598, 53.414709 ] } },
{ "type": "Feature", "properties": { "id": "2433", "name": "Sharon Youth Centre", "address": "Cornbrook Street, Old Trafford", "postcode": "M16 7WR", "area_code": "E08000009", "area_name": "Trafford" }, "geometry": { "type": "Point", "coordinates": [ -2.259035, 53.461707 ] } }
]
}
