{
"type": "FeatureCollection",
"crs": { "type": "name", "properties": { "name": "urn:ogc:def:crs:OGC:1.3:CRS84" } },
"features": [
{ "type": "Feature", "properties": { "id": "2472", "name": "Flixton Cricket and Sports Club", "address": "Lawrence Road, Flixton", "postcode": "M41 8UU", "area_code": "E08000009", "area_name": "Trafford" }, "geometry": { "type": "Point", "coordinates": [ -2.387009, 53.451303 ] } },
{ "type": "Feature", "properties": { "id": "2478", "name": "Stretford Sports Village Chester Centre", "address": "Great Stone Road, Stretford", "postcode": "M32 0ZS", "area_code": "E08000009", "area_name": "Trafford" }, "geometry": { "type": "Point", "coordinates": [ -2.292675, 53.458331 ] } },
{ "type": "Feature", "properties": { "id": "2570", "name": "Sevenways Methodist Church", "address": "Barton Road, Stretford", "postcode": "M32 9RD", "area_code": "E08000009", "area_name": "Trafford" }, "geometry": { "type": "Point", "coordinates": [ -2.316342, 53.449228 ] } },
{ "type": "Feature", "properties": { "id": "2445", "name": "Christ Church Hall", "address": "Lostock Road, Urmston", "postcode": "M41 0TD", "area_code": "E08000009", "area_name": "Trafford" }, "geometry": { "type": "Point", "coordinates": [ -2.346071, 53.45737 ] } },
{ "type": "Feature", "properties": { "id": "2402", "name": "Park Road Academy Primary School", "address": "Frieston Road, Timperley", "postcode": "WA14 5AP", "area_code": "E08000009", "area_name": "Trafford" }, "geometry": { "type": "Point", "coordinates": [ -2.340089, 53.40608 ] } },
{ "type": "Feature", "properties": { "id": "2580", "name": "Willows Primary School", "address": "Victoria Road, Timperley", "postcode": "WA15 6PP", "area_code": "E08000009", "area_name": "Trafford" }, "geometry": { "type": "Point", "coordinates": [ -2.330461, 53.396202 ] } },
{ "type": "Feature", "properties": { "id": "2487", "name": "All Saints Church Hall", "address": "Barton Road, Stretford", "postcode": "M32 9RL", "area_code": "E08000009", "area_name": "Trafford" }, "geometry": { "type": "Point", "coordinates": [ -2.322083, 53.453689 ] } },
{ "type": "Feature", "properties": { "id": "2504", "name": "2ND Hale Scout HQ", "address": "Lilac Road, Hale", "postcode": "WA15 8BJ", "area_code": "E08000009", "area_name": "Trafford" }, "geometry": { "type": "Point", "coordinates": [ -2.330278, 53.380454 ] } },
{ "type": "Feature", "properties": { "id": "2346", "name": "Oldfield Brow Primary School", "address": "Taylor Road, Altrincham", "postcode": "WA14 4LE", "area_code": "E08000009", "area_name": "Trafford" }, "geometry": { "type": "Point", "coordinates": [ -2.377778, 53.391774 ] } },
{ "type": "Feature", "properties": { "id": "2507", "name": "St Peters Assembly Rooms", "address": "136 Cecil Road, Hale", "postcode": "WA15 9NU", "area_code": "E08000009", "area_name": "Trafford" }, "geometry": { "type": "Point", "coordinates": [ -2.344881, 53.373725 ] } },
{ "type": "Feature", "properties": { "id": "2405", "name": "Mobile Polling Station Broadheath", "address": "Corner of St Andrews Avenue, and Bridge Grove, Timperley", "postcode": "WA15 6LD", "area_code": "E08000009", "area_name": "Trafford" }, "geometry": { "type": "Point", "coordinates": [ -2.338426, 53.399424 ] } },
{ "type": "Feature", "properties": { "id": "2500", "name": "Cloverlea Primary School", "address": "Green Lane North, Timperley", "postcode": "WA15 7NQ", "area_code": "E08000009", "area_name": "Trafford" }, "geometry": { "type": "Point", "coordinates": [ -2.321251, 53.389369 ] } },
{ "type": "Feature", "properties": { "id": "2510", "name": "Stamford Park Infants School", "address": "Oak Road Entrance, Hale", "postcode": "WA15 9JB", "area_code": "E08000009", "area_name": "Trafford" }, "geometry": { "type": "Point", "coordinates": [ -2.340502, 53.382538 ] } },
{ "type": "Feature", "properties": { "id": "2406", "name": "The Life Centre", "address": "235 Washway Road, Sale", "postcode": "M33 4BP", "area_code": "E08000009", "area_name": "Trafford" }, "geometry": { "type": "Point", "coordinates": [ -2.336595, 53.415061 ] } },
{ "type": "Feature", "properties": { "id": "2349", "name": "Evangelical Church", "address": "Devonshire Road, Altrincham", "postcode": "WA14 4EZ", "area_code": "E08000009", "area_name": "Trafford" }, "geometry": { "type": "Point", "coordinates": [ -2.354086, 53.396152 ] } },
{ "type": "Feature", "properties": { "id": "2475", "name": "Flixton House", "address": "Flixton Road, Flixton", "postcode": "M41 5GJ", "area_code": "E08000009", "area_name": "Trafford" }, "geometry": { "type": "Point", "coordinates": [ -2.383195, 53.445796 ] } },
{ "type": "Feature", "properties": { "id": "2413", "name": "Clubhouse Sale Football Club", "address": "Heywood Road, Sale", "postcode": "M33 3WB", "area_code": "E08000009", "area_name": "Trafford" }, "geometry": { "type": "Point", "coordinates": [ -2.321909, 53.416854 ] } },
{ "type": "Feature", "properties": { "id": "2551", "name": "Firs Primary School", "address": "Firs Road, Sale", "postcode": "M33 5EL", "area_code": "E08000009", "area_name": "Trafford" }, "geometry": { "type": "Point", "coordinates": [ -2.352276, 53.422836 ] } },
{ "type": "Feature", "properties": { "id": "2358", "name": "Altrincham Town Hall", "address": "Market Street, Altrincham", "postcode": "WA14 1PG", "area_code": "E08000009", "area_name": "Trafford" }, "geometry": { "type": "Point", "coordinates": [ -2.352153, 53.387933 ] } },
{ "type": "Feature", "properties": { "id": "2341", "name": "St Georges Parish Hall", "address": "Church Walk, Altrincham", "postcode": "WA14 4TT", "area_code": "E08000009", "area_name": "Trafford" }, "geometry": { "type": "Point", "coordinates": [ -2.352112, 53.39027 ] } },
{ "type": "Feature", "properties": { "id": "2355", "name": "St Vincents Catholic Primary School", "address": "Junior Department, Osborne Road, Altrincham", "postcode": "WA15 8EU", "area_code": "E08000009", "area_name": "Trafford" }, "geometry": { "type": "Point", "coordinates": [ -2.344485, 53.389771 ] } },
{ "type": "Feature", "properties": { "id": "2584", "name": "Altrincham United Reformed Church", "address": "Woodlands Parkway, Timperley, Altrincham", "postcode": "WA15 7QT", "area_code": "E08000009", "area_name": "Trafford" }, "geometry": { "type": "Point", "coordinates": [ -2.341551, 53.39333 ] } },
{ "type": "Feature", "properties": { "id": "2567", "name": "Moss Park Junior School", "address": "Moss Park Road, Stretford", "postcode": "M32 9HR", "area_code": "E08000009", "area_name": "Trafford" }, "geometry": { "type": "Point", "coordinates": [ -2.322763, 53.448132 ] } },
{ "type": "Feature", "properties": { "id": "2529", "name": "Sale Waterside", "address": "Tatton Road Entrance, Sale", "postcode": "M33 7ZF", "area_code": "E08000009", "area_name": "Trafford" }, "geometry": { "type": "Point", "coordinates": [ -2.32, 53.425111 ] } },
{ "type": "Feature", "properties": { "id": "2390", "name": "St Albans Hall", "address": "Lindsell Road, West Timperley, Altrincham", "postcode": "WA14 5NX", "area_code": "E08000009", "area_name": "Trafford" }, "geometry": { "type": "Point", "coordinates": [ -2.353799, 53.40329 ] } },
{ "type": "Feature", "properties": { "id": "2596", "name": "Unitarian Church Hall", "address": "Queens Road, Urmston", "postcode": "M41 9HA", "area_code": "E08000009", "area_name": "Trafford" }, "geometry": { "type": "Point", "coordinates": [ -2.352896, 53.445009 ] } },
{ "type": "Feature", "properties": { "id": "2457", "name": "St Marys Church Hall", "address": "Entwistle Avenue, Off Davyhulme Road, Davyhulme", "postcode": "M41 5TP", "area_code": "E08000009", "area_name": "Trafford" }, "geometry": { "type": "Point", "coordinates": [ -2.367594, 53.455849 ] } },
{ "type": "Feature", "properties": { "id": "2380", "name": "Jubilee Centre", "address": "The Firs, Bowdon", "postcode": "WA14 2TQ", "area_code": "E08000009", "area_name": "Trafford" }, "geometry": { "type": "Point", "coordinates": [ -2.362827, 53.378931 ] } },
{ "type": "Feature", "properties": { "id": "2352", "name": "Altrincham Methodist Church", "address": "Barrington Road, Altrincham", "postcode": "WA14 1HF", "area_code": "E08000009", "area_name": "Trafford" }, "geometry": { "type": "Point", "coordinates": [ -2.349286, 53.390378 ] } },
{ "type": "Feature", "properties": { "id": "2454", "name": "8TH Flixton Scout Group", "address": "Woodsend Crescent Road, Flixton", "postcode": "M41 8AD", "area_code": "E08000009", "area_name": "Trafford" }, "geometry": { "type": "Point", "coordinates": [ -2.397246, 53.449399 ] } },
{ "type": "Feature", "properties": { "id": "2426", "name": "Partington Community Centre", "address": "Central Road, Partington", "postcode": "M31 4FL", "area_code": "E08000009", "area_name": "Trafford" }, "geometry": { "type": "Point", "coordinates": [ -2.425053, 53.417437 ] } },
{ "type": "Feature", "properties": { "id": "2376", "name": "Bollin Primary School", "address": "Apsley Grove, Bowdon", "postcode": "WA14 3AH", "area_code": "E08000009", "area_name": "Trafford" }, "geometry": { "type": "Point", "coordinates": [ -2.365565, 53.373961 ] } },
{ "type": "Feature", "properties": { "id": "2573", "name": "Heyes Lane Primary School", "address": "Crofton Avenue, Timperley", "postcode": "WA15 6BZ", "area_code": "E08000009", "area_name": "Trafford" }, "geometry": { "type": "Point", "coordinates": [ -2.325453, 53.406058 ] } },
{ "type": "Feature", "properties": { "id": "2362", "name": "Townscroft Lodge", "address": "Green Lane, Sale", "postcode": "M33 5GP", "area_code": "E08000009", "area_name": "Trafford" }, "geometry": { "type": "Point", "coordinates": [ -2.342474, 53.431475 ] } },
{ "type": "Feature", "properties": { "id": "2419", "name": "Carrington Business Park", "address": "Manchester Road, Carrington", "postcode": "M31 4DD", "area_code": "E08000009", "area_name": "Trafford" }, "geometry": { "type": "Point", "coordinates": [ -2.400959, 53.431203 ] } },
{ "type": "Feature", "properties": { "id": "2535", "name": "Sale United Reformed Church", "address": "Montague Road, Sale", "postcode": "M33 3BU", "area_code": "E08000009", "area_name": "Trafford" }, "geometry": { "type": "Point", "coordinates": [ -2.31664, 53.422468 ] } },
{ "type": "Feature", "properties": { "id": "2436", "name": "Old Trafford Community Academy", "address": "Malvern Street, Old Trafford", "postcode": "M15 4FL", "area_code": "E08000009", "area_name": "Trafford" }, "geometry": { "type": "Point", "coordinates": [ -2.265141, 53.465109 ] } },
{ "type": "Feature", "properties": { "id": "2516", "name": "St Ann's Parish Centre", "address": "Cross Street, Off Chester Road, Stretford", "postcode": "M32 8LF", "area_code": "E08000009", "area_name": "Trafford" }, "geometry": { "type": "Point", "coordinates": [ -2.303883, 53.448297 ] } },
{ "type": "Feature", "properties": { "id": "2606", "name": "St Johns Church Hall", "address": "Brooklands Road, Sale", "postcode": "M33 3PB", "area_code": "E08000009", "area_name": "Trafford" }, "geometry": { "type": "Point", "coordinates": [ -2.317693, 53.408371 ] } },
{ "type": "Feature", "properties": { "id": "2409", "name": "Mobile Polling Station", "address": "Eastway\/Walton Road, Sale", "postcode": "M33 4ER", "area_code": "E08000009", "area_name": "Trafford" }, "geometry": { "type": "Point", "coordinates": [ -2.337878, 53.408028 ] } },
{ "type": "Feature", "properties": { "id": "2373", "name": "St Lukes Church", "address": "Vicarage Lane, Bowdon", "postcode": "WA14 3BJ", "area_code": "E08000009", "area_name": "Trafford" }, "geometry": { "type": "Point", "coordinates": [ -2.361832, 53.371491 ] } },
{ "type": "Feature", "properties": { "id": "2609", "name": "Broomwood Primary School", "address": "Mainwood Road, Timperley", "postcode": "WA15 7JU", "area_code": "E08000009", "area_name": "Trafford" }, "geometry": { "type": "Point", "coordinates": [ -2.30838, 53.391488 ] } },
{ "type": "Feature", "properties": { "id": "2423", "name": "Our Lady of Lourdes Catholic Primary", "address": "Lock Lane, Partington", "postcode": "M31 4PJ", "area_code": "E08000009", "area_name": "Trafford" }, "geometry": { "type": "Point", "coordinates": [ -2.436427, 53.418701 ] } },
{ "type": "Feature", "properties": { "id": "2367", "name": "Fiona Gardens", "address": "29 Atkinson Road, Sale", "postcode": "M33 6GG", "area_code": "E08000009", "area_name": "Trafford" }, "geometry": { "type": "Point", "coordinates": [ -2.326926, 53.427456 ] } },
{ "type": "Feature", "properties": { "id": "2513", "name": "Hale Library", "address": "Leigh Road, Hale", "postcode": "WA15 9BG", "area_code": "E08000009", "area_name": "Trafford" }, "geometry": { "type": "Point", "coordinates": [ -2.343644, 53.376938 ] } },
{ "type": "Feature", "properties": { "id": "2400", "name": "Woodheys Park Pavilion", "address": "Kenmore Road\/Woodhouse Lane, Sale", "postcode": "M33 4LP", "area_code": "E08000009", "area_name": "Trafford" }, "geometry": { "type": "Point", "coordinates": [ -2.355328, 53.409919 ] } },
{ "type": "Feature", "properties": { "id": "2547", "name": "St Annes Church Hall", "address": "Trinity Road, Sale", "postcode": "M33 3ED", "area_code": "E08000009", "area_name": "Trafford" }, "geometry": { "type": "Point", "coordinates": [ -2.307114, 53.420228 ] } },
{ "type": "Feature", "properties": { "id": "2525", "name": "Longford Park Special School", "address": "74 Cromwell Road, Stretford", "postcode": "M32 8QJ", "area_code": "E08000009", "area_name": "Trafford" }, "geometry": { "type": "Point", "coordinates": [ -2.294817, 53.448015 ] } },
{ "type": "Feature", "properties": { "id": "2587", "name": "Methodist Church Meeting Room", "address": "George Street, Urmston", "postcode": "M41 9BA", "area_code": "E08000009", "area_name": "Trafford" }, "geometry": { "type": "Point", "coordinates": [ -2.344275, 53.447586 ] } },
{ "type": "Feature", "properties": { "id": "2532", "name": "Sale Sports Club", "address": "Clarendon Crescent, Sale", "postcode": "M33 2DE", "area_code": "E08000009", "area_name": "Trafford" }, "geometry": { "type": "Point", "coordinates": [ -2.305608, 53.42638 ] } },
{ "type": "Feature", "properties": { "id": "2386", "name": "The Parish Room", "address": "Bent Lane, Warburton", "postcode": "WA13 9TQ", "area_code": "E08000009", "area_name": "Trafford" }, "geometry": { "type": "Point", "coordinates": [ -2.445414, 53.399028 ] } },
{ "type": "Feature", "properties": { "id": "2593", "name": "Urmston Primary School", "address": "Wycliffe Road, Urmston", "postcode": "M41 5AH", "area_code": "E08000009", "area_name": "Trafford" }, "geometry": { "type": "Point", "coordinates": [ -2.359226, 53.449331 ] } },
{ "type": "Feature", "properties": { "id": "2484", "name": "Metros Sports and Social Club", "address": "Moss Road, Stretford", "postcode": "M32 0AH", "area_code": "E08000009", "area_name": "Trafford" }, "geometry": { "type": "Point", "coordinates": [ -2.310018, 53.451213 ] } },
{ "type": "Feature", "properties": { "id": "2564", "name": "Victoria Park Infant School", "address": "Henshaw Street, Stretford", "postcode": "M32 8BU", "area_code": "E08000009", "area_name": "Trafford" }, "geometry": { "type": "Point", "coordinates": [ -2.309099, 53.449193 ] } },
{ "type": "Feature", "properties": { "id": "2544", "name": "Lime Tree Primary School", "address": "Budworth Road, Sale", "postcode": "M33 2RP", "area_code": "E08000009", "area_name": "Trafford" }, "geometry": { "type": "Point", "coordinates": [ -2.297843, 53.415739 ] } },
{ "type": "Feature", "properties": { "id": "2393", "name": "Broadheath Primary School", "address": "Sinderland Road, Altrincham", "postcode": "WA14 5JQ", "area_code": "E08000009", "area_name": "Trafford" }, "geometry": { "type": "Point", "coordinates": [ -2.360126, 53.404465 ] } },
{ "type": "Feature", "properties": { "id": "2558", "name": "Sale West Community Centre", "address": "Newbury Avenue, Sale", "postcode": "M33 4QW", "area_code": "E08000009", "area_name": "Trafford" }, "geometry": { "type": "Point", "coordinates": [ -2.358027, 53.419619 ] } },
{ "type": "Feature", "properties": { "id": "2410", "name": "Brooklands Primary School", "address": "Woodbourne Road, Sale", "postcode": "M33 3SY", "area_code": "E08000009", "area_name": "Trafford" }, "geometry": { "type": "Point", "coordinates": [ -2.326637, 53.413426 ] } },
{ "type": "Feature", "properties": { "id": "2497", "name": "Well Green Primary School", "address": "Briony Avenue, Hale", "postcode": "WA15 8QA", "area_code": "E08000009", "area_name": "Trafford" }, "geometry": { "type": "Point", "coordinates": [ -2.316255, 53.376762 ] } },
{ "type": "Feature", "properties": { "id": "2541", "name": "Sale Moor Methodist Church", "address": "Northenden Road, Sale Moor", "postcode": "M33 2PP", "area_code": "E08000009", "area_name": "Trafford" }, "geometry": { "type": "Point", "coordinates": [ -2.293477, 53.419597 ] } },
{ "type": "Feature", "properties": { "id": "2439", "name": "St Johns Hall", "address": "St Johns Road, Old Trafford", "postcode": "M16 7GX", "area_code": "E08000009", "area_name": "Trafford" }, "geometry": { "type": "Point", "coordinates": [ -2.268164, 53.457139 ] } },
{ "type": "Feature", "properties": { "id": "2396", "name": "Tyntesfield Primary School", "address": "Alma Road, Sale", "postcode": "M33 4HE", "area_code": "E08000009", "area_name": "Trafford" }, "geometry": { "type": "Point", "coordinates": [ -2.346445, 53.41088 ] } },
{ "type": "Feature", "properties": { "id": "2519", "name": "Kings Road Primary School", "address": "Kings Road, Firswood", "postcode": "M16 0GR", "area_code": "E08000009", "area_name": "Trafford" }, "geometry": { "type": "Point", "coordinates": [ -2.281652, 53.453979 ] } },
{ "type": "Feature", "properties": { "id": "2463", "name": "182 North Trafford Sqn Atc", "address": "Flixton Road, Flixton", "postcode": "M41 5PR", "area_code": "E08000009", "area_name": "Trafford" }, "geometry": { "type": "Point", "coordinates": [ -2.372168, 53.448536 ] } },
{ "type": "Feature", "properties": { "id": "2451", "name": "Woodsend Library", "address": "Woodsend Road, Flixton", "postcode": "M41 8GN", "area_code": "E08000009", "area_name": "Trafford" }, "geometry": { "type": "Point", "coordinates": [ -2.393504, 53.455039 ] } },
{ "type": "Feature", "properties": { "id": "2561", "name": "St Matthews Hall - Dance Hall", "address": "Chapel Lane, Stretford", "postcode": "M32 9AJ", "area_code": "E08000009", "area_name": "Trafford" }, "geometry": { "type": "Point", "coordinates": [ -2.311646, 53.443362 ] } },
{ "type": "Feature", "properties": { "id": "2383", "name": "Little Heath Village Hall", "address": "School Lane, Dunham Massey, Altrincham", "postcode": "WA14 4SE", "area_code": "E08000009", "area_name": "Trafford" }, "geometry": { "type": "Point", "coordinates": [ -2.391853, 53.388609 ] } },
{ "type": "Feature", "properties": { "id": "2460", "name": "Woodhouse Primary School", "address": "Nursery Road, Davyhulme", "postcode": "M41 7NP", "area_code": "E08000009", "area_name": "Trafford" }, "geometry": { "type": "Point", "coordinates": [ -2.37011, 53.457702 ] } },
{ "type": "Feature", "properties": { "id": "2370", "name": "St Mary Magdalene with Sale West Community Church", "address": "44 Moss Lane, Sale", "postcode": "M33 6GD", "area_code": "E08000009", "area_name": "Trafford" }, "geometry": { "type": "Point", "coordinates": [ -2.33774, 53.424738 ] } },
{ "type": "Feature", "properties": { "id": "2448", "name": "Our Lady and the English Martyrs Parish Centre", "address": "Davyhulme Road, Urmston", "postcode": "M41 7DS", "area_code": "E08000009", "area_name": "Trafford" }, "geometry": { "type": "Point", "coordinates": [ -2.360543, 53.457255 ] } },
{ "type": "Feature", "properties": { "id": "2469", "name": "Flixton Primary School", "address": "Delamere Road, Flixton", "postcode": "M41 5QL", "area_code": "E08000009", "area_name": "Trafford" }, "geometry": { "type": "Point", "coordinates": [ -2.378333, 53.449209 ] } },
{ "type": "Feature", "properties": { "id": "2491", "name": "Lostock Youth Centre", "address": "Selby Road, Stretford", "postcode": "M32 9PL", "area_code": "E08000009", "area_name": "Trafford" }, "geometry": { "type": "Point", "coordinates": [ -2.331554, 53.453681 ] } },
{ "type": "Feature", "properties": { "id": "2576", "name": "Holy Cross Church Hall", "address": "Park Road, Timperley", "postcode": "WA15 6QG", "area_code": "E08000009", "area_name": "Trafford" }, "geometry": { "type": "Point", "coordinates": [ -2.332331, 53.40266 ] } },
{ "type": "Feature", "properties": { "id": "2429", "name": "Sale West Conference Centre", "address": "Room 3, Manor Avenue, Sale", "postcode": "M33 5JX", "area_code": "E08000009", "area_name": "Trafford" }, "geometry": { "type": "Point", "coordinates": [ -2.354017, 53.425967 ] } },
{ "type": "Feature", "properties": { "id": "2538", "name": "Sale Nomads", "address": "Friars Road, Sale", "postcode": "M33 7UU", "area_code": "E08000009", "area_name": "Trafford" }, "geometry": { "type": "Point", "coordinates": [ -2.323908, 53.422422 ] } },
{ "type": "Feature", "properties": { "id": "2481", "name": "Gorse Hill Primary School", "address": "Burleigh Road, Stretford", "postcode": "M32 0PF", "area_code": "E08000009", "area_name": "Trafford" }, "geometry": { "type": "Point", "coordinates": [ -2.299011, 53.455582 ] } },
{ "type": "Feature", "properties": { "id": "2494", "name": "Elmridge Primary School", "address": "Wilton Drive, Hale Barns", "postcode": "WA15 0JF", "area_code": "E08000009", "area_name": "Trafford" }, "geometry": { "type": "Point", "coordinates": [ -2.311557, 53.367318 ] } },
{ "type": "Feature", "properties": { "id": "2603", "name": "The Larkhill Centre", "address": "Thorley Lane, Timperley", "postcode": "WA15 7BJ", "area_code": "E08000009", "area_name": "Trafford" }, "geometry": { "type": "Point", "coordinates": [ -2.317166, 53.396103 ] } },
{ "type": "Feature", "properties": { "id": "2442", "name": "Davyhulme Primary School", "address": "Canterbury Road, Davyhulme", "postcode": "M41 0RX", "area_code": "E08000009", "area_name": "Trafford" }, "geometry": { "type": "Point", "coordinates": [ -2.351148, 53.453966 ] } },
{ "type": "Feature", "properties": { "id": "2554", "name": "The Avenue Methodist Church", "address": "Wincham Road, Sale", "postcode": "M33 4PL", "area_code": "E08000009", "area_name": "Trafford" }, "geometry": { "type": "Point", "coordinates": [ -2.342676, 53.413551 ] } },
{ "type": "Feature", "properties": { "id": "2590", "name": "Community Centre", "address": "Humphrey Lane, Urmston", "postcode": "M41 9PT", "area_code": "E08000009", "area_name": "Trafford" }, "geometry": { "type": "Point", "coordinates": [ -2.331202, 53.45094 ] } },
{ "type": "Feature", "properties": { "id": "2466", "name": "Shawe Hall Community Centre", "address": "Church Road, Flixton", "postcode": "M41 6HJ", "area_code": "E08000009", "area_name": "Trafford" }, "geometry": { "type": "Point", "coordinates": [ -2.37007, 53.442682 ] } },
{ "type": "Feature", "properties": { "id": "2523", "name": "Old Trafford Sports Barn", "address": "St Hildas Road, Old Trafford", "postcode": "M16 9PQ", "area_code": "E08000009", "area_name": "Trafford" }, "geometry": { "type": "Point", "coordinates": [ -2.271909, 53.461148 ] } },
{ "type": "Feature", "properties": { "id": "2600", "name": "2ND Timperley Scout HQ", "address": "Heyes Drive, Timperley", "postcode": "WA15 6ED", "area_code": "E08000009", "area_name": "Trafford" }, "geometry": { "type": "Point", "coordinates": [ -2.322666, 53.401509 ] } },
{ "type": "Feature", "properties": { "id": "2416", "name": "Sale Moor Community Centre", "address": "Norris Road, Sale", "postcode": "M33 2TN", "area_code": "E08000009", "area_name": "Trafford" }, "geometry": { "type": "Point", "coordinates": [ -2.303598, 53.414709 ] } },
{ "type": "Feature", "properties": { "id": "2433", "name": "Sharon Youth Centre", "address": "Cornbrook Street, Old Trafford", "postcode": "M16 7WR", "area_code": "E08000009", "area_name": "Trafford" }, "geometry": { "type": "Point", "coordinates": [ -2.259035, 53.461707 ] } }
]
}
