{
"type": "FeatureCollection",
"crs": { "type": "name", "properties": { "name": "urn:ogc:def:crs:OGC:1.3:CRS84" } },
"features": [
{ "type": "Feature", "properties": { "name": "Lime Square Medical Centre", "address": "Lime Square, Ashton Old Road, Manchester", "postcode": "M11 1DA", "lad16nm": "Manchester", "precision": "Address and postcode" }, "geometry": { "type": "Point", "coordinates": [ -2.16383572006355, 53.473553 ] } },
{ "type": "Feature", "properties": { "name": "ABL Health Limited", "address": "71 Redgate Way, Farnworth, Bolton", "postcode": "BL4 0JL", "lad16nm": "Bolton", "precision": "Address and postcode" }, "geometry": { "type": "Point", "coordinates": [ -2.4302746, 53.5514114 ] } },
{ "type": "Feature", "properties": { "name": "Nuffield Health Wellbeing Centre Manchester", "address": "East Pavilion, Harbour City, Salford", "postcode": "M50 3SP", "lad16nm": "Salford", "precision": "Address and postcode" }, "geometry": { "type": "Point", "coordinates": [ -2.29065360149572, 53.47342435 ] } },
{ "type": "Feature", "properties": { "name": "Huntley Mount Medical Centre", "address": "Huntley Mount Road, Bury", "postcode": "BL9 6JA", "lad16nm": "Bury", "precision": "Address and postcode" }, "geometry": { "type": "Point", "coordinates": [ -2.2784019, 53.5994559 ] } },
{ "type": "Feature", "properties": { "name": "Samedaydoctor Manchester Clinic", "address": "28 Queen Street, Manchester", "postcode": "M2 5HX", "lad16nm": "Manchester", "precision": "Address and postcode" }, "geometry": { "type": "Point", "coordinates": [ -2.1826819, 53.5503708 ] } },
{ "type": "Feature", "properties": { "name": "Manchester Orthopaedic Clinical Services", "address": "19 Ellesmere Road, Eccles, Manchester", "postcode": "M30 9JY", "lad16nm": "Salford", "precision": "Address and postcode" }, "geometry": { "type": "Point", "coordinates": [ -2.3414617, 53.4909856 ] } },
{ "type": "Feature", "properties": { "name": "Skin Medical Manchester", "address": "20 St Ann's Square, Manchester", "postcode": "M2 7HG", "lad16nm": "Manchester", "precision": "Address and postcode" }, "geometry": { "type": "Point", "coordinates": [ -2.24565441765453, 53.4821188 ] } },
{ "type": "Feature", "properties": { "name": "Doctorcall Manchester", "address": "2-4 Exchange Street, St Ann's Square, Manchester", "postcode": "M2 7HA", "lad16nm": "Manchester", "precision": "Address and postcode" }, "geometry": { "type": "Point", "coordinates": [ -2.2453511, 53.4826759 ] } },
{ "type": "Feature", "properties": { "name": "Willowbank Surgery", "address": "1 Church Lane, Harpurhey, Manchester", "postcode": "M9 4WH", "lad16nm": "Manchester", "precision": "Address and postcode" }, "geometry": { "type": "Point", "coordinates": [ -2.2030025, 53.5076458 ] } },
{ "type": "Feature", "properties": { "name": "MASTA Travel Clinic - Manchester", "address": "STA Manchester, Unit 6, Barton Arcade, 556 Deansgate, Manchester", "postcode": "M3 2BW", "lad16nm": "Manchester", "precision": "Address and postcode" }, "geometry": { "type": "Point", "coordinates": [ -2.2467648, 53.482192 ] } },
{ "type": "Feature", "properties": { "name": "Seven Brooks Medical Centre", "address": "21 Church Street, Atherton, Manchester", "postcode": "M46 9DE", "lad16nm": "Wigan", "precision": "Address and postcode" }, "geometry": { "type": "Point", "coordinates": [ -2.4895036, 53.5244284 ] } },
{ "type": "Feature", "properties": { "name": "Laserase Bolton Limited", "address": "71 Redgate Way, Farnworth, Bolton", "postcode": "BL4 0JL", "lad16nm": "Bolton", "precision": "Address and postcode" }, "geometry": { "type": "Point", "coordinates": [ -2.4302746, 53.5514114 ] } },
{ "type": "Feature", "properties": { "name": "Jarvis Medical Practice - GPCC", "address": "137 Glodwick Road, Oldham", "postcode": "OL4 1YN", "lad16nm": "Oldham", "precision": "Address and postcode" }, "geometry": { "type": "Point", "coordinates": [ -2.0964783, 53.5393286 ] } },
{ "type": "Feature", "properties": { "name": "Little Lever Health Centre", "address": "Mytham Road, Little Lever, Bolton", "postcode": "BL3 1JF", "lad16nm": "Bolton", "precision": "Address and postcode" }, "geometry": { "type": "Point", "coordinates": [ -2.3696775, 53.5584125 ] } },
{ "type": "Feature", "properties": { "name": "Nuffield Health Manchester Printworks Fitness and Wellbeing Centre", "address": "The Printworks, 27 Withy Grove, Manchester", "postcode": "M4 2BS", "lad16nm": "Manchester", "precision": "Address and postcode" }, "geometry": { "type": "Point", "coordinates": [ -2.24085913819246, 53.48525 ] } },
{ "type": "Feature", "properties": { "name": "Ultima Vitality", "address": "718A Wilmslow Road, Manchester", "postcode": "M20 2DW", "lad16nm": "Manchester", "precision": "Address and postcode" }, "geometry": { "type": "Point", "coordinates": [ -2.220794, 53.4104004 ] } },
{ "type": "Feature", "properties": { "name": "Thornley House Medical Centre", "address": "Thornley Street, Hyde", "postcode": "SK14 1JY", "lad16nm": "Tameside", "precision": "Address and postcode" }, "geometry": { "type": "Point", "coordinates": [ -2.0751408, 53.4466005 ] } },
{ "type": "Feature", "properties": { "name": "THMG Manchester Clinic", "address": "The Chambers, Police Street, Manchester", "postcode": "M2 7LQ", "lad16nm": "Manchester", "precision": "Address and postcode" }, "geometry": { "type": "Point", "coordinates": [ -2.24751641078131, 53.48087995 ] } },
{ "type": "Feature", "properties": { "name": "Hollinwood Medical Practice", "address": "1 Clive Street, Oldham", "postcode": "OL8 3TR", "lad16nm": "Oldham", "precision": "Address and postcode" }, "geometry": { "type": "Point", "coordinates": [ -2.1288004, 53.5220613 ] } },
{ "type": "Feature", "properties": { "name": "Lees Medical Practice", "address": "Athens Way, Lees, Oldham", "postcode": "OL4 3BP", "lad16nm": "Oldham", "precision": "Address and postcode" }, "geometry": { "type": "Point", "coordinates": [ -2.0750728, 53.5391693 ] } },
{ "type": "Feature", "properties": { "name": "Shevington Surgery", "address": "Houghton   Lane, Shavington, Wigan", "postcode": "WN6 8ET", "lad16nm": "Wigan", "precision": "Address and postcode" }, "geometry": { "type": "Point", "coordinates": [ -2.6990971, 53.5712623 ] } },
{ "type": "Feature", "properties": { "name": "Seven Brooks Medical Centre", "address": "21 Church Street, Atherton, Wigan", "postcode": "M46 9DE", "lad16nm": "Wigan", "precision": "Address and postcode" }, "geometry": { "type": "Point", "coordinates": [ -2.4895036, 53.5244284 ] } },
{ "type": "Feature", "properties": { "name": "Pemberton Surgery", "address": "Sherwood Drive, Wigan", "postcode": "WN5 9QX", "lad16nm": "Wigan", "precision": "Address and postcode" }, "geometry": { "type": "Point", "coordinates": [ -2.6695947, 53.5396615 ] } },
{ "type": "Feature", "properties": { "name": "NE Consultancy", "address": "223-225 Stockport Road, Guide Bridge, Ashton Under Lyne", "postcode": "OL7 0NT", "lad16nm": "Tameside", "precision": "Address and postcode" }, "geometry": { "type": "Point", "coordinates": [ -2.0761548, 53.3965436 ] } },
{ "type": "Feature", "properties": { "name": "Oaklands Hospital", "address": "19 Lancaster Road, Salford", "postcode": "M6 8AQ", "lad16nm": "Salford", "precision": "Address and postcode" }, "geometry": { "type": "Point", "coordinates": [ -2.3223937, 53.5023289 ] } },
{ "type": "Feature", "properties": { "name": "Bryn Cross Surgery", "address": "246 Wigan Road, Ashton In Makerfield, Wigan", "postcode": "WN4 0AR", "lad16nm": "Wigan", "precision": "Address and postcode" }, "geometry": { "type": "Point", "coordinates": [ -2.6474967, 53.500573 ] } },
{ "type": "Feature", "properties": { "name": "10 St John Street", "address": "10 St John Street, Manchester", "postcode": "M3 4DY", "lad16nm": "Manchester", "precision": "Address and postcode" }, "geometry": { "type": "Point", "coordinates": [ -2.2506185, 53.4775961 ] } },
{ "type": "Feature", "properties": { "name": "BL Medical Practice", "address": "Woodley Health Centre, Hyde Road, Stockport", "postcode": "SK6 1ND", "lad16nm": "Stockport", "precision": "Address and postcode" }, "geometry": { "type": "Point", "coordinates": [ -2.09967573633122, 53.4263337 ] } },
{ "type": "Feature", "properties": { "name": "Face & Eye", "address": "2 Gibwood Road, Manchester", "postcode": "M22 4BT", "lad16nm": "Manchester", "precision": "Address and postcode" }, "geometry": { "type": "Point", "coordinates": [ -2.2658112, 53.4044234 ] } },
{ "type": "Feature", "properties": { "name": "Ashton Medical Centre", "address": "120 Wigan Road, Ashton In Makerfield, Wigan", "postcode": "WN4 9SU", "lad16nm": "Wigan", "precision": "Address and postcode" }, "geometry": { "type": "Point", "coordinates": [ -2.6508941, 53.5037947 ] } },
{ "type": "Feature", "properties": { "name": "Braithwaite Road Surgery", "address": "36 Braithwaite Road, Lowton, Warrington", "postcode": "WA3 2HY", "lad16nm": "Wigan", "precision": "Address and postcode" }, "geometry": { "type": "Point", "coordinates": [ -2.5743963, 53.4762033 ] } },
{ "type": "Feature", "properties": { "name": "Astley General Practice", "address": "391A Manchester Road, Astley, Tyldesley, Manchester", "postcode": "M29 7BY", "lad16nm": "Wigan", "precision": "Address and postcode" }, "geometry": { "type": "Point", "coordinates": [ -2.453336, 53.5138629 ] } },
{ "type": "Feature", "properties": { "name": "3D Medical Centre", "address": "200-202 Deane Road, Bolton", "postcode": "BL3 5DP", "lad16nm": "Bolton", "precision": "Address and postcode" }, "geometry": { "type": "Point", "coordinates": [ -2.4390497, 53.5737478 ] } },
{ "type": "Feature", "properties": { "name": "Bolton General Practice", "address": "Marsden House, Marsden Road, Bolton", "postcode": "BL1 2AY", "lad16nm": "Bolton", "precision": "Address and postcode" }, "geometry": { "type": "Point", "coordinates": [ -2.4345517, 53.5788811 ] } },
{ "type": "Feature", "properties": { "name": "The Heights General Practice", "address": "355 Bolton Road, Salford", "postcode": "M6 7NJ", "lad16nm": "Salford", "precision": "Address and postcode" }, "geometry": { "type": "Point", "coordinates": [ -2.3037954, 53.4983165 ] } },
{ "type": "Feature", "properties": { "name": "Bolton Medical Centre", "address": "21 Rupert Street, Bolton", "postcode": "BL3 6PY", "lad16nm": "Bolton", "precision": "Address and postcode" }, "geometry": { "type": "Point", "coordinates": [ -2.431713, 53.565711 ] } },
{ "type": "Feature", "properties": { "name": "Beehive Surgery", "address": "106-108 Crescent Road, Bolton", "postcode": "BL3 2JR", "lad16nm": "Bolton", "precision": "Address and postcode" }, "geometry": { "type": "Point", "coordinates": [ -2.4152366, 53.5615231 ] } },
{ "type": "Feature", "properties": { "name": "HR Healthcare Ltd", "address": "The Office, Waters Meeting, Britannia Way, Bolton", "postcode": "BL2 2HH", "lad16nm": "Bolton", "precision": "Address and postcode" }, "geometry": { "type": "Point", "coordinates": [ -2.4212446397283, 53.593424038617002 ] } },
{ "type": "Feature", "properties": { "name": "Fernclough Surgery", "address": "Unit 1, Tavistock Square, Harpurhey, Machester", "postcode": "M9 5RD", "lad16nm": "Manchester", "precision": "Address and postcode" }, "geometry": { "type": "Point", "coordinates": [ -2.2406022, 53.4914204 ] } },
{ "type": "Feature", "properties": { "name": "Deane Medical Centre", "address": "155-157 Deane Road, Bolton", "postcode": "BL3 5AH", "lad16nm": "Bolton", "precision": "Address and postcode" }, "geometry": { "type": "Point", "coordinates": [ -2.4390497, 53.5737478 ] } },
{ "type": "Feature", "properties": { "name": "Heaton Medical Centre", "address": "2 Lucy Street, Bolton", "postcode": "BL1 5PU", "lad16nm": "Bolton", "precision": "Address and postcode" }, "geometry": { "type": "Point", "coordinates": [ -2.4685914, 53.5880765 ] } },
{ "type": "Feature", "properties": { "name": "Primrose Surgery", "address": "59 Old Crofts Bank, Urmston, Manchester", "postcode": "M41 7AB", "lad16nm": "Trafford", "precision": "Address and postcode" }, "geometry": { "type": "Point", "coordinates": [ -2.3574841, 53.4560471 ] } },
{ "type": "Feature", "properties": { "name": "Cheetham Hill Medical Centre", "address": "244 Cheetham Hill Road, Manchester", "postcode": "M8 8AU", "lad16nm": "Manchester", "precision": "Address and postcode" }, "geometry": { "type": "Point", "coordinates": [ -2.2418833, 53.508326 ] } },
{ "type": "Feature", "properties": { "name": "The Neville Family Medical Centre", "address": "25 Old Market Street, Blackley, Manchester", "postcode": "M9 8DX", "lad16nm": "Manchester", "precision": "Address and postcode" }, "geometry": { "type": "Point", "coordinates": [ -2.2205224, 53.5229786 ] } },
{ "type": "Feature", "properties": { "name": "Direct Medicare UK Limited", "address": "Bodmin Road Health Centre, Bodmin Road, Sale", "postcode": "M33 5JH", "lad16nm": "Trafford", "precision": "Address and postcode" }, "geometry": { "type": "Point", "coordinates": [ -2.3518554, 53.4275267 ] } },
{ "type": "Feature", "properties": { "name": "Ashton 7 Day Access Hub", "address": "Ashton Primary Care Centre, 193 Old Street, Ashton-Under-Lyne", "postcode": "OL6 7SR", "lad16nm": "Tameside", "precision": "Address and postcode" }, "geometry": { "type": "Point", "coordinates": [ -2.0990245, 53.4862502 ] } },
{ "type": "Feature", "properties": { "name": "Cheetham Hill Medical Centre", "address": "244 Cheetham Hill Road, Cheetham Hill, Manchester", "postcode": "M8 8UP", "lad16nm": "Manchester", "precision": "Address and postcode" }, "geometry": { "type": "Point", "coordinates": [ -2.2418833, 53.508326 ] } },
{ "type": "Feature", "properties": { "name": "North Manchester General Hospital-Outpatients A", "address": "Delaunays Road, Manchester", "postcode": "M8 5RB", "lad16nm": "Manchester", "precision": "Address and postcode" }, "geometry": { "type": "Point", "coordinates": [ -2.2307467, 53.5192402 ] } },
{ "type": "Feature", "properties": { "name": "Hazeldene Medical Centre", "address": "97 Moston Lane East, New Moston, Manchester", "postcode": "M40 3HD", "lad16nm": "Manchester", "precision": "Address and postcode" }, "geometry": { "type": "Point", "coordinates": [ -2.1687319, 53.5230835 ] } },
{ "type": "Feature", "properties": { "name": "New Islington Medical Practice Ancoats Primary Care Centre", "address": "Old Mill Street, Ancoats, Manchester", "postcode": "M4 6EE", "lad16nm": "Manchester", "precision": "Address and postcode" }, "geometry": { "type": "Point", "coordinates": [ -2.223772, 53.481141 ] } },
{ "type": "Feature", "properties": { "name": "Integrated Care Centre", "address": "New Radcliffe Street, Oldham", "postcode": "OL1 1NL", "lad16nm": "Oldham", "precision": "Address and postcode" }, "geometry": { "type": "Point", "coordinates": [ -2.1180263, 53.5434029 ] } },
{ "type": "Feature", "properties": { "name": "Royton Health & Wellbeing Centre", "address": "Park Street, Royton, Oldham", "postcode": "OL2 6QW", "lad16nm": "Oldham", "precision": "Address and postcode" }, "geometry": { "type": "Point", "coordinates": [ -2.1214348, 53.5661153 ] } },
{ "type": "Feature", "properties": { "name": "Keppel Building", "address": "Ashton Road West, Failsworth, Oldham", "postcode": "M35 0AD", "lad16nm": "Oldham", "precision": "Address and postcode" }, "geometry": { "type": "Point", "coordinates": [ -2.1568532, 53.5085823 ] } },
{ "type": "Feature", "properties": { "name": "New Islington Medical Practice", "address": "Old Mill Street, Ancoats, Manchester", "postcode": "M4 6EE", "lad16nm": "Manchester", "precision": "Address and postcode" }, "geometry": { "type": "Point", "coordinates": [ -2.223772, 53.481141 ] } },
{ "type": "Feature", "properties": { "name": "CuRx Health Limited", "address": "109-111 Windermere Road, Middleton, Manchester", "postcode": "M24 5WF", "lad16nm": "Rochdale", "precision": "Address and postcode" }, "geometry": { "type": "Point", "coordinates": [ -2.223116, 53.5566237 ] } },
{ "type": "Feature", "properties": { "name": "Jolly Medical Centre", "address": "72 Crescent Road, Manchester", "postcode": "M8 9NT", "lad16nm": "Manchester", "precision": "Address and postcode" }, "geometry": { "type": "Point", "coordinates": [ -2.244259, 53.5122344 ] } },
{ "type": "Feature", "properties": { "name": "Werneth Medical Practice", "address": "76A Windsor Road, Oldham", "postcode": "OL8 4AL", "lad16nm": "Oldham", "precision": "Address and postcode" }, "geometry": { "type": "Point", "coordinates": [ -2.1283467, 53.535914 ] } },
{ "type": "Feature", "properties": { "name": "Beacon Medical Services Group Limited", "address": "828 Wilmslow Road, Didsbury, Manchester", "postcode": "M20 2RN", "lad16nm": "Manchester", "precision": "Address and postcode" }, "geometry": { "type": "Point", "coordinates": [ -2.220794, 53.4104004 ] } },
{ "type": "Feature", "properties": { "name": "Newlands Medical Centre", "address": "315 Chorley New Road, Bolton", "postcode": "BL1 5BP", "lad16nm": "Bolton", "precision": "Address and postcode" }, "geometry": { "type": "Point", "coordinates": [ -2.4425043, 53.5819871 ] } },
{ "type": "Feature", "properties": { "name": "Crown Clinic Limited", "address": "Ground Floor, Global House, Bailey Lane, Manchester Airport, Manchester", "postcode": "M90 4AB", "lad16nm": "Manchester", "precision": "Address and postcode" }, "geometry": { "type": "Point", "coordinates": [ -2.2395254214988, 53.36897145 ] } },
{ "type": "Feature", "properties": { "name": "Springfield Medical Centre", "address": "384 Liverpool Road, Eccles, Manchester", "postcode": "M30 8QD", "lad16nm": "Salford", "precision": "Address and postcode" }, "geometry": { "type": "Point", "coordinates": [ -2.3619443, 53.4801122 ] } },
{ "type": "Feature", "properties": { "name": "Springfield Surgery", "address": "24-28 Commercial Road, Hazel Grove, Stockport", "postcode": "SK7 4AA", "lad16nm": "Stockport", "precision": "Address and postcode" }, "geometry": { "type": "Point", "coordinates": [ -2.12220820894765, 53.38241905 ] } },
{ "type": "Feature", "properties": { "name": "Woodley Village Surgery", "address": "Hyde Road, Woodley, Stockport", "postcode": "SK6 1ND", "lad16nm": "Stockport", "precision": "Address and postcode" }, "geometry": { "type": "Point", "coordinates": [ -2.1037892, 53.4245533 ] } },
{ "type": "Feature", "properties": { "name": "Brookdale Surgery", "address": "202 Droylsden Road, Manchester", "postcode": "M40 1NZ", "lad16nm": "Manchester", "precision": "Address and postcode" }, "geometry": { "type": "Point", "coordinates": [ -2.1734367, 53.4991378 ] } },
{ "type": "Feature", "properties": { "name": "The Pike Practice", "address": "Market Place, Mossley, Ashton Under Lyne", "postcode": "OL5 0HE", "lad16nm": "Tameside", "precision": "Address and postcode" }, "geometry": { "type": "Point", "coordinates": [ -2.0116044, 53.4556755 ] } },
{ "type": "Feature", "properties": { "name": "Halliwell Health Centre", "address": "Lindfield Drive, Bolton", "postcode": "BL1 3RG", "lad16nm": "Bolton", "precision": "Address and postcode" }, "geometry": { "type": "Point", "coordinates": [ -2.4320626, 53.5889012 ] } },
{ "type": "Feature", "properties": { "name": "Ambulatory Illness in Stepping Hill Emergency Department", "address": "Stepping Hill Hospital, Poplar Grove, Stockport", "postcode": "SK2 7JE", "lad16nm": "Stockport", "precision": "Address and postcode" }, "geometry": { "type": "Point", "coordinates": [ -2.13318436654347, 53.38440275 ] } },
{ "type": "Feature", "properties": { "name": "John Street Medical Practice", "address": "1 John Street, Oldham", "postcode": "OL8 1DF", "lad16nm": "Oldham", "precision": "Address and postcode" }, "geometry": { "type": "Point", "coordinates": [ -2.1195791, 53.5402284 ] } },
{ "type": "Feature", "properties": { "name": "The Village Medical Practice", "address": "High Street, Shaw, Oldham", "postcode": "OL2 8ST", "lad16nm": "Oldham", "precision": "Address and postcode" }, "geometry": { "type": "Point", "coordinates": [ -2.096125, 53.5749625 ] } },
{ "type": "Feature", "properties": { "name": "Westleigh Medical Centre", "address": "4-12 Westleigh Lane, Leigh", "postcode": "WN7 5JE", "lad16nm": "Wigan", "precision": "Address and postcode" }, "geometry": { "type": "Point", "coordinates": [ -2.5284846, 53.5149349 ] } },
{ "type": "Feature", "properties": { "name": "Pikes Lane Centre", "address": "Deane Road, Bolton", "postcode": "BL3 5HP", "lad16nm": "Bolton", "precision": "Address and postcode" }, "geometry": { "type": "Point", "coordinates": [ -2.4390497, 53.5737478 ] } },
{ "type": "Feature", "properties": { "name": "The Private Clinic Limited - Manchester", "address": "25 St John Street, Manchester", "postcode": "M3 4DT", "lad16nm": "Manchester", "precision": "Address and postcode" }, "geometry": { "type": "Point", "coordinates": [ -2.2506185, 53.4775961 ] } },
{ "type": "Feature", "properties": { "name": "The Village Medical Centre", "address": "Peel Street, Littleborough", "postcode": "OL15 8AQ", "lad16nm": "Rochdale", "precision": "Address and postcode" }, "geometry": { "type": "Point", "coordinates": [ -2.0975932, 53.6427504 ] } },
{ "type": "Feature", "properties": { "name": "BMI The Alexandra Hospital", "address": "Mill Lane, Cheadle", "postcode": "SK8 2PX", "lad16nm": "Stockport", "precision": "Address and postcode" }, "geometry": { "type": "Point", "coordinates": [ -2.2190913, 53.3973397 ] } },
{ "type": "Feature", "properties": { "name": "The Hospital Group-Abbey Pines", "address": "192 Altrincham Road, Manchester", "postcode": "M22 4RZ", "lad16nm": "Manchester", "precision": "Address and postcode" }, "geometry": { "type": "Point", "coordinates": [ -2.2563818, 53.3963983 ] } },
{ "type": "Feature", "properties": { "name": "Town Hall Surgery", "address": "112 King Street, Dukinfield", "postcode": "SK16 4LD", "lad16nm": "Tameside", "precision": "Address and postcode" }, "geometry": { "type": "Point", "coordinates": [ -2.0941041, 53.4806191 ] } },
{ "type": "Feature", "properties": { "name": "Kirkholt Medical Practice", "address": "Queens Drive, Rochdale", "postcode": "OL11 2NP", "lad16nm": "Rochdale", "precision": "Address and postcode" }, "geometry": { "type": "Point", "coordinates": [ -2.1640683, 53.5983213 ] } },
{ "type": "Feature", "properties": { "name": "Birtle View Medical Practice", "address": "George Street, Heywood", "postcode": "OL10 4PW", "lad16nm": "Rochdale", "precision": "Address and postcode" }, "geometry": { "type": "Point", "coordinates": [ -2.2278224, 53.594435 ] } },
{ "type": "Feature", "properties": { "name": "The Kingsway Practice", "address": "285A Kingsway, Rochdale", "postcode": "OL16 4AT", "lad16nm": "Rochdale", "precision": "Address and postcode" }, "geometry": { "type": "Point", "coordinates": [ -2.1368671, 53.6067798 ] } },
{ "type": "Feature", "properties": { "name": "Cornerstone Surgery", "address": "469-471 Chorley Old Road, Bolton", "postcode": "BL1 6AH", "lad16nm": "Bolton", "precision": "Address and postcode" }, "geometry": { "type": "Point", "coordinates": [ -2.4578103, 53.5884813 ] } },
{ "type": "Feature", "properties": { "name": "Diet UK Bolton", "address": "Newlands Centre, 315 Chorley New Road, Bolton", "postcode": "BL1 5BP", "lad16nm": "Bolton", "precision": "Address and postcode" }, "geometry": { "type": "Point", "coordinates": [ -2.463871, 53.5044371 ] } },
{ "type": "Feature", "properties": { "name": "Brooks Bar Medical Centre", "address": "162-164 Chorlton Road, Manchester", "postcode": "M16 7WW", "lad16nm": "Trafford", "precision": "Address and postcode" }, "geometry": { "type": "Point", "coordinates": [ -2.258081, 53.4622503 ] } },
{ "type": "Feature", "properties": { "name": "The Birches Medical Centre", "address": "Polefield Road, Prestwich, Manchester", "postcode": "M25 2GN", "lad16nm": "Bury", "precision": "Address and postcode" }, "geometry": { "type": "Point", "coordinates": [ -2.2717249, 53.5394806 ] } },
{ "type": "Feature", "properties": { "name": "Manchester", "address": "66-68 Bridge Street, Manchester", "postcode": "M3 2RJ", "lad16nm": "Manchester", "precision": "Address and postcode" }, "geometry": { "type": "Point", "coordinates": [ -2.2488243, 53.4809557 ] } },
{ "type": "Feature", "properties": { "name": "Slag Lane Medical Centre", "address": "216 Slag Lane, Lowton, Warrington", "postcode": "WA3 2EZ", "lad16nm": "Wigan", "precision": "Address and postcode" }, "geometry": { "type": "Point", "coordinates": [ -2.567806, 53.481237 ] } },
{ "type": "Feature", "properties": { "name": "Droylsden Road Family Practice", "address": "125 Droylsden Road, Manchester", "postcode": "M40 1NT", "lad16nm": "Manchester", "precision": "Address and postcode" }, "geometry": { "type": "Point", "coordinates": [ -2.1791923, 53.5021644 ] } },
{ "type": "Feature", "properties": { "name": "Hawkley Brook Medical Practice", "address": "Chandler House, Poolstock Lane, Wigan", "postcode": "WN3 5HL", "lad16nm": "Wigan", "precision": "Address and postcode" }, "geometry": { "type": "Point", "coordinates": [ -2.5674187, 53.4741945 ] } },
{ "type": "Feature", "properties": { "name": "Heald Green HC 2", "address": "Finney Lane, Heald Green, Cheadle", "postcode": "SK8 3JD", "lad16nm": "Stockport", "precision": "Address and postcode" }, "geometry": { "type": "Point", "coordinates": [ -2.2389137, 53.3708861 ] } },
{ "type": "Feature", "properties": { "name": "Whitley Road Medical Centre", "address": "1 Whitley Road, Manchester", "postcode": "M40 7QH", "lad16nm": "Manchester", "precision": "Address and postcode" }, "geometry": { "type": "Point", "coordinates": [ -2.2217733, 53.4943307 ] } },
{ "type": "Feature", "properties": { "name": "Windermere Road Surgery", "address": "109-111 Windermere Road, Middleton, Manchester", "postcode": "M24 5WF", "lad16nm": "Rochdale", "precision": "Address and postcode" }, "geometry": { "type": "Point", "coordinates": [ -2.223116, 53.5566237 ] } },
{ "type": "Feature", "properties": { "name": "West Gorton Medical Centre", "address": "2 Clowes Street, Manchester", "postcode": "M12 5JE", "lad16nm": "Manchester", "precision": "Address and postcode" }, "geometry": { "type": "Point", "coordinates": [ -2.1937753, 53.4692365 ] } },
{ "type": "Feature", "properties": { "name": "Durnford Medical Centre", "address": "113 Long Street, Middleton, Manchester", "postcode": "M24 6DL", "lad16nm": "Rochdale", "precision": "Address and postcode" }, "geometry": { "type": "Point", "coordinates": [ -2.1966197, 53.5526867 ] } },
{ "type": "Feature", "properties": { "name": "Ashworth Street Surgery", "address": "85 Spotland Road, Rochdale", "postcode": "OL12 6RT", "lad16nm": "Rochdale", "precision": "Address and postcode" }, "geometry": { "type": "Point", "coordinates": [ -2.1737839, 53.6207722 ] } },
{ "type": "Feature", "properties": { "name": "Phoenix Centre", "address": "Pine Street, Heywood", "postcode": "OL10 1DT", "lad16nm": "Rochdale", "precision": "Address and postcode" }, "geometry": { "type": "Point", "coordinates": [ -2.217525, 53.5918991 ] } },
{ "type": "Feature", "properties": { "name": "Dr Carlos Xavier & Partners", "address": "208C Newton Road, Lowton, Warrington", "postcode": "WA3 2AQ", "lad16nm": "Wigan", "precision": "Address and postcode" }, "geometry": { "type": "Point", "coordinates": [ -2.5681026, 53.4674815 ] } },
{ "type": "Feature", "properties": { "name": "Woodlands Medical Practice", "address": "9 Maple Road, Brooklands, Manchester", "postcode": "M23 9RL", "lad16nm": "Manchester", "precision": "Address and postcode" }, "geometry": { "type": "Point", "coordinates": [ -2.3111651, 53.4067193 ] } },
{ "type": "Feature", "properties": { "name": "Victoria Mill Medical Practice", "address": "Victoria Mill, 10 Lower Vickers Street, Manchester", "postcode": "M40 7LH", "lad16nm": "Manchester", "precision": "Address and postcode" }, "geometry": { "type": "Point", "coordinates": [ -2.2418244, 53.4878138 ] } },
{ "type": "Feature", "properties": { "name": "Charlestown Medical Practice", "address": "Charlestown Road, Manchester", "postcode": "M9 7ED", "lad16nm": "Manchester", "precision": "Address and postcode" }, "geometry": { "type": "Point", "coordinates": [ -2.2074125, 53.522506 ] } },
{ "type": "Feature", "properties": { "name": "Manchester Private Hospital", "address": "New Court, Regents Place, 2 Windsor Street, Salford", "postcode": "M5 4HB", "lad16nm": "Salford", "precision": "Address and postcode" }, "geometry": { "type": "Point", "coordinates": [ -2.2785481982105, 53.479005813275002 ] } },
{ "type": "Feature", "properties": { "name": "Dr Harjit Singh", "address": "28 Barton Lane, Eccles, Manchester", "postcode": "M30 0TU", "lad16nm": "Salford", "precision": "Address and postcode" }, "geometry": { "type": "Point", "coordinates": [ -2.3468981, 53.4785386 ] } },
{ "type": "Feature", "properties": { "name": "Dr Rajesh Saraf", "address": "Moorside Medical Centre, 681 Ripponden Road, Oldham", "postcode": "OL1 4JU", "lad16nm": "Oldham", "precision": "Address and postcode" }, "geometry": { "type": "Point", "coordinates": [ -2.07501396298035, 53.56294155 ] } },
{ "type": "Feature", "properties": { "name": "Dr Kiren Kaur", "address": "Moorside Medical Centre, 681 Ripponden Road, Oldham", "postcode": "OL1 4JU", "lad16nm": "Oldham", "precision": "Address and postcode" }, "geometry": { "type": "Point", "coordinates": [ -2.07501396298035, 53.56294155 ] } },
{ "type": "Feature", "properties": { "name": "Dr Alistair (Medical Services) Limited", "address": "Kid Glove House, Kid Glove Road, Golborne", "postcode": "WA3 3GS", "lad16nm": "Wigan", "precision": "Address and postcode" }, "geometry": { "type": "Point", "coordinates": [ -2.5962938, 53.4790471 ] } },
{ "type": "Feature", "properties": { "name": "Dr Mohammad Khan", "address": "152a Manchester Road East, Little Hulton, Manchester", "postcode": "M38 9LQ", "lad16nm": "Salford", "precision": "Address and postcode" }, "geometry": { "type": "Point", "coordinates": [ -2.4166091, 53.5284164 ] } },
{ "type": "Feature", "properties": { "name": "Dr Suvajit Chatterjee", "address": "32 Brinnington Road, Vernon Park, Stockport", "postcode": "SK1 2EX", "lad16nm": "Stockport", "precision": "Address and postcode" }, "geometry": { "type": "Point", "coordinates": [ -2.1454117, 53.417152 ] } },
{ "type": "Feature", "properties": { "name": "Dr Christina Mary Greenhough", "address": "187 Manchester Road, Mossley, Ashton Under Lyne", "postcode": "OL5 9AB", "lad16nm": "Tameside", "precision": "Address and postcode" }, "geometry": { "type": "Point", "coordinates": [ -2.0269787, 53.5293857 ] } },
{ "type": "Feature", "properties": { "name": "Dr Afzal Hussain", "address": "110 Walmersley Road, Bury", "postcode": "BL9 6DX", "lad16nm": "Bury", "precision": "Address and postcode" }, "geometry": { "type": "Point", "coordinates": [ -2.2959445, 53.6201962 ] } },
{ "type": "Feature", "properties": { "name": "Dr Samir Sadik", "address": "1 Dunkerley Street, Ashton Under Lyne", "postcode": "OL7 9EJ", "lad16nm": "Tameside", "precision": "Address and postcode" }, "geometry": { "type": "Point", "coordinates": [ -2.104006, 53.4989374 ] } },
{ "type": "Feature", "properties": { "name": "Dr Syed Rizvi", "address": "274 Barlow Moor Road, Chorlton-cum-Hardy, Manchester", "postcode": "M21 8HA", "lad16nm": "Manchester", "precision": "Address and postcode" }, "geometry": { "type": "Point", "coordinates": [ -2.2695249, 53.4320165 ] } },
{ "type": "Feature", "properties": { "name": "Rochdale Road Medical Centre", "address": "48a Rochdale Road, Middleton, Manchester", "postcode": "M24 2PU", "lad16nm": "Rochdale", "precision": "Address and postcode" }, "geometry": { "type": "Point", "coordinates": [ -2.1794025, 53.5689247 ] } },
{ "type": "Feature", "properties": { "name": "Salford Health Matters Community Interest Company", "address": "94 Littleton Road, Salford", "postcode": "M7 3SE", "lad16nm": "Salford", "precision": "Address and postcode" }, "geometry": { "type": "Point", "coordinates": [ -2.2779429, 53.5007517 ] } },
{ "type": "Feature", "properties": { "name": "Dr Joann Amin", "address": "The Willows, Lords Avenue, Salford, Salford", "postcode": "M5 5JR", "lad16nm": "Salford", "precision": "Address and postcode" }, "geometry": { "type": "Point", "coordinates": [ -2.280781, 53.4342661 ] } },
{ "type": "Feature", "properties": { "name": "Donneybrook Medical Centre", "address": "Clarendon Street, Hyde", "postcode": "SK14 2AH", "lad16nm": "Tameside", "precision": "Address and postcode" }, "geometry": { "type": "Point", "coordinates": [ -2.1587487, 53.4200701 ] } },
{ "type": "Feature", "properties": { "name": "Dr Richard Clare", "address": "The Surgery, 12 Derbyshire Road South, Sale", "postcode": "M33 3JP", "lad16nm": "Trafford", "precision": "Address and postcode" }, "geometry": { "type": "Point", "coordinates": [ -2.3101255, 53.4169284 ] } },
{ "type": "Feature", "properties": { "name": "Dr Sally Johnston", "address": "34 Riddings Road, Timperley, Altrincham", "postcode": "WA15 6BP", "lad16nm": "Trafford", "precision": "Address and postcode" }, "geometry": { "type": "Point", "coordinates": [ -2.3312536, 53.404496 ] } },
{ "type": "Feature", "properties": { "name": "Dr Rachel Tomalin", "address": "20 Meyer Street, Cale Green, Stockport", "postcode": "SK3 8JE", "lad16nm": "Stockport", "precision": "Address and postcode" }, "geometry": { "type": "Point", "coordinates": [ -2.1576417, 53.3971617 ] } },
{ "type": "Feature", "properties": { "name": "Gloucester House Medical Centre", "address": "17 Station Road, Urmston, Manchester", "postcode": "M41 9JS", "lad16nm": "Trafford", "precision": "Address and postcode" }, "geometry": { "type": "Point", "coordinates": [ -2.3528523, 53.4472438 ] } },
{ "type": "Feature", "properties": { "name": "Dr Chandra Khatri", "address": "The Surgery, High Street, Tyldesley, Manchester", "postcode": "M29 8AL", "lad16nm": "Wigan", "precision": "Address and postcode" }, "geometry": { "type": "Point", "coordinates": [ -2.4167596, 53.5775377 ] } },
{ "type": "Feature", "properties": { "name": "Dr Anoop Sahal", "address": "94 Navigation Road, Altrincham", "postcode": "WA14 1LL", "lad16nm": "Trafford", "precision": "Address and postcode" }, "geometry": { "type": "Point", "coordinates": [ -2.3456413, 53.3963587 ] } },
{ "type": "Feature", "properties": { "name": "Dr Syed Shah", "address": "145 Elliot Street, Tyldesley, Manchester", "postcode": "M29 8FL", "lad16nm": "Wigan", "precision": "Address and postcode" }, "geometry": { "type": "Point", "coordinates": [ -2.4493643, 53.5958121 ] } },
{ "type": "Feature", "properties": { "name": "Dr Ugo Umeadi", "address": "131 Cleggs Lane, Little Hulton, Manchester", "postcode": "M38 9RS", "lad16nm": "Salford", "precision": "Address and postcode" }, "geometry": { "type": "Point", "coordinates": [ -2.4193239, 53.5351196 ] } },
{ "type": "Feature", "properties": { "name": "Dr Krishna Khatri", "address": "10 Higher Green Lane, Astley, Tyldesley, Manchester", "postcode": "M29 7HG", "lad16nm": "Wigan", "precision": "Address and postcode" }, "geometry": { "type": "Point", "coordinates": [ -2.4481994, 53.5007796 ] } },
{ "type": "Feature", "properties": { "name": "Dr Peter Chadwick", "address": "The Surgery, Primary Care Resource Centre, Burnage Lane, Manchester", "postcode": "M19 1EW", "lad16nm": "Manchester", "precision": "Address and postcode" }, "geometry": { "type": "Point", "coordinates": [ -2.2254696, 53.4926319 ] } },
{ "type": "Feature", "properties": { "name": "Leela Ltd", "address": "The Strand, Rochdale", "postcode": "OL11 2JG", "lad16nm": "Rochdale", "precision": "Address and postcode" }, "geometry": { "type": "Point", "coordinates": [ -2.1560646, 53.5936795 ] } },
{ "type": "Feature", "properties": { "name": "Dr Chidananda Barua", "address": "Frederick Street, Farnworth, Bolton", "postcode": "BL4 9AH", "lad16nm": "Bolton", "precision": "Address and postcode" }, "geometry": { "type": "Point", "coordinates": [ -2.3957932, 53.5460211 ] } },
{ "type": "Feature", "properties": { "name": "Woodbank Surgery", "address": "2 Hunstanton Drive, Brandlesholme, Bury", "postcode": "BL8 1EG", "lad16nm": "Bury", "precision": "Address and postcode" }, "geometry": { "type": "Point", "coordinates": [ -2.3068986, 53.6051106 ] } },
{ "type": "Feature", "properties": { "name": "Shakespeare Surgery", "address": "Chandler House, Worsley Mesnes Health Centre, Poolstock Lane, Wigan", "postcode": "WN3 5HL", "lad16nm": "Wigan", "precision": "Address and postcode" }, "geometry": { "type": "Point", "coordinates": [ -2.5674187, 53.4741945 ] } },
{ "type": "Feature", "properties": { "name": "Dr Mahendra Patel", "address": "Shay Lane, Hale Barns, Altrincham", "postcode": "WA15 8NZ", "lad16nm": "Trafford", "precision": "Address and postcode" }, "geometry": { "type": "Point", "coordinates": [ -2.3145377, 53.372763 ] } },
{ "type": "Feature", "properties": { "name": "Droylsden Medical Practice", "address": "1-3 Albion Drive, Droylsden, Manchester", "postcode": "M43 7NP", "lad16nm": "Tameside", "precision": "Address and postcode" }, "geometry": { "type": "Point", "coordinates": [ -2.1456609, 53.4872593 ] } },
{ "type": "Feature", "properties": { "name": "Guide Bridge Medical Practice", "address": "Guide Lane Clinic, Guide Lane, Audenshaw, Manchester", "postcode": "M34 5HY", "lad16nm": "Tameside", "precision": "Address and postcode" }, "geometry": { "type": "Point", "coordinates": [ -2.1132944, 53.4723284 ] } },
{ "type": "Feature", "properties": { "name": "Millbrook Medical Practice", "address": "Hollybank, Off Grove Road, Stalybridge", "postcode": "SK15 3BJ", "lad16nm": "Tameside", "precision": "Address and postcode" }, "geometry": { "type": "Point", "coordinates": [ -2.0670117, 53.4756824 ] } },
{ "type": "Feature", "properties": { "name": "Simpson Medical Practice", "address": "361 Moston Lane, Manchester", "postcode": "M40 9NB", "lad16nm": "Manchester", "precision": "Address and postcode" }, "geometry": { "type": "Point", "coordinates": [ -2.179817, 53.5237166 ] } },
{ "type": "Feature", "properties": { "name": "Orchard Medical Centre", "address": "10 Leigh Road, Boothstown, Manchester", "postcode": "M28 1LZ", "lad16nm": "Salford", "precision": "Address and postcode" }, "geometry": { "type": "Point", "coordinates": [ -2.4149823, 53.5023997 ] } },
{ "type": "Feature", "properties": { "name": "Dr Samir Naseef", "address": "216 Wigan Road, Deane, Bolton", "postcode": "BL3 5QE", "lad16nm": "Bolton", "precision": "Address and postcode" }, "geometry": { "type": "Point", "coordinates": [ -2.48035, 53.5602913 ] } },
{ "type": "Feature", "properties": { "name": "Dr Hany Azmy", "address": "The Surgery, 30 Brinnington Road, Brinnington, Stockport", "postcode": "SK1 2EX", "lad16nm": "Stockport", "precision": "Address and postcode" }, "geometry": { "type": "Point", "coordinates": [ -2.15688850822518, 53.44606865 ] } },
{ "type": "Feature", "properties": { "name": "Dr Leena Saxena", "address": "Winstanley Medical Centre, Holmes House Avenue, Winstanley, Wigan", "postcode": "WN3 6JN", "lad16nm": "Wigan", "precision": "Address and postcode" }, "geometry": { "type": "Point", "coordinates": [ -2.66894417803954, 53.5213078 ] } },
{ "type": "Feature", "properties": { "name": "Dr R Anderson and Dr M Ahmed", "address": "239 Mosley Common Road, Worsley, Manchester", "postcode": "M28 1BZ", "lad16nm": "Salford", "precision": "Address and postcode" }, "geometry": { "type": "Point", "coordinates": [ -2.4273963, 53.5079496 ] } },
{ "type": "Feature", "properties": { "name": "Dr Saira Zaman", "address": "Chandler House, Worsley Mesnes Health Centre, Poolstock Lane, Wigan", "postcode": "WN3 5HL", "lad16nm": "Wigan", "precision": "Address and postcode" }, "geometry": { "type": "Point", "coordinates": [ -2.5674187, 53.4741945 ] } },
{ "type": "Feature", "properties": { "name": "Conran Medical Centre", "address": "77 Church Lane, Harpurhey, Manchester", "postcode": "M9 5BH", "lad16nm": "Manchester", "precision": "Address and postcode" }, "geometry": { "type": "Point", "coordinates": [ -2.2030025, 53.5076458 ] } },
{ "type": "Feature", "properties": { "name": "Dr Davis's Medical Practice", "address": "53 Leicester Road, Salford", "postcode": "M7 4AS", "lad16nm": "Salford", "precision": "Address and postcode" }, "geometry": { "type": "Point", "coordinates": [ -2.2529627, 53.5101553 ] } },
{ "type": "Feature", "properties": { "name": "Dr Devang Shah", "address": "169 Grove Lane, Timperley, Altrincham", "postcode": "WA15 6PH", "lad16nm": "Trafford", "precision": "Address and postcode" }, "geometry": { "type": "Point", "coordinates": [ -2.3274462, 53.3969545 ] } },
{ "type": "Feature", "properties": { "name": "Leesbrook Surgery", "address": "Mellor Street, Lees, Oldham", "postcode": "OL4 3DG", "lad16nm": "Oldham", "precision": "Address and postcode" }, "geometry": { "type": "Point", "coordinates": [ -2.0723285, 53.5388576 ] } },
{ "type": "Feature", "properties": { "name": "Swan Lane Medical Centre", "address": "Swan Lane, Bolton", "postcode": "BL3 6TL", "lad16nm": "Bolton", "precision": "Address and postcode" }, "geometry": { "type": "Point", "coordinates": [ -2.4416206, 53.5666459 ] } },
{ "type": "Feature", "properties": { "name": "Timperley Health Centre - Westwood", "address": "169 Grove Lane, Timperley, Altrincham", "postcode": "WA15 6PH", "lad16nm": "Trafford", "precision": "Address and postcode" }, "geometry": { "type": "Point", "coordinates": [ -2.3274462, 53.3969545 ] } },
{ "type": "Feature", "properties": { "name": "Staveleigh Medical Centre", "address": "King Street, Stalybridge", "postcode": "SK15 2AE", "lad16nm": "Tameside", "precision": "Address and postcode" }, "geometry": { "type": "Point", "coordinates": [ -2.1164871, 53.539248 ] } },
{ "type": "Feature", "properties": { "name": "Deane Medical Centre", "address": "155-157 Deane Road, Bolton", "postcode": "BL3 5AH", "lad16nm": "Bolton", "precision": "Address and postcode" }, "geometry": { "type": "Point", "coordinates": [ -2.4390497, 53.5737478 ] } },
{ "type": "Feature", "properties": { "name": "Whittaker Lane Medical Centre", "address": "Daisy Bank, Whittaker Lane, Prestwich, Manchester", "postcode": "M25 1EX", "lad16nm": "Bury", "precision": "Address and postcode" }, "geometry": { "type": "Point", "coordinates": [ -2.1737198, 53.4980785 ] } },
{ "type": "Feature", "properties": { "name": "The Limes Medical Practice", "address": "8-12 Hodge Road, Worsley, Manchester", "postcode": "M28 3AT", "lad16nm": "Salford", "precision": "Address and postcode" }, "geometry": { "type": "Point", "coordinates": [ -2.3969307, 53.5222867 ] } },
{ "type": "Feature", "properties": { "name": "Ellenbrook Medical Practice", "address": "14 Morston Close, Worsley, Manchester", "postcode": "M28 1PB", "lad16nm": "Salford", "precision": "Address and postcode" }, "geometry": { "type": "Point", "coordinates": [ -2.4142864, 53.5111237 ] } },
{ "type": "Feature", "properties": { "name": "Longford Street Medical Centre", "address": "Longford Street, Heywood", "postcode": "OL10 4NH", "lad16nm": "Rochdale", "precision": "Address and postcode" }, "geometry": { "type": "Point", "coordinates": [ -2.2191247, 53.5941858 ] } },
{ "type": "Feature", "properties": { "name": "Hawthorn Medical Centre", "address": "Unit K, Fallowfield Retail Park, Birchfields Road, Manchester", "postcode": "M14 6FS", "lad16nm": "Manchester", "precision": "Address and postcode" }, "geometry": { "type": "Point", "coordinates": [ -2.1762076, 53.478934 ] } },
{ "type": "Feature", "properties": { "name": "The Uplands Medical Practice", "address": "Bury New Road,, Whitefiel, Manchester", "postcode": "M45 8GH", "lad16nm": "Bury", "precision": "Address and postcode" }, "geometry": { "type": "Point", "coordinates": [ -2.2939187, 53.5482613 ] } },
{ "type": "Feature", "properties": { "name": "Stonehill Medical Centre", "address": "Piggott Street, Farnworth, Bolton", "postcode": "BL4 9QZ", "lad16nm": "Bolton", "precision": "Address and postcode" }, "geometry": { "type": "Point", "coordinates": [ -2.4036497, 53.5427387 ] } },
{ "type": "Feature", "properties": { "name": "St George's Medical Centre", "address": "St Georges Drive, Moston, Manchester", "postcode": "M40 5HP", "lad16nm": "Manchester", "precision": "Address and postcode" }, "geometry": { "type": "Point", "coordinates": [ -2.1885721, 53.5099376 ] } },
{ "type": "Feature", "properties": { "name": "St Andrews Medical Practice 2", "address": "30 Russell Street, Eccles, Manchester", "postcode": "M30 0NU", "lad16nm": "Salford", "precision": "Address and postcode" }, "geometry": { "type": "Point", "coordinates": [ -2.3398832, 53.4850193 ] } },
{ "type": "Feature", "properties": { "name": "The Village Surgery", "address": "169 Grove Lane, Timperley, Altrincham", "postcode": "WA15 6PH", "lad16nm": "Trafford", "precision": "Address and postcode" }, "geometry": { "type": "Point", "coordinates": [ -2.3274462, 53.3969545 ] } },
{ "type": "Feature", "properties": { "name": "St Andrews Medical Practice 4", "address": "30 Russell Street, Eccles, Manchester", "postcode": "M30 0NU", "lad16nm": "Salford", "precision": "Address and postcode" }, "geometry": { "type": "Point", "coordinates": [ -2.3398832, 53.4850193 ] } },
{ "type": "Feature", "properties": { "name": "Block Lane Surgery", "address": "The Surgery, 158 Block Lane, Chadderton, Oldham", "postcode": "OL9 7SG", "lad16nm": "Oldham", "precision": "Address and postcode" }, "geometry": { "type": "Point", "coordinates": [ -2.2254696, 53.4926319 ] } },
{ "type": "Feature", "properties": { "name": "Littletown Family Medical Practice", "address": "53 Manchester Road, Oldham", "postcode": "OL8 4LR", "lad16nm": "Oldham", "precision": "Address and postcode" }, "geometry": { "type": "Point", "coordinates": [ -2.1345501, 53.5294179 ] } },
{ "type": "Feature", "properties": { "name": "Ashville Surgery", "address": "171 Upper Chorlton Road, Whalley Range, Manchester", "postcode": "M16 9RT", "lad16nm": "Manchester", "precision": "Address and postcode" }, "geometry": { "type": "Point", "coordinates": [ -2.2676639, 53.452696 ] } },
{ "type": "Feature", "properties": { "name": "Medlock Vale Medical Practice", "address": "58 Ashton Road, Droylsden, Manchester", "postcode": "M43 7BW", "lad16nm": "Tameside", "precision": "Address and postcode" }, "geometry": { "type": "Point", "coordinates": [ -2.1445885, 53.4793921 ] } },
{ "type": "Feature", "properties": { "name": "Sullivan Way Surgery", "address": "Sullivan Way, Scholes, Wigan", "postcode": "WN1 3TB", "lad16nm": "Wigan", "precision": "Address and postcode" }, "geometry": { "type": "Point", "coordinates": [ -2.6222823, 53.5493788 ] } },
{ "type": "Feature", "properties": { "name": "Lever Chambers 2", "address": "Lever Chambers Centre for Health,, Ashburner Street,, Bolton", "postcode": "BL1 1SQ", "lad16nm": "Bolton", "precision": "Address and postcode" }, "geometry": { "type": "Point", "coordinates": [ -2.4309817, 53.5768804 ] } },
{ "type": "Feature", "properties": { "name": "Castleton Health Centre", "address": "2 Elizabeth Street, Castleton, Rochdale", "postcode": "OL11 3HY", "lad16nm": "Rochdale", "precision": "Address and postcode" }, "geometry": { "type": "Point", "coordinates": [ -2.1826686, 53.5965429 ] } },
{ "type": "Feature", "properties": { "name": "Ashcroft Surgery", "address": "803 Stockport Road, Levenshulme, Manchester", "postcode": "M19 3BS", "lad16nm": "Manchester", "precision": "Address and postcode" }, "geometry": { "type": "Point", "coordinates": [ -2.195488, 53.4532324 ] } },
{ "type": "Feature", "properties": { "name": "Dearden Avenue Medical Practice", "address": "1A Dearden Avenue, Little Hulton, Manchester", "postcode": "M38 9GH", "lad16nm": "Salford", "precision": "Address and postcode" }, "geometry": { "type": "Point", "coordinates": [ -2.419498, 53.5340326 ] } },
{ "type": "Feature", "properties": { "name": "Donald Wilde Medical Centre", "address": "283 Rochdale Road, Oldham", "postcode": "OL1 2HG", "lad16nm": "Oldham", "precision": "Address and postcode" }, "geometry": { "type": "Point", "coordinates": [ -2.1244385, 53.6157392 ] } },
{ "type": "Feature", "properties": { "name": "Marus Bridge Practice", "address": "Chandler House, Worsley Mesnes Health Centre, Poolstock Lane, Wigan", "postcode": "WN3 5HL", "lad16nm": "Wigan", "precision": "Address and postcode" }, "geometry": { "type": "Point", "coordinates": [ -2.5674187, 53.4741945 ] } },
{ "type": "Feature", "properties": { "name": "Shay Lane Medical Centre - Kelman", "address": "Shay Lane, Hale Barns, Altrincham", "postcode": "WA15 8NZ", "lad16nm": "Trafford", "precision": "Address and postcode" }, "geometry": { "type": "Point", "coordinates": [ -2.3145377, 53.372763 ] } },
{ "type": "Feature", "properties": { "name": "Garden City Medical Centre", "address": "1a Garden City, Holcombe Brook, Bury", "postcode": "BL0 9TN", "lad16nm": "Bury", "precision": "Address and postcode" }, "geometry": { "type": "Point", "coordinates": [ -2.3304473, 53.6293281 ] } },
{ "type": "Feature", "properties": { "name": "Mandalay Medical Centre", "address": "933 Blackburn Road, Bolton", "postcode": "BL1 7LR", "lad16nm": "Bolton", "precision": "Address and postcode" }, "geometry": { "type": "Point", "coordinates": [ -2.4365132, 53.6149718 ] } },
{ "type": "Feature", "properties": { "name": "Bodey Medical Centre", "address": "28 Ladybarn Lane, Fallowfield, Manchester", "postcode": "M14 6WP", "lad16nm": "Manchester", "precision": "Address and postcode" }, "geometry": { "type": "Point", "coordinates": [ -2.2150289, 53.4406367 ] } },
{ "type": "Feature", "properties": { "name": "HT Practice", "address": "Ashton Primary Care Centre, 193 Old Street, Ashton-Under-Lyne", "postcode": "OL6 7SR", "lad16nm": "Tameside", "precision": "Address and postcode" }, "geometry": { "type": "Point", "coordinates": [ -2.0990245, 53.4862502 ] } },
{ "type": "Feature", "properties": { "name": "Park View Group Practice", "address": "2 Longford Road West, Reddish, Stockport", "postcode": "SK5 6ET", "lad16nm": "Stockport", "precision": "Address and postcode" }, "geometry": { "type": "Point", "coordinates": [ -2.1616408, 53.4453888 ] } },
{ "type": "Feature", "properties": { "name": "Drs Adab, Chavdarov, Chen, Chew-Graham, Hill, Ratcliffe and Siebert", "address": "Chorlton Health Centre, 1 Nicolas Road, Chorlton-cum-Hardy, Manchester", "postcode": "M21 9NJ", "lad16nm": "Manchester", "precision": "Address and postcode" }, "geometry": { "type": "Point", "coordinates": [ -2.2795688, 53.4438414 ] } },
{ "type": "Feature", "properties": { "name": "Hopwood Medical Centre", "address": "1-3 Walton Street, Hopwood, Heywood", "postcode": "OL10 2BS", "lad16nm": "Rochdale", "precision": "Address and postcode" }, "geometry": { "type": "Point", "coordinates": [ -2.2147733, 53.5866437 ] } },
{ "type": "Feature", "properties": { "name": "Valentine Medical Centre", "address": "2 Smethurst Street, Blackley, Manchester", "postcode": "M9 8PP", "lad16nm": "Manchester", "precision": "Address and postcode" }, "geometry": { "type": "Point", "coordinates": [ -2.2132232, 53.5158475 ] } },
{ "type": "Feature", "properties": { "name": "Mount Road Surgery", "address": "110 Mount Road, Gorton, Manchester", "postcode": "M18 7BQ", "lad16nm": "Manchester", "precision": "Address and postcode" }, "geometry": { "type": "Point", "coordinates": [ -2.1811428, 53.4566617 ] } },
{ "type": "Feature", "properties": { "name": "Irlam Group Practice", "address": "523 Liverpool Road, Irlam, Manchester", "postcode": "M44 6ZS", "lad16nm": "Salford", "precision": "Address and postcode" }, "geometry": { "type": "Point", "coordinates": [ -2.4265523, 53.4393448 ] } },
{ "type": "Feature", "properties": { "name": "Bramhall Park Medical Centre", "address": "235 Bramhall Lane South, Bramhall, Stockport", "postcode": "SK7 3EP", "lad16nm": "Stockport", "precision": "Address and postcode" }, "geometry": { "type": "Point", "coordinates": [ -2.1646893, 53.3591379 ] } },
{ "type": "Feature", "properties": { "name": "The Gill Medical Centre", "address": "5 Harriet Street, Worsley, Manchester", "postcode": "M28 3DR", "lad16nm": "Salford", "precision": "Address and postcode" }, "geometry": { "type": "Point", "coordinates": [ -2.3988031, 53.5279661 ] } },
{ "type": "Feature", "properties": { "name": "Ashworth Street Surgery", "address": "85 Spotland Road, Rochdale", "postcode": "OL12 6RT", "lad16nm": "Rochdale", "precision": "Address and postcode" }, "geometry": { "type": "Point", "coordinates": [ -2.1737839, 53.6207722 ] } },
{ "type": "Feature", "properties": { "name": "The Energise Healthy Living Centre", "address": "3 Douglas Green, Salford", "postcode": "M6 6ES", "lad16nm": "Salford", "precision": "Address and postcode" }, "geometry": { "type": "Point", "coordinates": [ -2.283029, 53.4979692 ] } },
{ "type": "Feature", "properties": { "name": "Hazeldene Medical Centre", "address": "97 Moston Lane East, New Moston, Manchester", "postcode": "M40 3HD", "lad16nm": "Manchester", "precision": "Address and postcode" }, "geometry": { "type": "Point", "coordinates": [ -2.1687319, 53.5230835 ] } },
{ "type": "Feature", "properties": { "name": "Heaton Moor Medical Group", "address": "32 Heaton Moor Road, Heaton Moor, Stockport", "postcode": "SK4 4NX", "lad16nm": "Stockport", "precision": "Address and postcode" }, "geometry": { "type": "Point", "coordinates": [ -2.1868266, 53.421039 ] } },
{ "type": "Feature", "properties": { "name": "Cornerstone Family Practice", "address": "Cornerstone Centre, Graham Street, Beswick, Manchester", "postcode": "M11 3AA", "lad16nm": "Manchester", "precision": "Address and postcode" }, "geometry": { "type": "Point", "coordinates": [ -2.1951129, 53.4744354 ] } },
{ "type": "Feature", "properties": { "name": "The Elms Medical Centre", "address": "Green Lane, Whitefield, Manchester", "postcode": "M45 7FD", "lad16nm": "Bury", "precision": "Address and postcode" }, "geometry": { "type": "Point", "coordinates": [ -2.2944443, 53.5536734 ] } },
{ "type": "Feature", "properties": { "name": "Urban Village Medical Practice", "address": "Old Mill Street, Manchester", "postcode": "M4 6EE", "lad16nm": "Manchester", "precision": "Address and postcode" }, "geometry": { "type": "Point", "coordinates": [ -2.223772, 53.481141 ] } },
{ "type": "Feature", "properties": { "name": "Cheetham Hill Primary Care Centre", "address": "244 Cheetham Hill Road, Manchester", "postcode": "M8 8UP", "lad16nm": "Manchester", "precision": "Address and postcode" }, "geometry": { "type": "Point", "coordinates": [ -2.2418833, 53.508326 ] } },
{ "type": "Feature", "properties": { "name": "Dr Seabrook & partners", "address": "Cheadle Hulme Health Centre, Smithy Green, Hulme Hall Road, Cheadle", "postcode": "SK8 6LU", "lad16nm": "Stockport", "precision": "Address and postcode" }, "geometry": { "type": "Point", "coordinates": [ -2.1912482, 53.3665146 ] } },
{ "type": "Feature", "properties": { "name": "Awburn House Medical Practice", "address": "Mottram Moor, Mottram, Hyde", "postcode": "SK14 6LA", "lad16nm": "Tameside", "precision": "Address and postcode" }, "geometry": { "type": "Point", "coordinates": [ -2.0095976, 53.4586433 ] } },
{ "type": "Feature", "properties": { "name": "Durnford Medical Centre", "address": "113 Long Street, Middleton, Manchester", "postcode": "M24 6DL", "lad16nm": "Rochdale", "precision": "Address and postcode" }, "geometry": { "type": "Point", "coordinates": [ -2.1966197, 53.5526867 ] } },
{ "type": "Feature", "properties": { "name": "Bradford Street Surgery", "address": "65 Bradford Street, Haulgh, Bolton", "postcode": "BL2 1HT", "lad16nm": "Bolton", "precision": "Address and postcode" }, "geometry": { "type": "Point", "coordinates": [ -2.4167596, 53.5775377 ] } },
{ "type": "Feature", "properties": { "name": "Milnrow Village Practice", "address": "44-48 Newhey Road, Milnrow, Rochdale", "postcode": "OL16 4EG", "lad16nm": "Rochdale", "precision": "Address and postcode" }, "geometry": { "type": "Point", "coordinates": [ -2.1056846, 53.6063583 ] } },
{ "type": "Feature", "properties": { "name": "Lockside Medical Centre", "address": "85 Huddersfield Road, Stalybridge", "postcode": "SK15 2PT", "lad16nm": "Tameside", "precision": "Address and postcode" }, "geometry": { "type": "Point", "coordinates": [ -2.0964867, 53.5446052 ] } },
{ "type": "Feature", "properties": { "name": "Al-Shifa Medical Centre", "address": "4-6 Copson Street, Withington, Manchester", "postcode": "M20 3HE", "lad16nm": "Manchester", "precision": "Address and postcode" }, "geometry": { "type": "Point", "coordinates": [ -2.2308228, 53.4341784 ] } },
{ "type": "Feature", "properties": { "name": "Woodside Medical Centre", "address": "247J Wood Street, Langley Estate, Middleton, Manchester", "postcode": "M24 5QL", "lad16nm": "Rochdale", "precision": "Address and postcode" }, "geometry": { "type": "Point", "coordinates": [ -2.2089626, 53.5546861 ] } },
{ "type": "Feature", "properties": { "name": "Oldham Medical Services", "address": "Langham House, 368 Ashton Road, Oldham", "postcode": "OL8 3HF", "lad16nm": "Oldham", "precision": "Address and postcode" }, "geometry": { "type": "Point", "coordinates": [ -2.1187334, 53.5304935 ] } },
{ "type": "Feature", "properties": { "name": "Park Medical Practice", "address": "119 Park Road, Timperley, Altrincham", "postcode": "WA15 6QQ", "lad16nm": "Trafford", "precision": "Address and postcode" }, "geometry": { "type": "Point", "coordinates": [ -2.3181274, 53.3975902 ] } },
{ "type": "Feature", "properties": { "name": "Stamford House Medical Centre", "address": "2 Princess Street, Ashton Under Lyne", "postcode": "OL6 9QH", "lad16nm": "Tameside", "precision": "Address and postcode" }, "geometry": { "type": "Point", "coordinates": [ -2.161664, 53.508676 ] } },
{ "type": "Feature", "properties": { "name": "Dukinfield Medical Practice", "address": "20-22 Concord Way, Dukinfield", "postcode": "SK16 4DB", "lad16nm": "Tameside", "precision": "Address and postcode" }, "geometry": { "type": "Point", "coordinates": [ -2.0850199, 53.4767427 ] } },
{ "type": "Feature", "properties": { "name": "Beech House Medical Practice", "address": "Beech Avenue,, Hazel Grove,, Stockport", "postcode": "SK7 4QR", "lad16nm": "Stockport", "precision": "Address and postcode" }, "geometry": { "type": "Point", "coordinates": [ -2.1177511, 53.3795193 ] } },
{ "type": "Feature", "properties": { "name": "Lever Chambers 1", "address": "Lever Chambers Centre for Health,, Ashburner Street,, Bolton", "postcode": "BL1 1SQ", "lad16nm": "Bolton", "precision": "Address and postcode" }, "geometry": { "type": "Point", "coordinates": [ -2.4309817, 53.5768804 ] } },
{ "type": "Feature", "properties": { "name": "Mark Street Surgery", "address": "2 Mark Street, Rochdale", "postcode": "OL12 9BE", "lad16nm": "Rochdale", "precision": "Address and postcode" }, "geometry": { "type": "Point", "coordinates": [ -2.1444268, 53.6240618 ] } },
{ "type": "Feature", "properties": { "name": "The Maples Medical Centre", "address": "2 Scout Drive, Newall Green, Manchester", "postcode": "M23 2SY", "lad16nm": "Manchester", "precision": "Address and postcode" }, "geometry": { "type": "Point", "coordinates": [ -2.2867983, 53.3844601 ] } },
{ "type": "Feature", "properties": { "name": "Saddleworth Medical Practice", "address": "Smithy Lane, Uppermill, Oldham", "postcode": "OL3 6AH", "lad16nm": "Oldham", "precision": "Address and postcode" }, "geometry": { "type": "Point", "coordinates": [ -2.0048114, 53.5482368 ] } },
{ "type": "Feature", "properties": { "name": "Blackford House Medical Centre", "address": "137 Croft Lane, Hollins, Bury", "postcode": "BL9 8QA", "lad16nm": "Bury", "precision": "Address and postcode" }, "geometry": { "type": "Point", "coordinates": [ -2.285947, 53.5713579 ] } },
{ "type": "Feature", "properties": { "name": "Monarch Medical Centre", "address": "65 Cross Lane, Radcliffe, Manchester", "postcode": "M26 2QZ", "lad16nm": "Bury", "precision": "Address and postcode" }, "geometry": { "type": "Point", "coordinates": [ -2.3155278, 53.5647101 ] } },
{ "type": "Feature", "properties": { "name": "The Sides Medical Practice", "address": "The Sides Medical Centre, Moorside Road, Swinton, Manchester", "postcode": "M27 0EW", "lad16nm": "Salford", "precision": "Address and postcode" }, "geometry": { "type": "Point", "coordinates": [ -2.35430822343322, 53.5047789 ] } },
{ "type": "Feature", "properties": { "name": "Wilbraham Surgery", "address": "515 Wilbraham Road, Chorlton-Cum-Hardy, Manchester", "postcode": "M21 0UF", "lad16nm": "Manchester", "precision": "Address and postcode" }, "geometry": { "type": "Point", "coordinates": [ -2.2720351, 53.4425086 ] } },
{ "type": "Feature", "properties": { "name": "Delamere Medical Practice", "address": "Delamere Avenue, Stretford, Manchester", "postcode": "M32 0DF", "lad16nm": "Trafford", "precision": "Address and postcode" }, "geometry": { "type": "Point", "coordinates": [ -2.3073053, 53.450405 ] } },
{ "type": "Feature", "properties": { "name": "Whitley Road Medical Centre", "address": "1 Whitley Road, Collyhurst, Manchester", "postcode": "M40 7QH", "lad16nm": "Manchester", "precision": "Address and postcode" }, "geometry": { "type": "Point", "coordinates": [ -2.2217733, 53.4943307 ] } },
{ "type": "Feature", "properties": { "name": "Haughton Thornley Medical Centres", "address": "Thornley House Medical Centre, Thornley Street, Hyde", "postcode": "SK14 1JY", "lad16nm": "Tameside", "precision": "Address and postcode" }, "geometry": { "type": "Point", "coordinates": [ -2.0759195, 53.4469737 ] } },
{ "type": "Feature", "properties": { "name": "Stockport Medical Group", "address": "1-3 Avondale Road, Edgeley, Stockport", "postcode": "SK3 9NX", "lad16nm": "Stockport", "precision": "Address and postcode" }, "geometry": { "type": "Point", "coordinates": [ -2.183374, 53.4015662 ] } },
{ "type": "Feature", "properties": { "name": "St Gabriel's Medical Centre", "address": "4 Bishops Road, Prestwich, Manchester", "postcode": "M25 0HT", "lad16nm": "Bury", "precision": "Address and postcode" }, "geometry": { "type": "Point", "coordinates": [ -2.2657854, 53.521594 ] } },
{ "type": "Feature", "properties": { "name": "Wellfield Medical Centre", "address": "55 Crescent Road, Crumpsall, Manchester", "postcode": "M8 9JT", "lad16nm": "Manchester", "precision": "Address and postcode" }, "geometry": { "type": "Point", "coordinates": [ -2.2412635, 53.5123875 ] } },
{ "type": "Feature", "properties": { "name": "Heaton Mersey Medical Practice", "address": "460 Didsbury Road, Heaton Mersey, Stockport", "postcode": "SK4 3BT", "lad16nm": "Stockport", "precision": "Address and postcode" }, "geometry": { "type": "Point", "coordinates": [ -2.2031288, 53.4126251 ] } },
{ "type": "Feature", "properties": { "name": "The Dawes Family Practice", "address": "83 Spotland Road, Rochdale", "postcode": "OL12 6RX", "lad16nm": "Rochdale", "precision": "Address and postcode" }, "geometry": { "type": "Point", "coordinates": [ -2.1737839, 53.6207722 ] } },
{ "type": "Feature", "properties": { "name": "Shanti Medical Centre", "address": "160 St Helens Road, Bolton", "postcode": "BL3 3PH", "lad16nm": "Bolton", "precision": "Address and postcode" }, "geometry": { "type": "Point", "coordinates": [ -2.45137710378716, 53.56339465 ] } },
{ "type": "Feature", "properties": { "name": "Barlow Medical Centre", "address": "828 Wilmslow Road, Didsbury, Manchester", "postcode": "M20 2RN", "lad16nm": "Manchester", "precision": "Address and postcode" }, "geometry": { "type": "Point", "coordinates": [ -2.220794, 53.4104004 ] } },
{ "type": "Feature", "properties": { "name": "Dr Ngan and Partners", "address": "The Vallance Centre, Brunswick Street, Manchester", "postcode": "M13 9UJ", "lad16nm": "Manchester", "precision": "Address and postcode" }, "geometry": { "type": "Point", "coordinates": [ -2.22458610952956, 53.4698765 ] } },
{ "type": "Feature", "properties": { "name": "Adswood Road Surgery", "address": "270 Adswood Road, Adswood, Stockport", "postcode": "SK3 8PN", "lad16nm": "Stockport", "precision": "Address and postcode" }, "geometry": { "type": "Point", "coordinates": [ -2.1711153, 53.3877839 ] } },
{ "type": "Feature", "properties": { "name": "Gorton Medical Centre", "address": "46 Wellington Street, Gorton, Manchester", "postcode": "M18 8LJ", "lad16nm": "Manchester", "precision": "Address and postcode" }, "geometry": { "type": "Point", "coordinates": [ -2.1712619, 53.4628816 ] } },
{ "type": "Feature", "properties": { "name": "Standish Medical Practice", "address": "49 High Street, Wigan", "postcode": "WN6 0HD", "lad16nm": "Wigan", "precision": "Address and postcode" }, "geometry": { "type": "Point", "coordinates": [ -2.6607928, 53.5847104 ] } },
{ "type": "Feature", "properties": { "name": "Peterloo Medical Centre", "address": "133-137 Manchester Old Road, Middleton, Manchester", "postcode": "M24 4DZ", "lad16nm": "Rochdale", "precision": "Address and postcode" }, "geometry": { "type": "Point", "coordinates": [ -2.2193528, 53.5448959 ] } },
{ "type": "Feature", "properties": { "name": "Florence House Medical Practice", "address": "Ashton Old Road,, Higher Openshaw,, Manchester", "postcode": "M11 1JG", "lad16nm": "Manchester", "precision": "Address and postcode" }, "geometry": { "type": "Point", "coordinates": [ -2.1985651, 53.4742775 ] } },
{ "type": "Feature", "properties": { "name": "Dr Stockton & Dr Thompson", "address": "Clough Street,, Middleton,, Manchester", "postcode": "M24 2YJ", "lad16nm": "Rochdale", "precision": "Address and postcode" }, "geometry": { "type": "Point", "coordinates": [ -2.1875622, 53.5567643 ] } },
{ "type": "Feature", "properties": { "name": "Langworthy Medical Practice", "address": "250 Langworthy Road, Salford", "postcode": "M6 5WW", "lad16nm": "Salford", "precision": "Address and postcode" }, "geometry": { "type": "Point", "coordinates": [ -2.29459731317714, 53.48979575 ] } },
{ "type": "Feature", "properties": { "name": "Heald Green Health Centre 1", "address": "Finney Lane, Heald Green, Cheadle", "postcode": "SK8 3JD", "lad16nm": "Stockport", "precision": "Address and postcode" }, "geometry": { "type": "Point", "coordinates": [ -2.2389137, 53.3708861 ] } },
{ "type": "Feature", "properties": { "name": "The Chandler Surgery", "address": "Chandler House, Worsley Mesnes Health Centre, Poolstock Lane, Wigan", "postcode": "WN3 5HL", "lad16nm": "Wigan", "precision": "Address and postcode" }, "geometry": { "type": "Point", "coordinates": [ -2.5674187, 53.4741945 ] } },
{ "type": "Feature", "properties": { "name": "King Street Medical Centre", "address": "96-98 King Street, Dukinfield", "postcode": "SK16 4JZ", "lad16nm": "Tameside", "precision": "Address and postcode" }, "geometry": { "type": "Point", "coordinates": [ -2.0941041, 53.4806191 ] } },
{ "type": "Feature", "properties": { "name": "Northern Moor Medical Practice", "address": "216 Wythenshawe Road, Northern Moor, Manchester", "postcode": "M23 0PH", "lad16nm": "Manchester", "precision": "Address and postcode" }, "geometry": { "type": "Point", "coordinates": [ -2.2943827, 53.4075754 ] } },
{ "type": "Feature", "properties": { "name": "Firsway Health Centre", "address": "121 Firsway, Sale", "postcode": "M33 4BR", "lad16nm": "Trafford", "precision": "Address and postcode" }, "geometry": { "type": "Point", "coordinates": [ -2.3606551, 53.4196615 ] } },
{ "type": "Feature", "properties": { "name": "The Northenden Group Practice", "address": "489 Palatine Road, Northenden, Manchester", "postcode": "M22 4DH", "lad16nm": "Manchester", "precision": "Address and postcode" }, "geometry": { "type": "Point", "coordinates": [ -2.252732, 53.4125337 ] } },
{ "type": "Feature", "properties": { "name": "The Arch Medical Practice", "address": "175 Royce Road, Hulme, Manchester", "postcode": "M15 5TJ", "lad16nm": "Manchester", "precision": "Address and postcode" }, "geometry": { "type": "Point", "coordinates": [ -2.24953388997304, 53.467782 ] } },
{ "type": "Feature", "properties": { "name": "Denton Medical Practice", "address": "100 Ashton Road, Denton, Manchester", "postcode": "M34 3JE", "lad16nm": "Tameside", "precision": "Address and postcode" }, "geometry": { "type": "Point", "coordinates": [ -2.1173563, 53.4375309 ] } },
{ "type": "Feature", "properties": { "name": "Walkden Medical Practice", "address": "2 Hodge Road, Worsley, Manchester", "postcode": "M28 3AT", "lad16nm": "Salford", "precision": "Address and postcode" }, "geometry": { "type": "Point", "coordinates": [ -2.3969307, 53.5222867 ] } },
{ "type": "Feature", "properties": { "name": "Gatley Group Practice", "address": "Old Hall Road, Gatley, Cheadle", "postcode": "SK8 4DG", "lad16nm": "Stockport", "precision": "Address and postcode" }, "geometry": { "type": "Point", "coordinates": [ -2.2349436, 53.394124 ] } },
{ "type": "Feature", "properties": { "name": "Marple Bridge Surgery", "address": "Town Street, Marple Bridge, Stockport", "postcode": "SK6 5AA", "lad16nm": "Stockport", "precision": "Address and postcode" }, "geometry": { "type": "Point", "coordinates": [ -2.0535366, 53.4007003 ] } },
{ "type": "Feature", "properties": { "name": "Spring View Medical Centre", "address": "Mytham Road, Little Lever, Bolton", "postcode": "BL3 1HQ", "lad16nm": "Bolton", "precision": "Address and postcode" }, "geometry": { "type": "Point", "coordinates": [ -2.3696775, 53.5584125 ] } },
{ "type": "Feature", "properties": { "name": "Unsworth Medical Centre", "address": "Parr Lane, Unsworth, Bury", "postcode": "BL9 8JR", "lad16nm": "Bury", "precision": "Address and postcode" }, "geometry": { "type": "Point", "coordinates": [ -2.2795258, 53.556766 ] } },
{ "type": "Feature", "properties": { "name": "Garnet Fold Practice", "address": "374-376 St Helens Road, Bolton", "postcode": "BL3 3RR", "lad16nm": "Bolton", "precision": "Address and postcode" }, "geometry": { "type": "Point", "coordinates": [ -2.4661133, 53.5564921 ] } },
{ "type": "Feature", "properties": { "name": "Bredbury Medical Centre", "address": "1 Auburn Avenue, Bredbury, Stockport", "postcode": "SK6 2AH", "lad16nm": "Stockport", "precision": "Address and postcode" }, "geometry": { "type": "Point", "coordinates": [ -2.11398748949573, 53.42287135 ] } },
{ "type": "Feature", "properties": { "name": "Tame Valley Medical Centre", "address": "Glebe Street, Ashton Under Lyne", "postcode": "OL6 6HD", "lad16nm": "Tameside", "precision": "Address and postcode" }, "geometry": { "type": "Point", "coordinates": [ -2.1450812, 53.4088154 ] } },
{ "type": "Feature", "properties": { "name": "IntraHealth Marsh Green", "address": "Harrow Road, Wigan", "postcode": "WN5 0QL", "lad16nm": "Wigan", "precision": "Address and postcode" }, "geometry": { "type": "Point", "coordinates": [ -2.666947, 53.548968 ] } },
{ "type": "Feature", "properties": { "name": "Lower Ince & Platt Bridge Medical Practice", "address": "Rivington Avenue, Platt Bridge, Wigan", "postcode": "WN2 5NG", "lad16nm": "Wigan", "precision": "Address and postcode" }, "geometry": { "type": "Point", "coordinates": [ -2.5961786, 53.5224885 ] } },
{ "type": "Feature", "properties": { "name": "IntraHealth Leigh Sports Village Practice", "address": "Leigh Stadium, Sale Way, Leigh Sports Village, Leigh", "postcode": "WN7 4JY", "lad16nm": "Wigan", "precision": "Address and postcode" }, "geometry": { "type": "Point", "coordinates": [ -2.53015414020958, 53.4897633 ] } },
{ "type": "Feature", "properties": { "name": "Alvanley Family Practice", "address": "Woodley Health Centre, Hyde Road, Woodley, Stockport", "postcode": "SK6 1ND", "lad16nm": "Stockport", "precision": "Address and postcode" }, "geometry": { "type": "Point", "coordinates": [ -2.09967573633122, 53.4263337 ] } },
{ "type": "Feature", "properties": { "name": "Town Hall Surgery", "address": "112 King Street, Dukinfield", "postcode": "SK16 4LD", "lad16nm": "Tameside", "precision": "Address and postcode" }, "geometry": { "type": "Point", "coordinates": [ -2.0941041, 53.4806191 ] } },
{ "type": "Feature", "properties": { "name": "Albion Medical Practice", "address": "1 Albion Street, Ashton Under Lyne", "postcode": "OL6 6HF", "lad16nm": "Tameside", "precision": "Address and postcode" }, "geometry": { "type": "Point", "coordinates": [ -2.1139952, 53.5426899 ] } },
{ "type": "Feature", "properties": { "name": "Fig Tree Medical Practice", "address": "Farnworth Health Centre 1, Frederick Street, Farnworth, Bolton", "postcode": "BL4 9AH", "lad16nm": "Bolton", "precision": "Address and postcode" }, "geometry": { "type": "Point", "coordinates": [ -2.39779412242283, 53.54601105 ] } },
{ "type": "Feature", "properties": { "name": "Dr Samuel Levenson", "address": "6-8 Limefield Road,, Salford", "postcode": "M7 4LZ", "lad16nm": "Salford", "precision": "Address and postcode" }, "geometry": { "type": "Point", "coordinates": [ -2.2622855, 53.5159669 ] } },
{ "type": "Feature", "properties": { "name": "Market Street Medical Practice", "address": "76 Market Street, Droylsden, Manchester", "postcode": "M43 6DE", "lad16nm": "Tameside", "precision": "Address and postcode" }, "geometry": { "type": "Point", "coordinates": [ -2.1483888, 53.4768169 ] } },
{ "type": "Feature", "properties": { "name": "Stonefield Street Surgery", "address": "Stonefield Street, Milnrow, Rochdale", "postcode": "OL16 4JQ", "lad16nm": "Rochdale", "precision": "Address and postcode" }, "geometry": { "type": "Point", "coordinates": [ -2.1088058, 53.6085124 ] } },
{ "type": "Feature", "properties": { "name": "St Andrews Medical Centre 3", "address": "30 Russell Street, Eccles, Manchester", "postcode": "M30 0NU", "lad16nm": "Salford", "precision": "Address and postcode" }, "geometry": { "type": "Point", "coordinates": [ -2.3398832, 53.4850193 ] } },
{ "type": "Feature", "properties": { "name": "The Brooke Surgery", "address": "20 Market Street, Hyde", "postcode": "SK14 1AT", "lad16nm": "Tameside", "precision": "Address and postcode" }, "geometry": { "type": "Point", "coordinates": [ -2.0115012, 53.4564277 ] } },
{ "type": "Feature", "properties": { "name": "Bracondale Medical Centre", "address": "141 Buxton Road, Heaviley, Stockport", "postcode": "SK2 6EQ", "lad16nm": "Stockport", "precision": "Address and postcode" }, "geometry": { "type": "Point", "coordinates": [ -2.1317692, 53.3866467 ] } },
{ "type": "Feature", "properties": { "name": "York House Surgery", "address": "19 York Street, Heywood", "postcode": "OL10 4NN", "lad16nm": "Rochdale", "precision": "Address and postcode" }, "geometry": { "type": "Point", "coordinates": [ -2.217352, 53.5934679 ] } },
{ "type": "Feature", "properties": { "name": "Spring Lane Surgery", "address": "15-17 Spring Lane, Radcliffe, Manchester", "postcode": "M26 2TQ", "lad16nm": "Bury", "precision": "Address and postcode" }, "geometry": { "type": "Point", "coordinates": [ -2.3270258, 53.5628689 ] } },
{ "type": "Feature", "properties": { "name": "Bodmin Road Health Centre", "address": "Bodmin Road,, Sale", "postcode": "M33 5JH", "lad16nm": "Trafford", "precision": "Address and postcode" }, "geometry": { "type": "Point", "coordinates": [ -2.3520163, 53.4280037 ] } },
{ "type": "Feature", "properties": { "name": "Drs Chiu, Koh and Gan", "address": "The Vallance Centre, Brunswick Street, Manchester", "postcode": "M13 9UJ", "lad16nm": "Manchester", "precision": "Address and postcode" }, "geometry": { "type": "Point", "coordinates": [ -2.22458610952956, 53.4698765 ] } },
{ "type": "Feature", "properties": { "name": "Archwood Medical Practice", "address": "Woodley Health Centre, Hyde Road, Woodley, Stockport", "postcode": "SK6 1ND", "lad16nm": "Stockport", "precision": "Address and postcode" }, "geometry": { "type": "Point", "coordinates": [ -2.09967573633122, 53.4263337 ] } },
{ "type": "Feature", "properties": { "name": "The Village Surgery", "address": "31 Bramhall Lane South, Bramhall, Stockport", "postcode": "SK7 2DN", "lad16nm": "Stockport", "precision": "Address and postcode" }, "geometry": { "type": "Point", "coordinates": [ -2.1646893, 53.3591379 ] } },
{ "type": "Feature", "properties": { "name": "Mocha Parade Medical Practice", "address": "The Surgery, 4-5 Mocha Parade, Salford", "postcode": "M7 1QE", "lad16nm": "Salford", "precision": "Address and postcode" }, "geometry": { "type": "Point", "coordinates": [ -2.3101255, 53.4169284 ] } },
{ "type": "Feature", "properties": { "name": "Cornerstone Surgery", "address": "469 Chorley Old Road, Bolton", "postcode": "BL1 6AH", "lad16nm": "Bolton", "precision": "Address and postcode" }, "geometry": { "type": "Point", "coordinates": [ -2.4578103, 53.5884813 ] } },
{ "type": "Feature", "properties": { "name": "Gordon Street Medical Centre", "address": "171 Mossley Road, Ashton Under Lyne", "postcode": "OL6 6NE", "lad16nm": "Tameside", "precision": "Address and postcode" }, "geometry": { "type": "Point", "coordinates": [ -2.0369914, 53.529192 ] } },
{ "type": "Feature", "properties": { "name": "Altrincham Medical Practice", "address": "Lloyd House, 7 Lloyd Street, Altrincham", "postcode": "WA14 2DD", "lad16nm": "Trafford", "precision": "Address and postcode" }, "geometry": { "type": "Point", "coordinates": [ -2.3489473, 53.3843779 ] } },
{ "type": "Feature", "properties": { "name": "Clarendon Medical Centre", "address": "Clarendon Street, Hyde", "postcode": "SK14 2AQ", "lad16nm": "Tameside", "precision": "Address and postcode" }, "geometry": { "type": "Point", "coordinates": [ -2.1587487, 53.4200701 ] } },
{ "type": "Feature", "properties": { "name": "The Borchardt Medical Centre", "address": "62 Whitchurch Road, Withington, Manchester", "postcode": "M20 1EB", "lad16nm": "Manchester", "precision": "Address and postcode" }, "geometry": { "type": "Point", "coordinates": [ -2.2394375, 53.4344896 ] } },
{ "type": "Feature", "properties": { "name": "Washway Road Medical Centre", "address": "67 Washway Road, Sale", "postcode": "M33 7SS", "lad16nm": "Trafford", "precision": "Address and postcode" }, "geometry": { "type": "Point", "coordinates": [ -2.3293442, 53.4219361 ] } },
{ "type": "Feature", "properties": { "name": "Knowsley Medical Centre", "address": "9-11 Knowsley Street, Bury", "postcode": "BL9 0ST", "lad16nm": "Bury", "precision": "Address and postcode" }, "geometry": { "type": "Point", "coordinates": [ -2.3006244, 53.5888714 ] } },
{ "type": "Feature", "properties": { "name": "Surrey Lodge Group Practice", "address": "11 Anson Road, Victoria Park, Manchester", "postcode": "M14 5BY", "lad16nm": "Manchester", "precision": "Address and postcode" }, "geometry": { "type": "Point", "coordinates": [ -2.2187999, 53.4580327 ] } },
{ "type": "Feature", "properties": { "name": "New Collegiate Medical Centre", "address": "407 Cheetham Hill Road, Cheetham, Manchester", "postcode": "M8 0DA", "lad16nm": "Manchester", "precision": "Address and postcode" }, "geometry": { "type": "Point", "coordinates": [ -2.2418833, 53.508326 ] } },
{ "type": "Feature", "properties": { "name": "Kearsley Medical Centre", "address": "Jackson Street, Kearsley, Bolton", "postcode": "BL4 8EP", "lad16nm": "Bolton", "precision": "Address and postcode" }, "geometry": { "type": "Point", "coordinates": [ -2.4006029, 53.5459212 ] } },
{ "type": "Feature", "properties": { "name": "Kingsway Medical Practice", "address": "720 Burnage Lane, Manchester", "postcode": "M19 1UG", "lad16nm": "Manchester", "precision": "Address and postcode" }, "geometry": { "type": "Point", "coordinates": [ -2.21260479374105, 53.4202423 ] } },
{ "type": "Feature", "properties": { "name": "Cheadle Medical Practice", "address": "1-5 Ashfield Crescent, Cheadle", "postcode": "SK8 1BH", "lad16nm": "Stockport", "precision": "Address and postcode" }, "geometry": { "type": "Point", "coordinates": [ -2.2140262, 53.393873 ] } },
{ "type": "Feature", "properties": { "name": "Bramhall Health Centre", "address": "66 Bramhall Lane South, Bramhall, Stockport", "postcode": "SK7 2DY", "lad16nm": "Stockport", "precision": "Address and postcode" }, "geometry": { "type": "Point", "coordinates": [ -2.16305304514497, 53.3600836 ] } },
{ "type": "Feature", "properties": { "name": "Spring House Surgery", "address": "555 Chorley Old Road, Bolton", "postcode": "BL1 6AF", "lad16nm": "Bolton", "precision": "Address and postcode" }, "geometry": { "type": "Point", "coordinates": [ -2.4758542, 53.5904584 ] } },
{ "type": "Feature", "properties": { "name": "Newton Heath Medical Centre", "address": "Newton Heath Health Centre, 2 Old Church Street, Manchester", "postcode": "M40 2JF", "lad16nm": "Manchester", "precision": "Address and postcode" }, "geometry": { "type": "Point", "coordinates": [ -2.18430057024905, 53.5022951 ] } },
{ "type": "Feature", "properties": { "name": "Park View Medical Centre", "address": "66 Delaunays Road, Crumpsall, Manchester", "postcode": "M8 4RF", "lad16nm": "Manchester", "precision": "Address and postcode" }, "geometry": { "type": "Point", "coordinates": [ -2.2307467, 53.5192402 ] } },
{ "type": "Feature", "properties": { "name": "St Mary's Medical Centre", "address": "Rock Street, Oldham", "postcode": "OL1 3UL", "lad16nm": "Oldham", "precision": "Address and postcode" }, "geometry": { "type": "Point", "coordinates": [ -2.1081356, 53.5436062 ] } },
{ "type": "Feature", "properties": { "name": "Tregenna Group Practice", "address": "Portway, Woodhouse Park, Wythenshawe, Manchester", "postcode": "M22 0EP", "lad16nm": "Manchester", "precision": "Address and postcode" }, "geometry": { "type": "Point", "coordinates": [ -2.2578768, 53.3727105 ] } },
{ "type": "Feature", "properties": { "name": "Beech Hill Medical Practice", "address": "278 Gidlow Lane, Beech Hill, Wigan", "postcode": "WN6 7PD", "lad16nm": "Wigan", "precision": "Address and postcode" }, "geometry": { "type": "Point", "coordinates": [ -2.645741, 53.5601548 ] } },
{ "type": "Feature", "properties": { "name": "The Dunstan Partnership", "address": "Breightmet Health Centre,, Breightmet Fold Lane, Breightmet,, Bolton", "postcode": "BL2 6NT", "lad16nm": "Bolton", "precision": "Address and postcode" }, "geometry": { "type": "Point", "coordinates": [ -2.3841409, 53.5820119 ] } },
{ "type": "Feature", "properties": { "name": "Marple Cottage Surgery", "address": "50 Church Street, Marple, Stockport", "postcode": "SK6 6BW", "lad16nm": "Stockport", "precision": "Address and postcode" }, "geometry": { "type": "Point", "coordinates": [ -2.1039595, 53.4245227 ] } },
{ "type": "Feature", "properties": { "name": "Levenshulme Medical Practice", "address": "Levenshulme Health Centre, Dunstable Street, Levenshulme, Manchester", "postcode": "M19 3BX", "lad16nm": "Manchester", "precision": "Address and postcode" }, "geometry": { "type": "Point", "coordinates": [ -2.18864938395036, 53.44629835 ] } },
{ "type": "Feature", "properties": { "name": "Davyhulme Medical Centre", "address": "130 Broadway, Davyhulme, Urmston, Manchester", "postcode": "M41 7WJ", "lad16nm": "Trafford", "precision": "Address and postcode" }, "geometry": { "type": "Point", "coordinates": [ -2.3659531, 53.4595472 ] } },
{ "type": "Feature", "properties": { "name": "Marple Medical Practice", "address": "50 Stockport Road, Marple, Stockport", "postcode": "SK6 6AB", "lad16nm": "Stockport", "precision": "Address and postcode" }, "geometry": { "type": "Point", "coordinates": [ -2.0831193, 53.3964082 ] } },
{ "type": "Feature", "properties": { "name": "Kildonan House", "address": "Ramsbottom Road, Horwich, Bolton", "postcode": "BL6 5NW", "lad16nm": "Bolton", "precision": "Address and postcode" }, "geometry": { "type": "Point", "coordinates": [ -2.5441745, 53.5956794 ] } },
{ "type": "Feature", "properties": { "name": "Springfield House", "address": "275 Huddersfield Road, Oldham", "postcode": "OL4 2RJ", "lad16nm": "Oldham", "precision": "Address and postcode" }, "geometry": { "type": "Point", "coordinates": [ -2.0964867, 53.5446052 ] } },
{ "type": "Feature", "properties": { "name": "Ladybarn Group Practice", "address": "54 Briarfield Road, Withington, Manchester", "postcode": "M20 4SS", "lad16nm": "Manchester", "precision": "Address and postcode" }, "geometry": { "type": "Point", "coordinates": [ -2.2134483, 53.4300201 ] } },
{ "type": "Feature", "properties": { "name": "Irlam Clinic", "address": "125 Liverpool Road, Irlam, Manchester", "postcode": "M44 6DP", "lad16nm": "Salford", "precision": "Address and postcode" }, "geometry": { "type": "Point", "coordinates": [ -2.4265523, 53.4393448 ] } },
{ "type": "Feature", "properties": { "name": "Ordsall Health Surgery", "address": "118 Phoebe Street, Ordsall, Salford", "postcode": "M5 3PH", "lad16nm": "Salford", "precision": "Address and postcode" }, "geometry": { "type": "Point", "coordinates": [ -2.2820176, 53.4741919 ] } },
{ "type": "Feature", "properties": { "name": "Harwood Medical Centre", "address": "Harwood Medical Centre, Hough Fold Way, Harwood, Bolton", "postcode": "BL2 3HQ", "lad16nm": "Bolton", "precision": "Address and postcode" }, "geometry": { "type": "Point", "coordinates": [ -2.3980497, 53.6040379 ] } },
{ "type": "Feature", "properties": { "name": "Mauldeth Medical Centre", "address": "112 Mauldeth Road, Fallowfield, Manchester", "postcode": "M14 6SQ", "lad16nm": "Manchester", "precision": "Address and postcode" }, "geometry": { "type": "Point", "coordinates": [ -2.2121676, 53.4344964 ] } },
{ "type": "Feature", "properties": { "name": "Dr BN Macdonald & Partners", "address": "68 Barrington Road, Altrincham", "postcode": "WA14 1JB", "lad16nm": "Trafford", "precision": "Address and postcode" }, "geometry": { "type": "Point", "coordinates": [ -2.3476744, 53.3910818 ] } },
{ "type": "Feature", "properties": { "name": "Dr Hampson & Partners", "address": "9 Brandlesholme Road, Greenmount, Bury", "postcode": "BL8 4DR", "lad16nm": "Bury", "precision": "Address and postcode" }, "geometry": { "type": "Point", "coordinates": [ -2.3367287, 53.6248477 ] } },
{ "type": "Feature", "properties": { "name": "Stable Fold Surgery", "address": "119 Church Street, Westhoughton, Bolton", "postcode": "BL5 3SF", "lad16nm": "Bolton", "precision": "Address and postcode" }, "geometry": { "type": "Point", "coordinates": [ -2.5238504, 53.5527459 ] } },
{ "type": "Feature", "properties": { "name": "Yorkshire Street Surgery", "address": "188-190 Yorkshire Street, Rochdale", "postcode": "OL16 2DN", "lad16nm": "Rochdale", "precision": "Address and postcode" }, "geometry": { "type": "Point", "coordinates": [ -2.1546665, 53.6195912 ] } },
{ "type": "Feature", "properties": { "name": "Brookmill Medical Centre", "address": "College Street, Leigh", "postcode": "WN7 2RB", "lad16nm": "Wigan", "precision": "Address and postcode" }, "geometry": { "type": "Point", "coordinates": [ -2.5088875, 53.4961099 ] } },
{ "type": "Feature", "properties": { "name": "Grosvenor Medical Centre", "address": "62 Grosvenor Street, Stalybridge", "postcode": "SK15 1RZ", "lad16nm": "Tameside", "precision": "Address and postcode" }, "geometry": { "type": "Point", "coordinates": [ -2.120998, 53.4571595 ] } },
{ "type": "Feature", "properties": { "name": "Drs Joseph Borg-Costanzi\/Ian Gilani\/Brian Rhodes", "address": "Monton Medical Centre, Canal Side, Monton Green, Eccles, Manchester", "postcode": "M30 8AR", "lad16nm": "Salford", "precision": "Address and postcode" }, "geometry": { "type": "Point", "coordinates": [ -2.35694675770014, 53.49177885 ] } },
{ "type": "Feature", "properties": { "name": "Flixton Road Medical Centre", "address": "132 Flixton Road, Urmston, Manchester", "postcode": "M41 5BG", "lad16nm": "Trafford", "precision": "Address and postcode" }, "geometry": { "type": "Point", "coordinates": [ -2.3868143, 53.4357995 ] } },
{ "type": "Feature", "properties": { "name": "Didsbury Medical Centre", "address": "645 Wilmslow Road, Didsbury, Manchester", "postcode": "M20 6BA", "lad16nm": "Manchester", "precision": "Address and postcode" }, "geometry": { "type": "Point", "coordinates": [ -2.220794, 53.4104004 ] } },
{ "type": "Feature", "properties": { "name": "The Smithy Surgery", "address": "4 Market Street, Hollingworth, Hyde", "postcode": "SK14 8LN", "lad16nm": "Tameside", "precision": "Address and postcode" }, "geometry": { "type": "Point", "coordinates": [ -1.990659, 53.4635163 ] } },
{ "type": "Feature", "properties": { "name": "West Point Medical Centre", "address": "167 Slade Lane, Manchester", "postcode": "M19 2AF", "lad16nm": "Manchester", "precision": "Address and postcode" }, "geometry": { "type": "Point", "coordinates": [ -2.1974074, 53.4500356 ] } },
{ "type": "Feature", "properties": { "name": "The Park Medical Centre", "address": "434 Altrincham Road, Baguley, Wythenshaw, Manchester", "postcode": "M23 9AB", "lad16nm": "Manchester", "precision": "Address and postcode" }, "geometry": { "type": "Point", "coordinates": [ -2.3012227, 53.4009301 ] } },
{ "type": "Feature", "properties": { "name": "Healey Surgery", "address": "Whitworth Road, Rochdale", "postcode": "OL12 0SN", "lad16nm": "Rochdale", "precision": "Address and postcode" }, "geometry": { "type": "Point", "coordinates": [ -2.174885, 53.6393849 ] } },
{ "type": "Feature", "properties": { "name": "The Avenue Medical Centre", "address": "51-53 Victoria Avenue, Blackley, Manchester", "postcode": "M9 6BA", "lad16nm": "Manchester", "precision": "Address and postcode" }, "geometry": { "type": "Point", "coordinates": [ -2.2443684, 53.533111 ] } },
{ "type": "Feature", "properties": { "name": "West Timperley Medical Centre", "address": "21 Dawson Road, West Timperley, Altrincham", "postcode": "WA14 5PF", "lad16nm": "Trafford", "precision": "Address and postcode" }, "geometry": { "type": "Point", "coordinates": [ -2.3531341, 53.4020668 ] } },
{ "type": "Feature", "properties": { "name": "Pennine Medical Centre", "address": "193 Manchester Road, Mossley, Ashton Under Lyne", "postcode": "OL5 9AJ", "lad16nm": "Tameside", "precision": "Address and postcode" }, "geometry": { "type": "Point", "coordinates": [ -2.0253981, 53.5295743 ] } },
{ "type": "Feature", "properties": { "name": "Fallowfield Medical Centre", "address": "75 Ladybarn Lane, Fallowfield, Manchester", "postcode": "M14 6YL", "lad16nm": "Manchester", "precision": "Address and postcode" }, "geometry": { "type": "Point", "coordinates": [ -2.2142967, 53.4404082 ] } },
{ "type": "Feature", "properties": { "name": "Dr Venkatachalum Raj", "address": "37 Orient Road, Salford", "postcode": "M6 8LE", "lad16nm": "Salford", "precision": "Address and postcode" }, "geometry": { "type": "Point", "coordinates": [ -2.3237891, 53.4944527 ] } },
{ "type": "Feature", "properties": { "name": "Dr AK and N Atrey", "address": "Nelson Street, Atherton, Manchester", "postcode": "M46 0LE", "lad16nm": "Wigan", "precision": "Address and postcode" }, "geometry": { "type": "Point", "coordinates": [ -2.5003563, 53.5265728 ] } },
{ "type": "Feature", "properties": { "name": "Wellfield Health Centre", "address": "116 Oldham Road, Rochdale", "postcode": "OL11 1AD", "lad16nm": "Rochdale", "precision": "Address and postcode" }, "geometry": { "type": "Point", "coordinates": [ -2.1451131, 53.5975801 ] } },
{ "type": "Feature", "properties": { "name": "Ramsbottom Medical Practice", "address": "Ramsbottom Health Centre, Carr Street, Ramsbottom, Bury", "postcode": "BL0 9DD", "lad16nm": "Bury", "precision": "Address and postcode" }, "geometry": { "type": "Point", "coordinates": [ -2.31926800705362, 53.648763 ] } },
{ "type": "Feature", "properties": { "name": "Brinnington Surgery", "address": "Brinnington Health Centre, Brinnington Road, Brinnington, Stockport", "postcode": "SK5 8BS", "lad16nm": "Stockport", "precision": "Address and postcode" }, "geometry": { "type": "Point", "coordinates": [ -2.1318622, 53.4280617 ] } },
{ "type": "Feature", "properties": { "name": "Pennygate Medical Centre", "address": "109 Ladies Lane, Hindley, Wigan", "postcode": "WN2 2QG", "lad16nm": "Wigan", "precision": "Address and postcode" }, "geometry": { "type": "Point", "coordinates": [ -2.5761377, 53.5395874 ] } },
{ "type": "Feature", "properties": { "name": "The Junction Alkrington Surgery", "address": "346 Grimshaw Lane, Middleton Junction, Middleton, Manchester", "postcode": "M24 2AU", "lad16nm": "Rochdale", "precision": "Address and postcode" }, "geometry": { "type": "Point", "coordinates": [ -2.171212, 53.5403746 ] } },
{ "type": "Feature", "properties": { "name": "Sorrel Bank Medical Practice", "address": "23 Bolton Road, Salford", "postcode": "M6 7HL", "lad16nm": "Salford", "precision": "Address and postcode" }, "geometry": { "type": "Point", "coordinates": [ -2.3037954, 53.4983165 ] } },
{ "type": "Feature", "properties": { "name": "Victoria Road Surgery", "address": "9 Victoria Road, Salford, Lancashire", "postcode": "M6 8FZ", "lad16nm": "Salford", "precision": "Address and postcode" }, "geometry": { "type": "Point", "coordinates": [ -2.25953003856858, 53.45031505 ] } },
{ "type": "Feature", "properties": { "name": "Tonge Fold Health Centre", "address": "Hilton Street, Tonge Fold, Bolton", "postcode": "BL2 6DY", "lad16nm": "Bolton", "precision": "Address and postcode" }, "geometry": { "type": "Point", "coordinates": [ -2.4049149, 53.5799404 ] } },
{ "type": "Feature", "properties": { "name": "Dr Sivakumar and Dr Gude", "address": "The Surgery, 1 Coldalhurst Lane, Astley, Tyldesley, Manchester", "postcode": "M29 7BS", "lad16nm": "Wigan", "precision": "Address and postcode" }, "geometry": { "type": "Point", "coordinates": [ -2.4167596, 53.5775377 ] } },
{ "type": "Feature", "properties": { "name": "Corkland Road Medical Practice", "address": "9 Corkland Road, Chorlton-Cum-Hardy, Manchester", "postcode": "M21 8UP", "lad16nm": "Manchester", "precision": "Address and postcode" }, "geometry": { "type": "Point", "coordinates": [ -2.2744072, 53.4420397 ] } },
{ "type": "Feature", "properties": { "name": "The Range Medical Centre", "address": "121 Withington Road, Whalley Range, Manchester", "postcode": "M16 8EE", "lad16nm": "Manchester", "precision": "Address and postcode" }, "geometry": { "type": "Point", "coordinates": [ -2.2571819, 53.4529987 ] } },
{ "type": "Feature", "properties": { "name": "Dr Cunningham and Partners", "address": "The Vallance Centre, Brunswick Street, Manchester", "postcode": "M13 9UJ", "lad16nm": "Manchester", "precision": "Address and postcode" }, "geometry": { "type": "Point", "coordinates": [ -2.22458610952956, 53.4698765 ] } },
{ "type": "Feature", "properties": { "name": "Drs. Liversedge, McCurdie and Wong", "address": "Egerton\/Dunscar Health Centre, Darwen Road, Bromley Cross, Bolton", "postcode": "BL7 9RG", "lad16nm": "Bolton", "precision": "Address and postcode" }, "geometry": { "type": "Point", "coordinates": [ -2.42637225916149, 53.6176701 ] } },
{ "type": "Feature", "properties": { "name": "Bowland Medical Practice", "address": "52 Bowland Road, Baguley, Manchester", "postcode": "M23 1JX", "lad16nm": "Manchester", "precision": "Address and postcode" }, "geometry": { "type": "Point", "coordinates": [ -2.285638, 53.3933174 ] } },
{ "type": "Feature", "properties": { "name": "Drs Dickie, Pontefract & Saksena Joye", "address": "306 Gorton Road, Stockport", "postcode": "SK5 6RN", "lad16nm": "Stockport", "precision": "Address and postcode" }, "geometry": { "type": "Point", "coordinates": [ -2.1585308, 53.4413334 ] } },
{ "type": "Feature", "properties": { "name": "Churchgate Surgery", "address": "119 Manchester Road, Denton, Manchester", "postcode": "M34 3RA", "lad16nm": "Tameside", "precision": "Address and postcode" }, "geometry": { "type": "Point", "coordinates": [ -2.14082864706602, 53.47507035 ] } },
{ "type": "Feature", "properties": { "name": "Gorse Hill Medical Centre", "address": "879 Chester Road, Stretford, Manchester", "postcode": "M32 0RN", "lad16nm": "Trafford", "precision": "Address and postcode" }, "geometry": { "type": "Point", "coordinates": [ -2.3162195, 53.4345359 ] } },
{ "type": "Feature", "properties": { "name": "Adshall Road Medical Practice", "address": "97 Adshall Road, Cheadle", "postcode": "SK8 2JN", "lad16nm": "Stockport", "precision": "Address and postcode" }, "geometry": { "type": "Point", "coordinates": [ -2.191423, 53.3900317 ] } },
{ "type": "Feature", "properties": { "name": "West End Medical Centre", "address": "98-102 Stockport Road, Ashton Under Lyne", "postcode": "OL7 0LH", "lad16nm": "Tameside", "precision": "Address and postcode" }, "geometry": { "type": "Point", "coordinates": [ -2.0761548, 53.3965436 ] } },
{ "type": "Feature", "properties": { "name": "Chapel Street Medical Centre", "address": "Chapel Street, Ashton Under Lyne", "postcode": "OL6 6EW", "lad16nm": "Tameside", "precision": "Address and postcode" }, "geometry": { "type": "Point", "coordinates": [ -2.0988595, 53.4267203 ] } },
{ "type": "Feature", "properties": { "name": "Dr Rubina Shahmalak, Dr Asif Javid and Dr Pirzada Anwer", "address": "357-359 Dickenson Road, Longsight, Manchester", "postcode": "M13 0WQ", "lad16nm": "Manchester", "precision": "Address and postcode" }, "geometry": { "type": "Point", "coordinates": [ -2.2070471, 53.4548777 ] } },
{ "type": "Feature", "properties": { "name": "Parkside Medical Centre", "address": "187 Northmoor Road, Longsight, Manchester", "postcode": "M12 5RU", "lad16nm": "Manchester", "precision": "Address and postcode" }, "geometry": { "type": "Point", "coordinates": [ -2.1907288, 53.4524296 ] } },
{ "type": "Feature", "properties": { "name": "Pike View Medical Centre", "address": "Albert Street, Horwich, Bolton", "postcode": "BL6 7AN", "lad16nm": "Bolton", "precision": "Address and postcode" }, "geometry": { "type": "Point", "coordinates": [ -2.5479145, 53.6017252 ] } },
{ "type": "Feature", "properties": { "name": "Benchill Medical Practice", "address": "171 Brownley Road, Manchester", "postcode": "M22 9UH", "lad16nm": "Manchester", "precision": "Address and postcode" }, "geometry": { "type": "Point", "coordinates": [ -2.2561116, 53.3825114 ] } },
{ "type": "Feature", "properties": { "name": "Hopwood House Medical Practice", "address": "Hopwood House, The Vineyard, Lees Road, Oldham", "postcode": "OL4 1JN", "lad16nm": "Oldham", "precision": "Address and postcode" }, "geometry": { "type": "Point", "coordinates": [ -2.1858513, 53.5030166 ] } },
{ "type": "Feature", "properties": { "name": "Cornbrook Medical Practice", "address": "204 City Road, Hulme, Manchester", "postcode": "M15 4EA", "lad16nm": "Manchester", "precision": "Address and postcode" }, "geometry": { "type": "Point", "coordinates": [ -2.2632303, 53.4665873 ] } },
{ "type": "Feature", "properties": { "name": "Dr D T Brazier & Dr D York", "address": "22 Winton Street, Littleborough", "postcode": "OL15 8AR", "lad16nm": "Rochdale", "precision": "Address and postcode" }, "geometry": { "type": "Point", "coordinates": [ -2.0992378, 53.6425973 ] } },
{ "type": "Feature", "properties": { "name": "Little Lever Health Centre 1", "address": "Mytham Road, Little Lever, Bolton", "postcode": "BL3 1JF", "lad16nm": "Bolton", "precision": "Address and postcode" }, "geometry": { "type": "Point", "coordinates": [ -2.3696775, 53.5584125 ] } },
{ "type": "Feature", "properties": { "name": "The Alexandra Practice", "address": "365 Wilbraham Road, Manchester", "postcode": "M16 8NG", "lad16nm": "Manchester", "precision": "Address and postcode" }, "geometry": { "type": "Point", "coordinates": [ -2.2545799, 53.4432163 ] } },
{ "type": "Feature", "properties": { "name": "The Alastair Ross Medical Practice", "address": "Breightmet Health Centre,, Breightmet Fold Lane, Breightmet,, Bolton", "postcode": "BL2 6NT", "lad16nm": "Bolton", "precision": "Address and postcode" }, "geometry": { "type": "Point", "coordinates": [ -2.3841409, 53.5820119 ] } },
{ "type": "Feature", "properties": { "name": "Tottington Medical Practice", "address": "16 Market Street, Tottington, Bury", "postcode": "BL8 4AD", "lad16nm": "Bury", "precision": "Address and postcode" }, "geometry": { "type": "Point", "coordinates": [ -2.3410854, 53.6145609 ] } },
{ "type": "Feature", "properties": { "name": "Heady Hill Surgery", "address": "114 Bury New Road, Heywood", "postcode": "OL10 4RG", "lad16nm": "Rochdale", "precision": "Address and postcode" }, "geometry": { "type": "Point", "coordinates": [ -2.2382444, 53.5932494 ] } },
{ "type": "Feature", "properties": { "name": "Lostock Medical Centre", "address": "431 Barton Road, Stretford, Manchester", "postcode": "M32 9PA", "lad16nm": "Trafford", "precision": "Address and postcode" }, "geometry": { "type": "Point", "coordinates": [ -2.3138086, 53.4458388 ] } },
{ "type": "Feature", "properties": { "name": "Heaton Medical Centre", "address": "2 Lucy Street, Bolton", "postcode": "BL1 5PU", "lad16nm": "Bolton", "precision": "Address and postcode" }, "geometry": { "type": "Point", "coordinates": [ -2.4685914, 53.5880765 ] } },
{ "type": "Feature", "properties": { "name": "North Trafford Group Practice", "address": "864 866 Chester Road, Stretford, Manchester", "postcode": "M32 0PA", "lad16nm": "Trafford", "precision": "Address and postcode" }, "geometry": { "type": "Point", "coordinates": [ -2.3162195, 53.4345359 ] } },
{ "type": "Feature", "properties": { "name": "Dr Karim & Dr James-Authe", "address": "46 Wyresdale Road, Bolton", "postcode": "BL1 4DN", "lad16nm": "Bolton", "precision": "Address and postcode" }, "geometry": { "type": "Point", "coordinates": [ -2.4523039, 53.5820388 ] } },
{ "type": "Feature", "properties": { "name": "The Doc's Surgery", "address": "55-59 Bloom Street, Manchester", "postcode": "M1 3LY", "lad16nm": "Manchester", "precision": "Address and postcode" }, "geometry": { "type": "Point", "coordinates": [ -2.2366667, 53.4779144 ] } },
{ "type": "Feature", "properties": { "name": "Dr Robert Mathewson", "address": "The Village Green, High Lane, Stockport", "postcode": "SK6 8DR", "lad16nm": "Stockport", "precision": "Address and postcode" }, "geometry": { "type": "Point", "coordinates": [ -2.1232828, 53.3809272 ] } },
{ "type": "Feature", "properties": { "name": "The Poplars Medical Centre", "address": "202 Partington Lane, Swinton, Manchester", "postcode": "M27 0NA", "lad16nm": "Salford", "precision": "Address and postcode" }, "geometry": { "type": "Point", "coordinates": [ -2.3406311, 53.5118403 ] } },
{ "type": "Feature", "properties": { "name": "Salford Health Matters Eccles", "address": "Eccles Gateway, 28 Barton Lane, Eccles", "postcode": "M30 0TU", "lad16nm": "Salford", "precision": "Postcode" }, "geometry": { "type": "Point", "coordinates": [ -2.3392245981429, 53.482606143276001 ] } },
{ "type": "Feature", "properties": { "name": "Salford Health Matters Homeless Service", "address": "Windsor Christian Centre, Churchill Way, Salford", "postcode": "M6 5BU", "lad16nm": "Salford", "precision": "Postcode" }, "geometry": { "type": "Point", "coordinates": [ -2.2845167297175, 53.486011740389998 ] } },
{ "type": "Feature", "properties": { "name": "Salford Health Matters Little Hulton", "address": "Little Hulton Health Centre, Haysbrook Avenue, Manchester", "postcode": "M28 0AY", "lad16nm": "Salford", "precision": "Postcode" }, "geometry": { "type": "Point", "coordinates": [ -2.4238870147311, 53.529875818793002 ] } },
{ "type": "Feature", "properties": { "name": "Rochdale Ophthalmology Clinical Assessment and Treatment Service", "address": "The Croft Shifa, Belfield Road, Rochdale", "postcode": "OL16 2UP", "lad16nm": "Rochdale", "precision": "Postcode" }, "geometry": { "type": "Point", "coordinates": [ -2.1409002946132, 53.622818127038997 ] } },
{ "type": "Feature", "properties": { "name": "St Andrews House Medical Centre", "address": "Stalybridge Resource Centre, 2 Waterloo Road, Stalybridge", "postcode": "SK15 2AU", "lad16nm": "Tameside", "precision": "Postcode" }, "geometry": { "type": "Point", "coordinates": [ -2.0597582083796, 53.484726639122002 ] } },
{ "type": "Feature", "properties": { "name": "The Dale Medical Practice", "address": "2nd Floor Nye Bevan House, Maclure Road, Rochdale", "postcode": "OL11 1DN", "lad16nm": "Rochdale", "precision": "Postcode" }, "geometry": { "type": "Point", "coordinates": [ -2.1542397619475, 53.611665247988 ] } },
{ "type": "Feature", "properties": { "name": "Whiteson Hair Loss Consultancy Ltd", "address": "The Old Hall Clinic, 14 Old Hall Road, Gatley", "postcode": "SK8 4BE", "lad16nm": "Stockport", "precision": "Postcode" }, "geometry": { "type": "Point", "coordinates": [ -2.2343971108312, 53.393817477642003 ] } },
{ "type": "Feature", "properties": { "name": "Grasmere Surgery", "address": "Leigh Health Centre, The Avenue, Leigh", "postcode": "WN7 1HR", "lad16nm": "Wigan", "precision": "Postcode" }, "geometry": { "type": "Point", "coordinates": [ -2.5112266158321, 53.502946326816001 ] } },
{ "type": "Feature", "properties": { "name": "The Jalal Practice", "address": "Integrated Care Centre, New Radcliffe Street, Oldham", "postcode": "OL1 1NL", "lad16nm": "Oldham", "precision": "Postcode" }, "geometry": { "type": "Point", "coordinates": [ -2.1168541706637, 53.543738137722997 ] } },
{ "type": "Feature", "properties": { "name": "Eccles Gateway", "address": "Eccles Gateway, 28 Barton Lane, Eccles", "postcode": "M30 0TU", "lad16nm": "Salford", "precision": "Postcode" }, "geometry": { "type": "Point", "coordinates": [ -2.3392245981429, 53.482606143276001 ] } },
{ "type": "Feature", "properties": { "name": "Lower Ince Surgery", "address": "Clare Houae, Phoenix Way, Ince, Wigan", "postcode": "WN3 4NW", "lad16nm": "Wigan", "precision": "Postcode" }, "geometry": { "type": "Point", "coordinates": [ -2.6145706515994, 53.534926204618998 ] } },
{ "type": "Feature", "properties": { "name": "Ince Surgery", "address": "Ince Community Centre, Manchester Road, Ince, Wigan", "postcode": "WN2 2DJ", "lad16nm": "Wigan", "precision": "Postcode" }, "geometry": { "type": "Point", "coordinates": [ -2.6039177595058, 53.543339782094002 ] } },
{ "type": "Feature", "properties": { "name": "Nuffield Health Manchester Diagnostic Suite", "address": "City Labs, Nelson Street, Manchester", "postcode": "M13 9NQ", "lad16nm": "Manchester", "precision": "Postcode" }, "geometry": { "type": "Point", "coordinates": [ -2.2293383289338, 53.462499709570999 ] } },
{ "type": "Feature", "properties": { "name": "Veincentre Manchester (3-5 St John Street)", "address": "2nd Floor Suite, 3-5 St John Street, Manchester", "postcode": "M3 4DN", "lad16nm": "Manchester", "precision": "Postcode" }, "geometry": { "type": "Point", "coordinates": [ -2.250799276324, 53.477440369716 ] } },
{ "type": "Feature", "properties": { "name": "Hyde 7 Day Access Hub", "address": "Haughton Thornley Medical Centre, Thornley House, Thornley Street, Hyde", "postcode": "SK14 1JY", "lad16nm": "Tameside", "precision": "Postcode" }, "geometry": { "type": "Point", "coordinates": [ -2.076100903616, 53.446732112108002 ] } },
{ "type": "Feature", "properties": { "name": "AMS Clinic Manchester", "address": "Dr Bokhari and Partners (Cheetham Hill Medical Centre), 244 Cheetham Hill Road, Manchester", "postcode": "M8 8UP", "lad16nm": "Manchester", "precision": "Postcode" }, "geometry": { "type": "Point", "coordinates": [ -2.2352307236361, 53.501174560829 ] } },
{ "type": "Feature", "properties": { "name": "Cherry Medical Practice", "address": "Little Hulton Health Centre, Haysbrook Avenue, Worsley, Manchester", "postcode": "M28 0AY", "lad16nm": "Salford", "precision": "Postcode" }, "geometry": { "type": "Point", "coordinates": [ -2.4238870147311, 53.529875818793002 ] } },
{ "type": "Feature", "properties": { "name": "The Hospital Group-Colwyn Chambers", "address": "5th Floor, Colwyn Chambers, 19 York Street, Manchester", "postcode": "M2 3BA", "lad16nm": "Manchester", "precision": "Postcode" }, "geometry": { "type": "Point", "coordinates": [ -2.2398487253922, 53.480689711410001 ] } },
{ "type": "Feature", "properties": { "name": "Spamedica Limited", "address": "SpaMedica House, 43 Churchgate, Bolton", "postcode": "BL1 1HU", "lad16nm": "Bolton", "precision": "Postcode" }, "geometry": { "type": "Point", "coordinates": [ -2.4260481525843, 53.579816648520001 ] } },
{ "type": "Feature", "properties": { "name": "Swinton Gateway", "address": "Swinton Gateway, 100 Chorley Road, Swinton, Manchester", "postcode": "M27 6BP", "lad16nm": "Salford", "precision": "Postcode" }, "geometry": { "type": "Point", "coordinates": [ -2.3419941872894, 53.512170268288997 ] } },
{ "type": "Feature", "properties": { "name": "Five Oaks Family Practice", "address": "Oak House, 47 Graham Street, Manchester", "postcode": "M11 3BB", "lad16nm": "Manchester", "precision": "Postcode" }, "geometry": { "type": "Point", "coordinates": [ -2.1943802204883, 53.475774756229001 ] } },
{ "type": "Feature", "properties": { "name": "Dr Kamal Gupta", "address": "Bridgewater Medical Centre,, Henry Street,, Leigh", "postcode": "WN7 2PE", "lad16nm": "Wigan", "precision": "Postcode" }, "geometry": { "type": "Point", "coordinates": [ -2.5110369930486, 53.494704672955997 ] } },
{ "type": "Feature", "properties": { "name": "Dr Vijaya Joshi", "address": "Chapel Medical Centre, 220 Liverpool Road, Higher Irlam, Manchester", "postcode": "M44 6FE", "lad16nm": "Salford", "precision": "Postcode" }, "geometry": { "type": "Point", "coordinates": [ -2.4182786238238, 53.449098027406997 ] } },
{ "type": "Feature", "properties": { "name": "Dr Nasima Sidda", "address": "Watersmeeting Health Center, Waters Meeting Road, Bolton", "postcode": "BL1 8TT", "lad16nm": "Bolton", "precision": "Postcode" }, "geometry": { "type": "Point", "coordinates": [ -2.4292480621121, 53.596002209341002 ] } },
{ "type": "Feature", "properties": { "name": "Dr Laurence Howard Sherman", "address": "Greyland Medical Centre, 468 Bury Old Road, Prestwich, Manchester", "postcode": "M25 1NL", "lad16nm": "Bury", "precision": "Postcode" }, "geometry": { "type": "Point", "coordinates": [ -2.2762931906254, 53.537705451146003 ] } },
{ "type": "Feature", "properties": { "name": "Mrs Elaine Evans", "address": "The Bridgewater Medical Centre, Henry Street, Leigh", "postcode": "WN7 2PE", "lad16nm": "Wigan", "precision": "Postcode" }, "geometry": { "type": "Point", "coordinates": [ -2.5110369930486, 53.494704672955997 ] } },
{ "type": "Feature", "properties": { "name": "Dr Anita Sharma", "address": "Chadderton South Health Centre, Eaves Lane, Chadderton, Oldham", "postcode": "OL9 8RG", "lad16nm": "Oldham", "precision": "Postcode" }, "geometry": { "type": "Point", "coordinates": [ -2.1511931344172, 53.533210225303002 ] } },
{ "type": "Feature", "properties": { "name": "Pennine MSK Partnership Limited", "address": "Integrated Care Centre, New Radcliffe Street, Oldham", "postcode": "OL1 1NL", "lad16nm": "Oldham", "precision": "Postcode" }, "geometry": { "type": "Point", "coordinates": [ -2.1168541706637, 53.543738137722997 ] } },
{ "type": "Feature", "properties": { "name": "Dr Sonal Sharma", "address": "2nd Floor Croft Shifa Health Centre, Rochdale", "postcode": "OL16 2UY", "lad16nm": "Rochdale", "precision": "Postcode" }, "geometry": { "type": "Point", "coordinates": [ -2.1383289496448, 53.622470586782001 ] } },
{ "type": "Feature", "properties": { "name": "Salford Medical\/2", "address": "Salford Medical\/2, 194-198 Langworthy Road, Salford", "postcode": "M6 5PP", "lad16nm": "Salford", "precision": "Postcode" }, "geometry": { "type": "Point", "coordinates": [ -2.2945337171625, 53.487506519770001 ] } },
{ "type": "Feature", "properties": { "name": "Dr Salam J Farhan", "address": "Partington Health Centre, Central Road, Partington, Manchester", "postcode": "M31 4FY", "lad16nm": "Trafford", "precision": "Postcode" }, "geometry": { "type": "Point", "coordinates": [ -2.4253981329166, 53.417208376574003 ] } },
{ "type": "Feature", "properties": { "name": "Townside Surgery - Dr Cooke", "address": "Townside Primary Care Centre, Knowsley Place, 1 Knowsley Place, Knowsley Street, Bury", "postcode": "BL9 0SN", "lad16nm": "Bury", "precision": "Postcode" }, "geometry": { "type": "Point", "coordinates": [ -2.2989342357789, 53.590214823910998 ] } },
{ "type": "Feature", "properties": { "name": "Dr Masud Prodhan", "address": "Seymour Grove Health Centre, Manchester", "postcode": "M16 0LW", "lad16nm": "Trafford", "precision": "Postcode" }, "geometry": { "type": "Point", "coordinates": [ -2.2757303545716, 53.458078172223999 ] } },
{ "type": "Feature", "properties": { "name": "Ailsa Craig Medical Centre", "address": "Ailsa Craig Medical Group, 270 Dickenson Road, Longsight, Manchester", "postcode": "M13 0YL", "lad16nm": "Manchester", "precision": "Postcode" }, "geometry": { "type": "Point", "coordinates": [ -2.2085272381881, 53.454187548282 ] } },
{ "type": "Feature", "properties": { "name": "Leigh Family Practice", "address": "Bridgewater Medical Centre,, Henry Street,, Leigh", "postcode": "WN7 2PE", "lad16nm": "Wigan", "precision": "Postcode" }, "geometry": { "type": "Point", "coordinates": [ -2.5110369930486, 53.494704672955997 ] } },
{ "type": "Feature", "properties": { "name": "Dr Krishnakant Buch", "address": "Lower Broughton Health Centre, Great Clowes Street, Salford", "postcode": "M7 1RD", "lad16nm": "Salford", "precision": "Postcode" }, "geometry": { "type": "Point", "coordinates": [ -2.2587928667159, 53.493593551351999 ] } },
{ "type": "Feature", "properties": { "name": "Dr Mahadeva Selvarajan", "address": "Deane Clinic One Stop Health Centre, Horsfield Street, Bolton", "postcode": "BL3 4LU", "lad16nm": "Bolton", "precision": "Postcode" }, "geometry": { "type": "Point", "coordinates": [ -2.4645222301741, 53.567889667876003 ] } },
{ "type": "Feature", "properties": { "name": "Peel Hall Medical Practice", "address": "Forum Health, Simonsway, Wythenshawe, Manchester", "postcode": "M22 5RX", "lad16nm": "Manchester", "precision": "Postcode" }, "geometry": { "type": "Point", "coordinates": [ -2.2644952235312, 53.380541335700002 ] } },
{ "type": "Feature", "properties": { "name": "Dr Brian Perkins", "address": "Integrated Care Centre, New Radcliffe Street, Oldham", "postcode": "OL1 1NL", "lad16nm": "Oldham", "precision": "Postcode" }, "geometry": { "type": "Point", "coordinates": [ -2.1168541706637, 53.543738137722997 ] } },
{ "type": "Feature", "properties": { "name": "Dr Syed Shahbazi", "address": "Kidglove House, Kidglove Road, Golborne", "postcode": "WA3 3GS", "lad16nm": "Wigan", "precision": "Postcode" }, "geometry": { "type": "Point", "coordinates": [ -2.5958682165543, 53.478429041947003 ] } },
{ "type": "Feature", "properties": { "name": "Dr Geeta Gupta", "address": "South Reddish Medical Centre, Reddish Road, South Reddish, Stockport", "postcode": "SK5 7QU", "lad16nm": "Stockport", "precision": "Postcode" }, "geometry": { "type": "Point", "coordinates": [ -2.1565018380282, 53.422321890985998 ] } },
{ "type": "Feature", "properties": { "name": "Dr George Duru", "address": "Integrated Care Centre, New Radcliffe Street, Oldham", "postcode": "OL1 1NL", "lad16nm": "Oldham", "precision": "Postcode" }, "geometry": { "type": "Point", "coordinates": [ -2.1168541706637, 53.543738137722997 ] } },
{ "type": "Feature", "properties": { "name": "The Robert Darbishire Practice", "address": "Rusholme Health Centre, Walmer Street, Rusholme, Manchester", "postcode": "M14 5NP", "lad16nm": "Manchester", "precision": "Postcode" }, "geometry": { "type": "Point", "coordinates": [ -2.2261484937071, 53.454622886814001 ] } },
{ "type": "Feature", "properties": { "name": "The Whitswood Practice", "address": "Alexandra Park Health Centre, 2 Whitswood Close, Manchester", "postcode": "M16 7AP", "lad16nm": "Manchester", "precision": "Postcode" }, "geometry": { "type": "Point", "coordinates": [ -2.2534876374746, 53.455781444986002 ] } },
{ "type": "Feature", "properties": { "name": "Dr Raina Patel", "address": "The Romiley Health Centre, Chichester Road, Romiley, Stockport", "postcode": "SK6 4QR", "lad16nm": "Stockport", "precision": "Postcode" }, "geometry": { "type": "Point", "coordinates": [ -2.0899155902539, 53.415002043229002 ] } },
{ "type": "Feature", "properties": { "name": "Dr Zuber Ahmed", "address": "Sun Valley Medical Practice, 137 Glodwick Road, Oldham", "postcode": "OL4 1YN", "lad16nm": "Oldham", "precision": "Postcode" }, "geometry": { "type": "Point", "coordinates": [ -2.0950647969366, 53.537708297442002 ] } },
{ "type": "Feature", "properties": { "name": "Radcliffe Medical Practice", "address": "Radcliffe Primary Care Centre, 69 Church Street West, Radcliffe, Manchester", "postcode": "M26 2SP", "lad16nm": "Bury", "precision": "Postcode" }, "geometry": { "type": "Point", "coordinates": [ -2.3236621094644, 53.560219327692003 ] } },
{ "type": "Feature", "properties": { "name": "The Mazhari and Khan Practice", "address": "Clayton Health Centre, 89 North Road, Clayton, Manchester", "postcode": "M11 4EJ", "lad16nm": "Manchester", "precision": "Postcode" }, "geometry": { "type": "Point", "coordinates": [ -2.1841418424049, 53.484312025571001 ] } },
{ "type": "Feature", "properties": { "name": "Failsworth Group Practice", "address": "Failsworth District Centre, Ashton Road West, Failsworth, Manchester", "postcode": "M35 0AD", "lad16nm": "Oldham", "precision": "Postcode" }, "geometry": { "type": "Point", "coordinates": [ -2.1567341402005, 53.509842282272999 ] } },
{ "type": "Feature", "properties": { "name": "Medlock Medical Practice  Dr Hossain & Dr Chauhan", "address": "Failsworth District Centre, Ashton Road West, Failsworth, Manchester", "postcode": "M35 0AD", "lad16nm": "Oldham", "precision": "Postcode" }, "geometry": { "type": "Point", "coordinates": [ -2.1567341402005, 53.509842282272999 ] } },
{ "type": "Feature", "properties": { "name": "Middleton Health Centre", "address": "Unit F1, Middleton Shopping Centre, Limetrees Road, Middleton, Manchester", "postcode": "M24 4EL", "lad16nm": "Rochdale", "precision": "Postcode" }, "geometry": { "type": "Point", "coordinates": [ -2.2010362426049, 53.54824622396 ] } },
{ "type": "Feature", "properties": { "name": "Kirby - Crompton Health Centre", "address": "Crompton Health Centre, 501 Crompton Way, Bolton", "postcode": "BL1 8UP", "lad16nm": "Bolton", "precision": "Postcode" }, "geometry": { "type": "Point", "coordinates": [ -2.4151650636005, 53.597436108297003 ] } },
{ "type": "Feature", "properties": { "name": "Dr Mohua Chowdhury", "address": "Integrated Care Centre, New Radcliffe Street, Oldham", "postcode": "OL1 1NL", "lad16nm": "Oldham", "precision": "Postcode" }, "geometry": { "type": "Point", "coordinates": [ -2.1168541706637, 53.543738137722997 ] } },
{ "type": "Feature", "properties": { "name": "Dr Ahmad and Partners", "address": "Platt Bridge Health Centre, Rivington Avenue, Platt Bridge, Wigan", "postcode": "WN2 5NG", "lad16nm": "Wigan", "precision": "Postcode" }, "geometry": { "type": "Point", "coordinates": [ -2.59453396551349, 53.5219698389283 ] } },
{ "type": "Feature", "properties": { "name": "Hattersley Group Practice", "address": "Hattersley Health Centre, Hattersley Road East, Hattersley, Hyde", "postcode": "SK14 3EH", "lad16nm": "Tameside", "precision": "Postcode" }, "geometry": { "type": "Point", "coordinates": [ -2.0274414292563, 53.450339631243999 ] } },
{ "type": "Feature", "properties": { "name": "Wilmslow Road Surgery", "address": "Wilmslow Road Medical Centre, 156 Wilmslow Road, Rusholme, Manchester", "postcode": "M14 5LQ", "lad16nm": "Manchester", "precision": "Postcode" }, "geometry": { "type": "Point", "coordinates": [ -2.22280478010555, 53.4518349027582 ] } },
{ "type": "Feature", "properties": { "name": "Premier Health Team", "address": "The Bridgewater Medical Centre, Henry Street, Leigh", "postcode": "WN7 2PE", "lad16nm": "Wigan", "precision": "Postcode" }, "geometry": { "type": "Point", "coordinates": [ -2.5110369930486, 53.494704672955997 ] } },
{ "type": "Feature", "properties": { "name": "Dr Maung and Partners", "address": "Leigh Health Centre, The Avenue, Leigh", "postcode": "WN7 1HR", "lad16nm": "Wigan", "precision": "Postcode" }, "geometry": { "type": "Point", "coordinates": [ -2.5112266158321, 53.502946326816001 ] } },
{ "type": "Feature", "properties": { "name": "Clarendon Surgery", "address": "Clarendon Surgery, Pendleton Gateway, 1 The Broadwalk, Salford", "postcode": "M6 5FX", "lad16nm": "Salford", "precision": "Postcode" }, "geometry": { "type": "Point", "coordinates": [ -2.2846833921869, 53.488393284506998 ] } },
{ "type": "Feature", "properties": { "name": "Dr Woodock & Partners, Ribblesdale Medical Practices", "address": "Townside Primary Care Centre, Knowsley Place, 1 Knowsley Place, Knowsley Street, Bury", "postcode": "BL9 0SN", "lad16nm": "Bury", "precision": "Postcode" }, "geometry": { "type": "Point", "coordinates": [ -2.2989342357789, 53.590214823910998 ] } },
{ "type": "Feature", "properties": { "name": "Sharma and Partners", "address": "Medicentre, 185 Wigan Road, Ashton-in-Makerfield, Wigan", "postcode": "WN4 9SL", "lad16nm": "Wigan", "precision": "Postcode" }, "geometry": { "type": "Point", "coordinates": [ -2.6429943239159, 53.493986698588003 ] } },
{ "type": "Feature", "properties": { "name": "Salford Medical Centre 1", "address": "Salford Medical Centre(1), 194-198 Langworthy Road, Salford", "postcode": "M6 5PP", "lad16nm": "Salford", "precision": "Postcode" }, "geometry": { "type": "Point", "coordinates": [ -2.2945337171625, 53.487506519770001 ] } },
{ "type": "Feature", "properties": { "name": "Dr Patel, Kamath and Partners", "address": "Longshoot Health Centre, Scholes, Wigan", "postcode": "WN1 3NH", "lad16nm": "Wigan", "precision": "Postcode" }, "geometry": { "type": "Point", "coordinates": [ -2.6199445182431, 53.549558698966003 ] } },
{ "type": "Feature", "properties": { "name": "Princess Road Surgery", "address": "471-475 Princess Road, Withington, Manchester", "postcode": "M20 1BH", "lad16nm": "Manchester", "precision": "Postcode" }, "geometry": { "type": "Point", "coordinates": [ -2.2435957195245, 53.440386737068998 ] } },
{ "type": "Feature", "properties": { "name": "Shekar et al", "address": "Minden Family Practices, Moorgate Primary Care Centre, 22 Derby Way, Bury", "postcode": "BL9 0NJ", "lad16nm": "Bury", "precision": "Postcode" }, "geometry": { "type": "Point", "coordinates": [ -2.28865500436126, 53.595536790210602 ] } },
{ "type": "Feature", "properties": { "name": "Longfield Medical Practice", "address": "Prestwich Health Centre, Fairfax Road, Prestwich, Manchester", "postcode": "M25 1BT", "lad16nm": "Bury", "precision": "Postcode" }, "geometry": { "type": "Point", "coordinates": [ -2.28363989993581, 53.533926188231298 ] } },
{ "type": "Feature", "properties": { "name": "Dr Alistair Partnership", "address": "7 Brooks Medical Centre, 21 Church Street, Atherton, Manchester", "postcode": "M46 9DE", "lad16nm": "Wigan", "precision": "Postcode" }, "geometry": { "type": "Point", "coordinates": [ -2.4890075106176, 53.524189188554999 ] } },
{ "type": "Feature", "properties": { "name": "Lower Broughton Medical Practice 3", "address": "Lower Broughton Health Centre, Great Clowes Street, Salford", "postcode": "M7 1RD", "lad16nm": "Salford", "precision": "Postcode" }, "geometry": { "type": "Point", "coordinates": [ -2.2587928667159, 53.493593551351999 ] } },
{ "type": "Feature", "properties": { "name": "Woodlands Medical Practice", "address": "Woodlands Medical Practice, Chadderton Town Health Centre, Chadderton, Oldham", "postcode": "OL9 0LH", "lad16nm": "Oldham", "precision": "Postcode" }, "geometry": { "type": "Point", "coordinates": [ -2.1420311294523, 53.545445624396002 ] } },
{ "type": "Feature", "properties": { "name": "Dr M B Ghafoor and Dr S A Abbasi", "address": "1st Floor, Nye Bevan House, Maclure Road, Rochdale", "postcode": "OL11 1DN", "lad16nm": "Rochdale", "precision": "Postcode" }, "geometry": { "type": "Point", "coordinates": [ -2.1542397619475, 53.611665247988 ] } },
{ "type": "Feature", "properties": { "name": "Lower Broughton Medical Practice 4", "address": "Lower Broughton Health Centre, Great Clowes Street, Salford", "postcode": "M7 1RD", "lad16nm": "Salford", "precision": "Postcode" }, "geometry": { "type": "Point", "coordinates": [ -2.2587928667159, 53.493593551351999 ] } },
{ "type": "Feature", "properties": { "name": "Brooklands Medical Practice", "address": "Brooklands Medical Practice, 594 Altrincham Road, Wythenshawe, Manchester", "postcode": "M23 9JH", "lad16nm": "Manchester", "precision": "Postcode" }, "geometry": { "type": "Point", "coordinates": [ -2.3042229055582, 53.400994645228998 ] } },
{ "type": "Feature", "properties": { "name": "Dr Vasanth and Partners", "address": "Atherton Health Centre, Atherton, Manchester", "postcode": "M46 0LE", "lad16nm": "Wigan", "precision": "Postcode" }, "geometry": { "type": "Point", "coordinates": [ -2.5009807135977, 53.527735001966001 ] } },
{ "type": "Feature", "properties": { "name": "Silverdale Medical Practice", "address": "Pendlebury Health Centre, 659 Bolton Road, Pendlebury, Manchester", "postcode": "M27 8HP", "lad16nm": "Salford", "precision": "Postcode" }, "geometry": { "type": "Point", "coordinates": [ -2.3314601228802, 53.518797447635997 ] } },
{ "type": "Feature", "properties": { "name": "Bedford House Medical Centre", "address": "GP Surgery, Glebe Street, Ashton Under Lyne", "postcode": "OL6 6HD", "lad16nm": "Tameside", "precision": "Postcode" }, "geometry": { "type": "Point", "coordinates": [ -2.0891689638149, 53.489364304235998 ] } },
{ "type": "Feature", "properties": { "name": "Dr Wong and Partners", "address": "Old Henry Street Medical Centre, Henry Street, Leigh", "postcode": "WN7 2PG", "lad16nm": "Wigan", "precision": "Postcode" }, "geometry": { "type": "Point", "coordinates": [ -2.5115066257184, 53.494900411323997 ] } },
{ "type": "Feature", "properties": { "name": "Dr D. Pal & Dr M. Pal", "address": "Golborne Health Centre, Kidglove Road, Golborne, Warrington", "postcode": "WA3 3GS", "lad16nm": "Wigan", "precision": "Postcode" }, "geometry": { "type": "Point", "coordinates": [ -2.5958682165543, 53.478429041947003 ] } },
{ "type": "Feature", "properties": { "name": "Longsight Medical Practice", "address": "Longsight Health Centre, 526-528 Stockport Road, Longsight, Manchester", "postcode": "M13 0RR", "lad16nm": "Manchester", "precision": "Postcode" }, "geometry": { "type": "Point", "coordinates": [ -2.2018572221275, 53.457587666865003 ] } },
{ "type": "Feature", "properties": { "name": "Oak Gables Medical Practice", "address": "The Oak Gables Partnership, Crompton Health Centre, High Street, Shaw, Oldham", "postcode": "OL2 8ST", "lad16nm": "Oldham", "precision": "Postcode" }, "geometry": { "type": "Point", "coordinates": [ -2.0959788466598, 53.574820355283002 ] } },
{ "type": "Feature", "properties": { "name": "Al-Fal Medical Group - Pikes Lane Health Centre", "address": "The Pikes Lane Centre, Deane Road, Bolton", "postcode": "BL3 5HP", "lad16nm": "Bolton", "precision": "Postcode" }, "geometry": { "type": "Point", "coordinates": [ -2.4463331776339, 53.572731753977003 ] } },
{ "type": "Feature", "properties": { "name": "Conway Road Medical Practice", "address": "Conway Road Health Centre, 80a Conway Road, Sale", "postcode": "M33 2TB", "lad16nm": "Trafford", "precision": "Postcode" }, "geometry": { "type": "Point", "coordinates": [ -2.3035460426484, 53.417876918927 ] } },
{ "type": "Feature", "properties": { "name": "Quayside Medical Practice", "address": "Failsworth District Centre, Ashton Road West, Failsworth, Manchester", "postcode": "M35 0AD", "lad16nm": "Oldham", "precision": "Postcode" }, "geometry": { "type": "Point", "coordinates": [ -2.1567341402005, 53.509842282272999 ] } },
{ "type": "Feature", "properties": { "name": "The Singh Medical Practice", "address": "The Harpurhey Health Centre, 1 Church Lane, Harpurhey, Manchester", "postcode": "M9 4BE", "lad16nm": "Manchester", "precision": "Postcode" }, "geometry": { "type": "Point", "coordinates": [ -2.2135321886405, 53.512208130795003 ] } },
{ "type": "Feature", "properties": { "name": "Partington Family Practice", "address": "Partington Health Centre, Central Road, Partington, Manchester", "postcode": "M31 4FY", "lad16nm": "Trafford", "precision": "Postcode" }, "geometry": { "type": "Point", "coordinates": [ -2.4253981329166, 53.417208376574003 ] } },
{ "type": "Feature", "properties": { "name": "Bradshaw Medical Partnership", "address": "Bradshaw Medical Centre, Bradshaw Street, Orrell, Wigan", "postcode": "WN5 0AB", "lad16nm": "Wigan", "precision": "Postcode" }, "geometry": { "type": "Point", "coordinates": [ -2.6885936113777, 53.537848583943003 ] } },
{ "type": "Feature", "properties": { "name": "CH Medical", "address": "Fields New Road Primary Care Centre, Chadderton, Oldham", "postcode": "OL9 8NH", "lad16nm": "Oldham", "precision": "Postcode" }, "geometry": { "type": "Point", "coordinates": [ -2.1450675294355, 53.533118944717003 ] } },
{ "type": "Feature", "properties": { "name": "St Chads Medical Practice", "address": "St Chads Centre, Lime Green Parade, Lime Green, Oldham", "postcode": "OL8 3HH", "lad16nm": "Oldham", "precision": "Postcode" }, "geometry": { "type": "Point", "coordinates": [ -2.1267591731734, 53.515333793090001 ] } },
{ "type": "Feature", "properties": { "name": "Manor Medical Practice", "address": "Offerton Health Centre, 10 Offerton Lane, Offerton, Stockport", "postcode": "SK2 5AR", "lad16nm": "Stockport", "precision": "Postcode" }, "geometry": { "type": "Point", "coordinates": [ -2.1366987828637, 53.403479253632 ] } },
{ "type": "Feature", "properties": { "name": "Crompton View Surgery", "address": "Crompton Health Centre, 501 Crompton Way, Bolton", "postcode": "BL1 8UP", "lad16nm": "Bolton", "precision": "Postcode" }, "geometry": { "type": "Point", "coordinates": [ -2.4151650636005, 53.597436108297003 ] } },
{ "type": "Feature", "properties": { "name": "Fairfax Group Practice", "address": "Prestwich Health Centre, Fairfax Road, Prestwich, Manchester", "postcode": "M25 1BT", "lad16nm": "Bury", "precision": "Postcode" }, "geometry": { "type": "Point", "coordinates": [ -2.28363989993581, 53.533926188231298 ] } },
{ "type": "Feature", "properties": { "name": "Dalefield Surgery", "address": "Avondale Health Centre, Avondale Street, Bolton", "postcode": "BL1 4JP", "lad16nm": "Bolton", "precision": "Postcode" }, "geometry": { "type": "Point", "coordinates": [ -2.4517983600169, 53.588171225323002 ] } },
{ "type": "Feature", "properties": { "name": "West Gorton Medical Practice", "address": "West Gorton Medical Centre, 6a Wenlock Way, West Gorton, Manchester", "postcode": "M12 5LH", "lad16nm": "Manchester", "precision": "Postcode" }, "geometry": { "type": "Point", "coordinates": [ -2.2004297021833, 53.467845923665998 ] } },
{ "type": "Feature", "properties": { "name": "Redbank Group Practice", "address": "Sun Suite 2nd Floor Radcliffe Primary Care Centre, 69 Church Street West,, Radcliffe", "postcode": "M26 3XA", "lad16nm": "Bury", "precision": "Postcode" }, "geometry": { "type": "Point", "coordinates": [ -2.3637718014326, 53.570539537145997 ] } },
{ "type": "Feature", "properties": { "name": "The RLC Surgery", "address": "Star Suite 2nd Floor Radcliffe Primary Care Centre 69 Church Street West, Radcliffe, Manchester", "postcode": "M26 2SP", "lad16nm": "Bury", "precision": "Postcode" }, "geometry": { "type": "Point", "coordinates": [ -2.3236621094644, 53.560219327692003 ] } },
{ "type": "Feature", "properties": { "name": "Mile Lane Surgery", "address": "Mile Lane Health Centre, 80 Mile Lane, Bury", "postcode": "BL8 2JR", "lad16nm": "Bury", "precision": "Postcode" }, "geometry": { "type": "Point", "coordinates": [ -2.3352331428184, 53.58781760494 ] } },
{ "type": "Feature", "properties": { "name": "Dr Anis and Anis", "address": "Golborne Health Centre, Kidglove Road, Golborne, Warrington", "postcode": "WA3 3GS", "lad16nm": "Wigan", "precision": "Postcode" }, "geometry": { "type": "Point", "coordinates": [ -2.5958682165543, 53.478429041947003 ] } },
{ "type": "Feature", "properties": { "name": "M Ullah", "address": "Platt Bridge Health Centre, Rivington Avenue, Platt Bridge, Wigan", "postcode": "WN2 5NG", "lad16nm": "Wigan", "precision": "Postcode" }, "geometry": { "type": "Point", "coordinates": [ -2.59453396551349, 53.5219698389283 ] } },
{ "type": "Feature", "properties": { "name": "Dr Devadeep Gupta", "address": "Littleborough Health Centre, Featherstall Road, Littleborough", "postcode": "OL15 8HF", "lad16nm": "Rochdale", "precision": "Postcode" }, "geometry": { "type": "Point", "coordinates": [ -2.1033339976387, 53.642999048372999 ] } },
{ "type": "Feature", "properties": { "name": "Dr Nityananda Hati-Kakoty", "address": "Bee Fold Medical Centre, Bee Fold Lane, Atherton, Manchester", "postcode": "M46 0BD", "lad16nm": "Wigan", "precision": "Postcode" }, "geometry": { "type": "Point", "coordinates": [ -2.4997442708784, 53.521376341261998 ] } },
{ "type": "Feature", "properties": { "name": "Dr George Bhima", "address": "1st Floor, Nye Bevan House, Maclure Road, Rochdale", "postcode": "OL11 1DN", "lad16nm": "Rochdale", "precision": "Postcode" }, "geometry": { "type": "Point", "coordinates": [ -2.1542397619475, 53.611665247988 ] } },
{ "type": "Feature", "properties": { "name": "Eastlands Medical Practice", "address": "Clayton Health Centre, 89 North Road, Clayton, Manchester", "postcode": "M11 4EJ", "lad16nm": "Manchester", "precision": "Postcode" }, "geometry": { "type": "Point", "coordinates": [ -2.1841418424049, 53.484312025571001 ] } },
{ "type": "Feature", "properties": { "name": "Tyldesley Health Centre", "address": "Tyldesley Health Centre, Poplar Street, Tyldesley, Manchester", "postcode": "M29 8AX", "lad16nm": "Wigan", "precision": "Postcode" }, "geometry": { "type": "Point", "coordinates": [ -2.4689845894358, 53.516764045259002 ] } },
{ "type": "Feature", "properties": { "name": "IntraHealth Family Practice", "address": "Leigh Sports Village, Leigh Stadium, Sale Way, Leigh", "postcode": "WN7 4JY", "lad16nm": "Wigan", "precision": "Postcode" }, "geometry": { "type": "Point", "coordinates": [ -2.53118348473191, 53.490079377220802 ] } },
{ "type": "Feature", "properties": { "name": "Burnside Surgery", "address": "Navigation Park, Waters Meeting Road, Bolton", "postcode": "BL1 8TT", "lad16nm": "Bolton", "precision": "Postcode" }, "geometry": { "type": "Point", "coordinates": [ -2.4292480621121, 53.596002209341002 ] } },
{ "type": "Feature", "properties": { "name": "Dr Hendy & Rizwan", "address": "The Halliwell Surgery, Lindfield Drive, Halliwell, Bolton", "postcode": "BL1 3RG", "lad16nm": "Bolton", "precision": "Postcode" }, "geometry": { "type": "Point", "coordinates": [ -2.43179657912292, 53.5882827997956 ] } },
{ "type": "Feature", "properties": { "name": "Chadderton Medical Practice", "address": "Chadderton Town Health Centre, Middleton Road, Chadderton, Oldham", "postcode": "OL9 0LH", "lad16nm": "Oldham", "precision": "Postcode" }, "geometry": { "type": "Point", "coordinates": [ -2.1420311294523, 53.545445624396002 ] } },
{ "type": "Feature", "properties": { "name": "Caritas General Practice Partnership", "address": "Dial House Medical Centre, 131 Mile End Lane, Stockport", "postcode": "SK2 6BZ", "lad16nm": "Stockport", "precision": "Postcode" }, "geometry": { "type": "Point", "coordinates": [ -2.1345842488527, 53.395940251318002 ] } },
{ "type": "Feature", "properties": { "name": "Lilford Park Surgery", "address": "Leigh Health Centre, The Avenue, Leigh", "postcode": "WN7 1HR", "lad16nm": "Wigan", "precision": "Postcode" }, "geometry": { "type": "Point", "coordinates": [ -2.5112266158321, 53.502946326816001 ] } },
{ "type": "Feature", "properties": { "name": "Dr Mokashi", "address": "Clayton Health Centre, 89 North Road, Clayton, Manchester", "postcode": "M11 4EJ", "lad16nm": "Manchester", "precision": "Postcode" }, "geometry": { "type": "Point", "coordinates": [ -2.1841418424049, 53.484312025571001 ] } },
{ "type": "Feature", "properties": { "name": "Bolton Community Practice CIC", "address": "Navigation Park, Waters Meeting Road, Bolton", "postcode": "BL1 8TT", "lad16nm": "Bolton", "precision": "Postcode" }, "geometry": { "type": "Point", "coordinates": [ -2.4292480621121, 53.596002209341002 ] } },
{ "type": "Feature", "properties": { "name": "Chadsfield Medical Practice", "address": "The Romiley Health Centre, Chichester Road, Romiley, Stockport", "postcode": "SK6 4QR", "lad16nm": "Stockport", "precision": "Postcode" }, "geometry": { "type": "Point", "coordinates": [ -2.0899155902539, 53.415002043229002 ] } },
{ "type": "Feature", "properties": { "name": "Dr Pal & Partners", "address": "Royton Health Wellbeing Centre, Park Street, Royton, Oldham", "postcode": "OL2 6QW", "lad16nm": "Oldham", "precision": "Postcode" }, "geometry": { "type": "Point", "coordinates": [ -2.1216569713216, 53.566123270784999 ] } },
{ "type": "Feature", "properties": { "name": "Deakin Norman Sutcliffe", "address": "Minden Family Practices, Moorgate Primary Care Centre, 22 Derby Way, Bury", "postcode": "BL9 0NJ", "lad16nm": "Bury", "precision": "Postcode" }, "geometry": { "type": "Point", "coordinates": [ -2.28865500436126, 53.595536790210602 ] } },
{ "type": "Feature", "properties": { "name": "Unsworth Group Practice", "address": "Peter House Surgery, Captain Lees Road, Westhoughton, Bolton", "postcode": "BL5 3UB", "lad16nm": "Bolton", "precision": "Postcode" }, "geometry": { "type": "Point", "coordinates": [ -2.5085392542572, 53.550461845526002 ] } },
{ "type": "Feature", "properties": { "name": "Drs D'Arifat, Elislam, Wan & Saroha", "address": "Newtown Medical Practice, Pemberton Primary Care Resource Centre, Sherwood Drive, Wigan", "postcode": "WN5 9QX", "lad16nm": "Wigan", "precision": "Postcode" }, "geometry": { "type": "Point", "coordinates": [ -2.6697840160043, 53.538243056878002 ] } },
{ "type": "Feature", "properties": { "name": "Alexandra Group Medical Practice", "address": "Glodwick Primary Care Centre, 137 Glodwick Road, Oldham", "postcode": "OL4 1YN", "lad16nm": "Oldham", "precision": "Postcode" }, "geometry": { "type": "Point", "coordinates": [ -2.0950647969366, 53.537708297442002 ] } },
{ "type": "Feature", "properties": { "name": "Littleborough Group Practice", "address": "Littleborough Health Centre, Featherstall Road, Littleborough", "postcode": "OL15 8HF", "lad16nm": "Rochdale", "precision": "Postcode" }, "geometry": { "type": "Point", "coordinates": [ -2.1033339976387, 53.642999048372999 ] } },
{ "type": "Feature", "properties": { "name": "The Mosslands Medical Practice", "address": "Irlam Medical Centre, Macdonald Road, Irlam, Manchester", "postcode": "M44 5LH", "lad16nm": "Salford", "precision": "Postcode" }, "geometry": { "type": "Point", "coordinates": [ -2.43110928256543, 53.437947082698798 ] } },
{ "type": "Feature", "properties": { "name": "Halliwell Surgery 3", "address": "The Halliwell Surgery, Lindfield Drive, Halliwell, Bolton", "postcode": "BL1 3RG", "lad16nm": "Bolton", "precision": "Postcode" }, "geometry": { "type": "Point", "coordinates": [ -2.43179657912292, 53.5882827997956 ] } },
{ "type": "Feature", "properties": { "name": "St Johns Medical Centre", "address": "St Johns Medical Centre, St Johns Road, Altrincham", "postcode": "WA14 2NW", "lad16nm": "Trafford", "precision": "Postcode" }, "geometry": { "type": "Point", "coordinates": [ -2.3537944115249, 53.382763948627002 ] } },
{ "type": "Feature", "properties": { "name": "Pendleton Medical Centre", "address": "Pendleton Gateway, 1 Broadwalk, Salford", "postcode": "M6 5FX", "lad16nm": "Salford", "precision": "Postcode" }, "geometry": { "type": "Point", "coordinates": [ -2.2846833921869, 53.488393284506998 ] } },
{ "type": "Feature", "properties": { "name": "Cornishway Group Practice", "address": "Forum Health, Simonsway, Wythenshawe, Manchester", "postcode": "M22 5RX", "lad16nm": "Manchester", "precision": "Postcode" }, "geometry": { "type": "Point", "coordinates": [ -2.2644952235312, 53.380541335700002 ] } },
{ "type": "Feature", "properties": { "name": "The Lakes Medical Practice", "address": "The Lakes Medical Centre, 21 Chorley Road, Swinton, Manchester", "postcode": "M27 4AF", "lad16nm": "Salford", "precision": "Postcode" }, "geometry": { "type": "Point", "coordinates": [ -2.3337071942776, 53.509191554228998 ] } },
{ "type": "Feature", "properties": { "name": "Cornerstone Medical Practice", "address": "Cornerstone Medical Practice, 451 Liverpool Street, Salford", "postcode": "M6 5QQ", "lad16nm": "Salford", "precision": "Postcode" }, "geometry": { "type": "Point", "coordinates": [ -2.2968436401838, 53.483779580726001 ] } },
{ "type": "Feature", "properties": { "name": "Manchester Medical", "address": "Moss Side Health Centre, Monton Street, Manchester", "postcode": "M14 4GP", "lad16nm": "Manchester", "precision": "Postcode" }, "geometry": { "type": "Point", "coordinates": [ -2.2366705260639, 53.459267529751997 ] } },
{ "type": "Feature", "properties": { "name": "Dr Ahmed Choudhury", "address": "Integrated Care Centre, New Radcliffe Street, Oldham", "postcode": "OL1 1NL", "lad16nm": "Oldham", "precision": "Postcode" }, "geometry": { "type": "Point", "coordinates": [ -2.1168541706637, 53.543738137722997 ] } },
{ "type": "Feature", "properties": { "name": "Dr Ellis and Kreppel", "address": "Mesnes View Surgery, Mesnes Street, Wigan", "postcode": "WN1 1ST", "lad16nm": "Wigan", "precision": "Postcode" }, "geometry": { "type": "Point", "coordinates": [ -2.6329732483434, 53.550802768179999 ] } },
{ "type": "Feature", "properties": { "name": "Five Oaks Family Practice", "address": "Five Oaks Family Practice, 47 Graham Street, Beswick, Manchester", "postcode": "M11 3BB", "lad16nm": "Manchester", "precision": "Postcode" }, "geometry": { "type": "Point", "coordinates": [ -2.1943802204883, 53.475774756229001 ] } },
{ "type": "Feature", "properties": { "name": "The Royton and Crompton Family Practice", "address": "Royton Health Wellbeing Centre, Park Street, Royton, Oldham", "postcode": "OL2 6QW", "lad16nm": "Oldham", "precision": "Postcode" }, "geometry": { "type": "Point", "coordinates": [ -2.1216569713216, 53.566123270784999 ] } },
{ "type": "Feature", "properties": { "name": "Saxena Bowden Saxena", "address": "Minden Family Practices, Moorgate Primary Care Centre, 22 Derby Way, Bury", "postcode": "BL9 0NJ", "lad16nm": "Bury", "precision": "Postcode" }, "geometry": { "type": "Point", "coordinates": [ -2.28865500436126, 53.595536790210602 ] } },
{ "type": "Feature", "properties": { "name": "Edenfield Road Surgery", "address": "Cutgate Precinct, Rochdale", "postcode": "OL11 5AQ", "lad16nm": "Rochdale", "precision": "Postcode" }, "geometry": { "type": "Point", "coordinates": [ -2.1886584147234, 53.622284967775002 ] } },
{ "type": "Feature", "properties": { "name": "Peel GPs", "address": "Townside Primary Care Centre, Knowsley Place, 1 Knowsley Place, Knowsley Street, Bury", "postcode": "BL9 0SN", "lad16nm": "Bury", "precision": "Postcode" }, "geometry": { "type": "Point", "coordinates": [ -2.2989342357789, 53.590214823910998 ] } },
{ "type": "Feature", "properties": { "name": "Greenbank Medical Practice", "address": "Barley Clough Medical Centre, Nugget Street, Oldham", "postcode": "OL4 1BN", "lad16nm": "Oldham", "precision": "Postcode" }, "geometry": { "type": "Point", "coordinates": [ -2.096166848986, 53.537968077869998 ] } },
{ "type": "Feature", "properties": { "name": "Halliwell Surgery 2", "address": "The Halliwell Surgery, Lindfield Drive, Halliwell, Bolton", "postcode": "BL1 3RG", "lad16nm": "Bolton", "precision": "Postcode" }, "geometry": { "type": "Point", "coordinates": [ -2.43179657912292, 53.5882827997956 ] } },
{ "type": "Feature", "properties": { "name": "Pemberton Surgery", "address": "Pemberton Pcrc, Sherwood Drive, Pemberton, Wigan", "postcode": "WN5 9QX", "lad16nm": "Wigan", "precision": "Postcode" }, "geometry": { "type": "Point", "coordinates": [ -2.6697840160043, 53.538243056878002 ] } },
{ "type": "Feature", "properties": { "name": "Heaton Norris Health Centre 1", "address": "Heaton Norris Health Centre, Cheviot Close, Heaton Norris, Stockport", "postcode": "SK4 1JX", "lad16nm": "Stockport", "precision": "Postcode" }, "geometry": { "type": "Point", "coordinates": [ -2.1679152536385, 53.416544731228001 ] } },
{ "type": "Feature", "properties": { "name": "Irlam Medical Practice 2", "address": "Irlam Medical Centre, Macdonald Road, Irlam, Manchester", "postcode": "M44 5LH", "lad16nm": "Salford", "precision": "Postcode" }, "geometry": { "type": "Point", "coordinates": [ -2.43110928256543, 53.437947082698798 ] } },
{ "type": "Feature", "properties": { "name": "Heaton Norris Health Centre 2", "address": "Heaton Norris Health Centre, Cheviot Close, Heaton Norris, Stockport", "postcode": "SK4 1JX", "lad16nm": "Stockport", "precision": "Postcode" }, "geometry": { "type": "Point", "coordinates": [ -2.1679152536385, 53.416544731228001 ] } },
{ "type": "Feature", "properties": { "name": "Dr Abid Hamid", "address": "2nd Floor Nye Bevan House, Maclure Road, Rochdale", "postcode": "OL11 1DN", "lad16nm": "Rochdale", "precision": "Postcode" }, "geometry": { "type": "Point", "coordinates": [ -2.1542397619475, 53.611665247988 ] } },
{ "type": "Feature", "properties": { "name": "Dr Counsell and Partners", "address": "The Pikes Lane Centre, Deane Road, Bolton", "postcode": "BL3 5HP", "lad16nm": "Bolton", "precision": "Postcode" }, "geometry": { "type": "Point", "coordinates": [ -2.4463331776339, 53.572731753977003 ] } },
{ "type": "Feature", "properties": { "name": "Dr Bernard Newgrosh", "address": "Great Lever Health Centre, Rupert Street, Great Lever, Bolton", "postcode": "BL3 6RN", "lad16nm": "Bolton", "precision": "Postcode" }, "geometry": { "type": "Point", "coordinates": [ -2.4324440619614, 53.565717910243997 ] } },
{ "type": "Feature", "properties": { "name": "Windmill Medical Practice", "address": "Ann Street Health Centre, Ann Street, Denton, Manchester", "postcode": "M34 2AJ", "lad16nm": "Tameside", "precision": "Postcode" }, "geometry": { "type": "Point", "coordinates": [ -2.118448792666, 53.455605195971998 ] } },
{ "type": "Feature", "properties": { "name": "The Olive Family Practice Ltd", "address": "The Pikes Lane Centre, Deane Road, Bolton", "postcode": "BL3 5HP", "lad16nm": "Bolton", "precision": "Postcode" }, "geometry": { "type": "Point", "coordinates": [ -2.4463331776339, 53.572731753977003 ] } },
{ "type": "Feature", "properties": { "name": "Dr Esa Surgery Limited", "address": "Leigh Health Centre, The Avenue, Leigh", "postcode": "WN7 1HR", "lad16nm": "Wigan", "precision": "Postcode" }, "geometry": { "type": "Point", "coordinates": [ -2.5112266158321, 53.502946326816001 ] } },
{ "type": "Feature", "properties": { "name": "Hill Top Surgery", "address": "Fitton Hill Neighbourhood Centre, Fircroft Road, Oldham", "postcode": "OL8 2QD", "lad16nm": "Oldham", "precision": "Postcode" }, "geometry": { "type": "Point", "coordinates": [ -2.1005903748135, 53.519996694100001 ] } }
]
}
