{
"type": "FeatureCollection",
"crs": { "type": "name", "properties": { "name": "urn:ogc:def:crs:OGC:1.3:CRS84" } },
"features": [
{ "type": "Feature", "properties": { "Name": "Mood Swings Network", "Description": "Charity providing intense support to people with mood disorders and their friends and families.", "Address": "36 New Mount Street, Manchester", "Postcode": "M4 4DE", "Telephone": "0161 832 3736", "Website": "http:\/\/www.moodswings.org.uk\/" }, "geometry": { "type": "Point", "coordinates": [ -2.235277, 53.487919 ] } },
{ "type": "Feature", "properties": { "Name": "42nd Street", "Description": "Counselling, therapy and one-to one support for young people aged 13 to 25 years.", "Address": "The Space, 87-91 Great Ancoats Street, Manchester", "Postcode": "M4 5AG", "Telephone": "0161 228 7321", "Website": "http:\/\/42ndstreet.org.uk\/" }, "geometry": { "type": "Point", "coordinates": [ -2.229492, 53.483368 ] } },
{ "type": "Feature", "properties": { "Name": "LGBT Foundation", "Description": "Provides a wide range of support services to lesbian, gay, bisexual and trans people.", "Address": "5 Richmond Street, Manchester", "Postcode": "M1 3HF", "Telephone": "0345 330 3030", "Website": "https:\/\/lgbt.foundation\/" }, "geometry": { "type": "Point", "coordinates": [ -2.235649, 53.477732 ] } },
{ "type": "Feature", "properties": { "Name": "The Proud Trust", "Description": "Helps young people empower themselves to make a positive change for themselves and their communities; youth groups and peer support.", "Address": "49 - 51 Sidney Street, Manchester", "Postcode": "M1 7HB", "Telephone": "0161 660 3347", "Website": "https:\/\/www.theproudtrust.org\/" }, "geometry": { "type": "Point", "coordinates": [ -2.237142, 53.470846 ] } },
{ "type": "Feature", "properties": { "Name": "African Caribbean Care Group", "Description": "Community Engagement Workers visit older adults, who may be vulnerable due to a long-term health condition, disability or isolation.", "Address": "Claremont Resource Centre, Rolls Crescent, Hulme", "Postcode": "M15 5FS", "Telephone": "0161 226 6334", "Website": "http:\/\/www.accg.org.uk\/" }, "geometry": { "type": "Point", "coordinates": [ -2.250157, 53.465265 ] } },
{ "type": "Feature", "properties": { "Name": "LMCP Care Link", "Description": "The organisation works with South Asian women with mental health needs.", "Address": "95A Princess Road, Manchester", "Postcode": "M14 4TH", "Telephone": "0161 226 4632", "Website": "http:\/\/www.lmcpcarelink.co.uk\/" }, "geometry": { "type": "Point", "coordinates": [ -2.244547, 53.45652 ] } },
{ "type": "Feature", "properties": { "Name": "Manchester Refugee Support Network", "Description": "Grass-roots organisation directly managed by refugee communities, based in Manchester.", "Address": "129 Princess Road, Manchester", "Postcode": "M14 4RB", "Telephone": "0161 868 0777", "Website": "http:\/\/mrsn.org.uk\/" }, "geometry": { "type": "Point", "coordinates": [ -2.244723, 53.455408 ] } },
{ "type": "Feature", "properties": { "Name": "African and Caribbean Mental Health Services", "Description": "Voluntary charitable organisation that was formed in October 1989 to provide support to African and African Caribbean people with mental health problems aged 16 and over and registered with a Manchester GP.", "Address": "Windrush Millennium Centre, Alexandra Road, Manchester", "Postcode": "M16 7WD", "Telephone": "0161 226 9562", "Website": "http:\/\/www.manchestercommunitycentral.org\/news\/african-and-caribbean-mental-health-services" }, "geometry": { "type": "Point", "coordinates": [ -2.253404, 53.456426 ] } },
{ "type": "Feature", "properties": { "Name": "Relate Greater Manchester South", "Description": "One to one counselling and relationship service.", "Address": "346 Chester Road, Manchester", "Postcode": "M16 9EZ", "Telephone": "0300 003 2331", "Website": "https:\/\/www.relate.org.uk\/" }, "geometry": { "type": "Point", "coordinates": [ -2.266819, 53.46762 ] } },
{ "type": "Feature", "properties": { "Name": "Talk Listen Change (TLC)", "Description": "Counselling and support services for families, individuals and young people.", "Address": "346 Chester Road, Manchester", "Postcode": "M16 9EZ", "Telephone": "0161 872 1100", "Website": "http:\/\/talklistenchange.org.uk\/" }, "geometry": { "type": "Point", "coordinates": [ -2.266906, 53.467359 ] } },
{ "type": "Feature", "properties": { "Name": "Black Health Agency", "Description": "Offers a range of services for people suffering from health inequalities including mental health.", "Address": "609 Stretford Road, Old Trafford", "Postcode": "M16 0QA", "Telephone": "0845 450 4247", "Website": "https:\/\/www.thebha.org.uk\/" }, "geometry": { "type": "Point", "coordinates": [ -2.274413, 53.462183 ] } },
{ "type": "Feature", "properties": { "Name": "Old Trafford Wellbeing Centre", "Description": "blueSCI offer sessions from Wellbeing Practitioners and offer activities such as arts, crafts and music open to everyone in the community.", "Address": "54-56 Seymour Grove, Old Trafford", "Postcode": "M16 0LN", "Telephone": "0161 912 4828", "Website": "http:\/\/oldtraffordwellbeing.org.uk\/" }, "geometry": { "type": "Point", "coordinates": [ -2.276217, 53.45937 ] } },
{ "type": "Feature", "properties": { "Name": "Trafford Domestic Abuse Service", "Description": "Organisation offering support to both male and female victims of domestic abuse and their families.", "Address": "60 Talbot Road, Manchester", "Postcode": "M16 0PN", "Telephone": "0161 872 7368", "Website": "http:\/\/www.tdas.org.uk\/" }, "geometry": { "type": "Point", "coordinates": [ -2.282318, 53.460874 ] } },
{ "type": "Feature", "properties": { "Name": "Alchemy Arts", "Description": "Offers a range of activities including music sessions, mindfullness courses and confidence course.", "Address": "Oakland House, Talbot Road, Stretford", "Postcode": "M16 0PQ", "Telephone": "0161 232 1617", "Website": "http:\/\/www.alchemyarts.co.uk\/" }, "geometry": { "type": "Point", "coordinates": [ -2.283477, 53.460599 ] } },
{ "type": "Feature", "properties": { "Name": "Voice of BME Trafford", "Description": "Offers advice and signposting to the BME community.", "Address": "Oakland House, Talbot Road, Stretford", "Postcode": "M16 0PQ", "Telephone": "0161 848 7018", "Website": "http:\/\/www.voicebmet.co.uk\/" }, "geometry": { "type": "Point", "coordinates": [ -2.283593, 53.460438 ] } },
{ "type": "Feature", "properties": { "Name": "Trafford Centre for Independent Living", "Description": "Provides services to residents in Trafford who have physical, sensory, learning or mental health impairments.", "Address": "Oakland House, Talbot Road, Stretford", "Postcode": "M16 0PQ", "Telephone": "0161 850 0645", "Website": "https:\/\/www.traffordcil.co.uk\/" }, "geometry": { "type": "Point", "coordinates": [ -2.283774, 53.460292 ] } },
{ "type": "Feature", "properties": { "Name": "Trafford Mental Health Advocacy Service", "Description": "Provides Independent Advocates for qualifiying patients detained under the Mental Health Act.", "Address": "Oakland House, Talbot Road, Stretford", "Postcode": "M16 0PQ", "Telephone": "0161 877 4330", "Website": "https:\/\/www.vcatrafford.org\/TMHAS" }, "geometry": { "type": "Point", "coordinates": [ -2.284032, 53.4603 ] } },
{ "type": "Feature", "properties": { "Name": "CDI Community Counselling Service", "Description": "Qualified counsellors can see people via referral from services or self referral; bilingual counselling for BME groups can be offered.", "Address": "Oakland House, Talbot Road, Stretford", "Postcode": "M16 0PQ", "Telephone": "0161 881 0007", "Website": "http:\/\/www.cdimanchester.org.uk\/counselling.html" }, "geometry": { "type": "Point", "coordinates": [ -2.284135, 53.460138 ] } },
{ "type": "Feature", "properties": { "Name": "South Asian Disability Support Network", "Description": "Network for South Asian families who are affected by disabilities.", "Address": "Oakland House, Talbot Road, Stretford", "Postcode": "M16 0PQ", "Telephone": "0161 870 2322", "Website": "https:\/\/www.trafforddirectory.co.uk\/kb5\/trafford\/fsd\/service.page?id=Ld2fXVy0ZjM&localofferchannel=2_5" }, "geometry": { "type": "Point", "coordinates": [ -2.284418, 53.4602 ] } },
{ "type": "Feature", "properties": { "Name": "Pakistani Resource Centre (Trafford South Asian Mental Health Service)", "Description": "Working with South Asian individuals (aged 18 years and above) experiencing mental ill-health, their carers, families and communities living in Trafford.", "Address": "Broome House, 54-56 Seymour Grove, Old Trafford", "Postcode": "M16 0LN", "Telephone": "0161 434 7800", "Website": "http:\/\/www.pakistani-resource.org.uk\/mental_health_service.html" }, "geometry": { "type": "Point", "coordinates": [ -2.27608, 53.45954 ] } },
{ "type": "Feature", "properties": { "Name": "Trafford eTherapy Service", "Description": "Online therapy courses delivered by Trafford Self Help Services", "Address": "Old Trafford Wellbeing Centre, 54-56 Seymour Grove, Old Trafford", "Postcode": "M16 0LN", "Telephone": "0161 226 3871", "Website": "https:\/\/www.selfhelpservices.org.uk\/" }, "geometry": { "type": "Point", "coordinates": [ -2.27616, 53.459692 ] } },
{ "type": "Feature", "properties": { "Name": "Zion Centre (Peer Support)", "Description": "Peer Support is built on shared personal experience and empathy, focusing on your strengths not weaknesses with the goal of achieving wellbeing and recovery. Available Monday to Friday.", "Address": "339 Stretford Road, Hulme", "Postcode": "M15 4ZY", "Telephone": "0161 226 3871", "Website": "https:\/\/www.selfhelpservices.org.uk\/service\/peer-support\/" }, "geometry": { "type": "Point", "coordinates": [ -2.252901, 53.466414 ] } },
{ "type": "Feature", "properties": { "Name": "Chorlton Anxiety Group", "Description": "This drop-in group offers a sympathetic and non-judgmental space where you can meet others who also struggle with anxiety. Meets on Tuesdays 7-9pm.", "Address": "Chorlton Methodist Church, Manchester Road, Chorlton", "Postcode": "M21 9JG", "Telephone": "0161 226 3871", "Website": "https:\/\/www.selfhelpservices.org.uk\/service\/chorlton-anxiety-group\/" }, "geometry": { "type": "Point", "coordinates": [ -2.282079, 53.441785 ] } },
{ "type": "Feature", "properties": { "Name": "Zion Anxiety Group", "Description": "Drop-in group offering a sympathetic and non-judgmental space where you can meet others who also struggle with anxiety. Meets on Wednesdays 1-3pm.", "Address": "339 Stretford Road, Hulme", "Postcode": "M15 4ZY", "Telephone": "0161 226 3871", "Website": "https:\/\/www.selfhelpservices.org.uk\/service\/zion-anxiety-group\/" }, "geometry": { "type": "Point", "coordinates": [ -2.25238, 53.466491 ] } },
{ "type": "Feature", "properties": { "Name": "Stretford Hearing Voices", "Description": "Support network for people who hear voices. Meets on Thursdays at 2pm.", "Address": "St Francis Church, Edge Lane, Stretford", "Postcode": "M32 8HT", "Telephone": "0790 460 1257", "Website": "http:\/\/www.hearing-voices.org\/groups\/stretford-manchester\/" }, "geometry": { "type": "Point", "coordinates": [ -2.303315, 53.445169 ] } },
{ "type": "Feature", "properties": { "Name": "Autistic Society for the Greater Manchester Area (ASGMA)", "Description": "Offers one to one support and a range of leisure activities for people with autism.", "Address": "1114 Chester Road, Stretford", "Postcode": "M32 0HL", "Telephone": "0161 866 8483", "Website": "http:\/\/www.asgma.org.uk\/" }, "geometry": { "type": "Point", "coordinates": [ -2.30622, 53.447165 ] } },
{ "type": "Feature", "properties": { "Name": "Collaborative Women UK", "Description": "The organisation leads marginalised women along a safe pathway from crisis to independent living. Drop in on Wednesday afternoons.", "Address": "Stretford Library, Kingsway, Stretford", "Postcode": "M32 8AP", "Telephone": "07932 415635", "Website": "http:\/\/www.collaborativewomen.co.uk\/" }, "geometry": { "type": "Point", "coordinates": [ -2.312517, 53.446077 ] } },
{ "type": "Feature", "properties": { "Name": "Homestart", "Description": "The organisation supports families with specific needs with children aged birth to 18 years.", "Address": "Stretford Children's Centre & Early Help Hub, 9 Poplar Road, Stretford", "Postcode": "M32 9AN", "Telephone": "0161 865 4222", "Website": "https:\/\/www.home-start.org.uk\/home-start-trafford-salford" }, "geometry": { "type": "Point", "coordinates": [ -2.313776, 53.441382 ] } },
{ "type": "Feature", "properties": { "Name": "Age UK Trafford (Dementia Service)", "Description": "The dementia advice and support service has two dementia advisers to support people with dementia and their family carers.", "Address": "1-3 Church Road, Urmston", "Postcode": "M41 9EH", "Telephone": "0161 746 3944", "Website": "https:\/\/www.ageuk.org.uk\/trafford\/our-services\/dementia-services\/" }, "geometry": { "type": "Point", "coordinates": [ -2.353239, 53.445965 ] } },
{ "type": "Feature", "properties": { "Name": "Urmston Depression Group (Trafford Self Help Services)", "Description": "Drop in group for people suffering from depression. Meets on Tuesdays 1.30-3.30pm.", "Address": "Urmston Library, Golden Way, Urmston", "Postcode": "M41 0NA", "Telephone": "0161 226 3871", "Website": "https:\/\/www.selfhelpservices.org.uk\/service\/urmston-depression-group\/" }, "geometry": { "type": "Point", "coordinates": [ -2.353897, 53.449552 ] } },
{ "type": "Feature", "properties": { "Name": "Leonard Cheshire Disability", "Description": "Organisation supporting disabled people to live, learn and work as independently as they choose.", "Address": "5 Golden Way, Urmston", "Postcode": "M41 0NA", "Telephone": "0161 747 3512", "Website": "https:\/\/www.leonardcheshire.org\/" }, "geometry": { "type": "Point", "coordinates": [ -2.354541, 53.449443 ] } },
{ "type": "Feature", "properties": { "Name": "The Toy House", "Description": "Play environment where parents and carers can accompany children. Also offers a supportive listening ear to parents and carers. Meets Tuesdays, Wednesdays and Fridays, 9.30-11.30am and 12.30-2.30pm.", "Address": "91 Irlam Road, Flixton", "Postcode": "M41 6AP", "Telephone": "0161 746 8185", "Website": "http:\/\/thetoyhouse.org\/" }, "geometry": { "type": "Point", "coordinates": [ -2.395263, 53.447662 ] } },
{ "type": "Feature", "properties": { "Name": "MacMillan Wellbeing Centre", "Description": "Support centre for people with a cancer diagnosis and their family members or carers who require support. Monthly drop-in sessions take place on the third Wednesday of each month.", "Address": "Trafford General Hospital, Moorside Road, Urmston", "Postcode": "M41 5SL", "Telephone": "0161 746 2080", "Website": "http:\/\/www.macmillancentretrafford.org\/" }, "geometry": { "type": "Point", "coordinates": [ -2.371226, 53.452643 ] } },
{ "type": "Feature", "properties": { "Name": "Being There", "Description": "Small charity providing emotional support and home-based practical help to people with cancer and other life-limiting illnesses.", "Address": "The Macmillan Care Centre, Trafford General Hospital, Moorside Road, Urmston", "Postcode": "M41 5SN", "Telephone": "0845 123 2329", "Website": "http:\/\/beingthere.org.uk\/" }, "geometry": { "type": "Point", "coordinates": [ -2.371917, 53.452557 ] } },
{ "type": "Feature", "properties": { "Name": "Alzheimers Society Trafford", "Description": "Support service for people affected by dementia (carers and people living with a diagnosis).", "Address": "Dunham House, Cross Street, Sale", "Postcode": "M33 7HH", "Telephone": "0161 962 4769", "Website": "https:\/\/www.alzheimers.org.uk\/" }, "geometry": { "type": "Point", "coordinates": [ -2.322126, 53.42897 ] } },
{ "type": "Feature", "properties": { "Name": "Salvation Army", "Description": "The Salvation Army is a worldwide Christian church and registered charity.", "Address": "27 Ashton Lane, Sale", "Postcode": "M33 6NP", "Telephone": "0161 976 4380", "Website": "https:\/\/www.salvationarmy.org.uk\/" }, "geometry": { "type": "Point", "coordinates": [ -2.329711, 53.42623 ] } },
{ "type": "Feature", "properties": { "Name": "Trafford Psychological Therapies", "Description": "Talking therapies for people aged 16 and over who are registered with a GP in Trafford and are currently suffering from anxiety and depression-related problems.", "Address": "1-3 Ashton Lane, Sale", "Postcode": "M33 6WT", "Telephone": "0161 357 1350", "Website": "https:\/\/www.gmmh.nhs.uk\/tpt" }, "geometry": { "type": "Point", "coordinates": [ -2.330324, 53.426219 ] } },
{ "type": "Feature", "properties": { "Name": "Victim Support & Witness Service", "Description": "An independent national charity which helps people cope with crime by providing practical help, information and emotional support.", "Address": "Sale Town Hall, Sale Waterside, Sale", "Postcode": "M33 7ZF", "Telephone": "0161 912 3238", "Website": "https:\/\/www.victimsupport.org.uk\/" }, "geometry": { "type": "Point", "coordinates": [ -2.319314, 53.425127 ] } },
{ "type": "Feature", "properties": { "Name": "Talkshop Trafford", "Description": "Advice and information service for young people aged between 13 and 19 years old (up to 25 depending on circumstances).", "Address": "Sale Waterside, Sale", "Postcode": "M33 7ZF", "Telephone": "0161 912 2453", "Website": "https:\/\/www.trafforddirectory.co.uk\/kb5\/trafford\/fsd\/service.page?id=axGZQC-KNbQ" }, "geometry": { "type": "Point", "coordinates": [ -2.319938, 53.425084 ] } },
{ "type": "Feature", "properties": { "Name": "Trafford Carers Centre", "Description": "Charity which supports unpaid carers looking after people living in Trafford.", "Address": "19B School Road, Sale", "Postcode": "M33 7XX", "Telephone": "0161 848 2402", "Website": "http:\/\/www.traffordcarerscentre.org.uk\/" }, "geometry": { "type": "Point", "coordinates": [ -2.321125, 53.424899 ] } },
{ "type": "Feature", "properties": { "Name": "Dance System CIC", "Description": "Dance and meditation course to boost confidence and improve wellbeing - £30 for 6 week course.", "Address": "Sale High School, Norris Road, Sale", "Postcode": "M33 3JR", "Telephone": "07411 400 141", "Website": "https:\/\/www.dancesystem.co.uk\/" }, "geometry": { "type": "Point", "coordinates": [ -2.305235, 53.414169 ] } },
{ "type": "Feature", "properties": { "Name": "Parent Support Group", "Description": "Drop in at the Life Centre cafe on Fridays 10am-12pm for mothers experiencing postnatal depression, anxiety or loneliness", "Address": "Life Centre, Washway Road, Sale.", "Postcode": "M33 4BP", "Telephone": "0161 866 8483", "Website": "https:\/\/www.trafforddirectory.co.uk\/kb5\/trafford\/fsd\/service.page?id=SwcwUSJPFS0" }, "geometry": { "type": "Point", "coordinates": [ -2.334586, 53.416695 ] } },
{ "type": "Feature", "properties": { "Name": "New Way Forward", "Description": "The organisation provides a range of activities to support mental health including one to one sessions, art and craft group and group sessions for men and women.", "Address": "The Avenue Methodist Church, Wincham Road, Sale", "Postcode": "M33 4PL", "Telephone": "0161 962 0487", "Website": "http:\/\/www.newwayforwardtrafford.org\/" }, "geometry": { "type": "Point", "coordinates": [ -2.341423, 53.414682 ] } },
{ "type": "Feature", "properties": { "Name": "Coppice Library and Wellbeing Centre", "Description": "blueSCI offer sessions from Wellbeing Practitioners and offer activities such as arts, crafts and music open to everyone in the community.", "Address": "Coppice Avenue, Sale", "Postcode": "M33 4ND", "Telephone": "0161 912 3560", "Website": "http:\/\/coppicelibraryandwellbeing.org.uk\/" }, "geometry": { "type": "Point", "coordinates": [ -2.348685, 53.41484 ] } },
{ "type": "Feature", "properties": { "Name": "Sporting Memories", "Description": "Monthly meet-up for over 50s and those living with dememtia to reminisce about sporting memories. Last Monday of every month 10.30am-12noon.", "Address": "Sale West Community Centre, Newbury Avenue, Sale", "Postcode": "M33 4QW", "Telephone": "0161 868 6859", "Website": "http:\/\/www.sportingmemoriesnetwork.com\/d1367\/sale_sporting_memories_group" }, "geometry": { "type": "Point", "coordinates": [ -2.356671, 53.418598 ] } },
{ "type": "Feature", "properties": { "Name": "Ear4U (listening ear service)", "Description": "Listening Ear service for residents feeling lonely or isolated.", "Address": "Moss Lane, Partington", "Postcode": "M31 4FA", "Telephone": "07816 952 464", "Website": "https:\/\/www.trafforddirectory.co.uk\/kb5\/trafford\/fsd\/service.page?id=OK1YvvzD86g" }, "geometry": { "type": "Point", "coordinates": [ -2.420843, 53.415076 ] } },
{ "type": "Feature", "properties": { "Name": "Partington Library & Wellbeing Centre", "Description": "blueSCI offer sessions from Wellbeing Practitioners and offer activities such as arts, crafts and music open to everyone in the community.", "Address": "Central Road, Partington", "Postcode": "M31 4FL", "Telephone": "0161 775 1912", "Website": "http:\/\/partingtonlibraryandwellbeing.org.uk\/" }, "geometry": { "type": "Point", "coordinates": [ -2.425598, 53.417851 ] } },
{ "type": "Feature", "properties": { "Name": "Creative Support", "Description": "Care and support services for people with learning disabilities, mental health needs and complex needs.", "Address": "1 Malton Drive, Altrincham", "Postcode": "WA14 4LW", "Telephone": "0161 236 0829", "Website": "http:\/\/www.creativesupport.co.uk\/" }, "geometry": { "type": "Point", "coordinates": [ -2.371908, 53.393459 ] } },
{ "type": "Feature", "properties": { "Name": "Altrincham Anxiety Group (Trafford Self Help Services)", "Description": "Drop in group on Mondays 2-4pm for people suffering with anxiety.", "Address": "Altrincham Methodist Church, Barrington Road, Altrincham", "Postcode": "WA154 1HF", "Telephone": "0161 226 3871", "Website": "https:\/\/www.selfhelpservices.org.uk\/service\/altrincham-anxiety-group\/" }, "geometry": { "type": "Point", "coordinates": [ -2.349538, 53.390123 ] } },
{ "type": "Feature", "properties": { "Name": "Open Studios CIC", "Description": "Art classes and workshops with a focus on working with people with mental health conditions.", "Address": "47\/49 Stamford New Road, Altrincham", "Postcode": "WA14 1DS", "Telephone": "07873 263 271", "Website": "https:\/\/www.openstudiosaltrincham.co.uk\/" }, "geometry": { "type": "Point", "coordinates": [ -2.349797, 53.385998 ] } },
{ "type": "Feature", "properties": { "Name": "The Counselling and Family Centre", "Description": "Offers one to one counselling services and Cognitive Behavioural Therapy, and group sessions.", "Address": "40 Mayor's Road, Altrincham", "Postcode": "WA15 9RP", "Telephone": "0161 941 7754", "Website": "http:\/\/www.thecfc.org.uk\/" }, "geometry": { "type": "Point", "coordinates": [ -2.342488, 53.384941 ] } },
{ "type": "Feature", "properties": { "Name": "Dance System CIC", "Description": "Dance and wellbeing course to boost self esteem and confidence, mindfullness and meditation - £45 for 8 week course", "Address": "Altrincham Football Club, Community Sports Hall, Moss Lane, Altrincham", "Postcode": "WA15 8AP", "Telephone": "07411 400 141", "Website": "https:\/\/www.dancesystem.co.uk\/essentia-dance-and-wellbeing-course" }, "geometry": { "type": "Point", "coordinates": [ -2.335795, 53.383215 ] } },
{ "type": "Feature", "properties": { "Name": "Larkhill Demetia Cafe (Later Life Living)", "Description": "Meet up for people affected by dementia and their families and friends on alternate Saturdays 9.15am-12.15pm", "Address": "The Larkhill Centre, Thorley Lane, Timperley", "Postcode": "WA15 7AZ", "Telephone": "0161 980 0864", "Website": "http:\/\/www.larkhillcentre.org.uk\/" }, "geometry": { "type": "Point", "coordinates": [ -2.31862, 53.395805 ] } },
{ "type": "Feature", "properties": { "Name": "Broomwood Wellbeing Centre", "Description": "blueSCI offer sessions from Wellbeing Practitioners and offer activities such as arts, crafts and music open to everyone in the community.", "Address": "Mainwood Road, Altrincham", "Postcode": "WA15 7JU", "Telephone": "0161 980 0720", "Website": "http:\/\/broomwoodwellbeingcentre.org.uk\/" }, "geometry": { "type": "Point", "coordinates": [ -2.307814, 53.391508 ] } },
{ "type": "Feature", "properties": { "Name": "G-Force", "Description": "Listening ear services, activities such as arts and crafts and Men in Sheds project to reduce isolation.", "Address": "65 Briarfield Road, Altrincham", "Postcode": "WA15 7DD", "Telephone": "0161 980 2879", "Website": "http:\/\/www.g-force.org.uk\/" }, "geometry": { "type": "Point", "coordinates": [ -2.311584, 53.392497 ] } },
{ "type": "Feature", "properties": { "Name": "Being There", "Description": "Small charity providing emotional support and home-based practical help to people with cancer and other life-limiting illnesses.", "Address": "Neil Cliffe Centre, Wythenshawe Hospital, Southmoor Road, Manchester", "Postcode": "M23 9LT", "Telephone": "0845 123 2329", "Website": "http:\/\/beingthere.org.uk\/" }, "geometry": { "type": "Point", "coordinates": [ -2.29034, 53.390348 ] } },
{ "type": "Feature", "properties": { "Name": "United Response", "Description": "Provides a range of support services for adults and young people with learning disabilities, autism, mental health needs or physical disabilities.", "Address": "1 Cornish Close, Manchester", "Postcode": "M22 0GJ", "Telephone": "0161 436 3848", "Website": "https:\/\/www.unitedresponse.org.uk\/" }, "geometry": { "type": "Point", "coordinates": [ -2.261802, 53.373375 ] } },
{ "type": "Feature", "properties": { "Name": "Manchester Rape Crisis", "Description": "We are women who provide confidential support services for women and girls who have experienced sexual violence at any time in their lives. Apart from our helpline all services are for women over the age of 18. The helpline is open to all ages.", "Address": "203 Outwood Road, Heald Green, Cheadle", "Postcode": "SK8 3JS", "Telephone": "0161 273 4500", "Website": "http:\/\/www.manchesterrapecrisis.co.uk\/" }, "geometry": { "type": "Point", "coordinates": [ -2.231155, 53.36647 ] } },
{ "type": "Feature", "properties": { "Name": "Samaritans", "Description": "Offers a safe place for people to talk about anything worrying them.", "Address": "72-74 Oxford Street, Manchester", "Postcode": "M1 5NH", "Telephone": "0161 236 8000", "Website": "https:\/\/www.samaritans.org\/branches\/manchester-and-salford-samaritans" }, "geometry": { "type": "Point", "coordinates": [ -2.241545, 53.474012 ] } },
{ "type": "Feature", "properties": { "Name": "Target Cafe", "Description": "The cafe meets every other Saturday and is open to people of all ages who require the support to stay free from drugs and alcohol.", "Address": "Gorse Hill Methodist Church, Wesley Street, Stretford", "Postcode": "M32 0FP", "Telephone": "07501 441 072", "Website": "https:\/\/targetcommunitycafe.weebly.com\/contact.html" }, "geometry": { "type": "Point", "coordinates": [ -2.306673, 53.446697 ] } }
]
}
