{
"type": "FeatureCollection",
"crs": { "type": "name", "properties": { "name": "urn:ogc:def:crs:OGC:1.3:CRS84" } },
"features": [
{ "type": "Feature", "properties": { "name": "Smile Creator Dental Surgery", "type": "Dentist", "address": "332-334 Norris Road, Sale", "postcode": "M33 2UG", "telephone": 1619699907.0, "website": null, "area_name": "Trafford", "area_code": "E0800009" }, "geometry": { "type": "Point", "coordinates": [ -2.2994, 53.414594 ] } },
{ "type": "Feature", "properties": { "name": "Poppies Dental Care", "type": "Dentist", "address": "24 Urmston Lane, Stretford, Manchester", "postcode": "M32 9BP", "telephone": 1618651633.0, "website": null, "area_name": "Trafford", "area_code": "E0800009" }, "geometry": { "type": "Point", "coordinates": [ -2.315487, 53.445617 ] } },
{ "type": "Feature", "properties": { "name": "Revive Dental Care - Circle OOH", "type": "Dentist", "address": "10 Davyhulme Circle, Urmston, Manchester", "postcode": "M41 0SS", "telephone": 1617469029.0, "website": "http:\/\/www.revivedentalcare.co.uk", "area_name": "Trafford", "area_code": "E0800009" }, "geometry": { "type": "Point", "coordinates": [ -2.356522, 53.457445 ] } },
{ "type": "Feature", "properties": { "name": "Crescent Dental Care", "type": "Dentist", "address": "2 Crescent Road, Hale, Altrincham", "postcode": "WA15 9NA", "telephone": 1619298111.0, "website": "http:\/\/www.crescentdentalcare-hale.co.uk", "area_name": "Trafford", "area_code": "E0800009" }, "geometry": { "type": "Point", "coordinates": [ -2.343866, 53.374573 ] } },
{ "type": "Feature", "properties": { "name": "Ash Villa Dental Practice", "type": "Dentist", "address": "2 Harboro Way, Sale", "postcode": "M33 6QX", "telephone": 1619736890.0, "website": "http:\/\/www.ashvilladental.com", "area_name": "Trafford", "area_code": "E0800009" }, "geometry": { "type": "Point", "coordinates": [ -2.3339, 53.420586 ] } },
{ "type": "Feature", "properties": { "name": "Calm Dental Care", "type": "Dentist", "address": "132c Flixton Road, Urmston, Manchester", "postcode": "M41 5BG", "telephone": 1617476841.0, "website": "http:\/\/www.calmdentalcare.co.uk", "area_name": "Trafford", "area_code": "E0800009" }, "geometry": { "type": "Point", "coordinates": [ -2.362664, 53.448267 ] } },
{ "type": "Feature", "properties": { "name": "Lotus Orthodontics", "type": "Dentist", "address": "12a Market Street, Altrincham", "postcode": "WA14 1QB", "telephone": null, "website": "http:\/\/www.lotusorthodontics.com", "area_name": "Trafford", "area_code": "E0800009" }, "geometry": { "type": "Point", "coordinates": [ -2.351254, 53.38842 ] } },
{ "type": "Feature", "properties": { "name": "Circle Dental", "type": "Dentist", "address": "16a The Circle, Barton Road, Stretford, Manchester", "postcode": "M32 9TR", "telephone": 1617482605.0, "website": "http:\/\/www.circledental.com", "area_name": "Trafford", "area_code": "E0800009" }, "geometry": { "type": "Point", "coordinates": [ -2.336501, 53.456569 ] } },
{ "type": "Feature", "properties": { "name": "Simkins Dental Care", "type": "Dentist", "address": "7 Lostock Road, Davyhulme, Manchester", "postcode": "M41 0SU", "telephone": 1617483378.0, "website": null, "area_name": "Trafford", "area_code": "E0800009" }, "geometry": { "type": "Point", "coordinates": [ -2.35454, 53.458028 ] } },
{ "type": "Feature", "properties": { "name": "Hale Family Dental Centre", "type": "Dentist", "address": "1a Cambridge Road, Hale, Altrincham", "postcode": "WA15 9SY", "telephone": 1619281380.0, "website": "http:\/\/www.halefamilydental.co.uk", "area_name": "Trafford", "area_code": "E0800009" }, "geometry": { "type": "Point", "coordinates": [ -2.342935, 53.376518 ] } },
{ "type": "Feature", "properties": { "name": "Gary Knowles Dental Practice", "type": "Dentist", "address": "Partington Health Centre, Central Road, Partington, Manchester", "postcode": "M31 4FL", "telephone": 1617759053.0, "website": null, "area_name": "Trafford", "area_code": "E0800009" }, "geometry": { "type": "Point", "coordinates": [ -2.425053, 53.417437 ] } },
{ "type": "Feature", "properties": { "name": "The Square Advanced Dental Care", "type": "Dentist", "address": "2 Hollins House, 327 Hale Road, Hale Barns, Altrincham", "postcode": "WA15 8TS", "telephone": 7921040842.0, "website": "http:\/\/www.thesquaredental.com", "area_name": "Trafford", "area_code": "E0800009" }, "geometry": { "type": "Point", "coordinates": [ -2.312745, 53.369473 ] } },
{ "type": "Feature", "properties": { "name": "Grays Dental Care", "type": "Dentist", "address": "62 Manchester Road, Altrincham", "postcode": "WA14 4PJ", "telephone": 1619281813.0, "website": "http:\/\/www.graysdental.co.uk", "area_name": "Trafford", "area_code": "E0800009" }, "geometry": { "type": "Point", "coordinates": [ -2.35188, 53.394981 ] } },
{ "type": "Feature", "properties": { "name": "Mr C Carre BDS Dental Practice", "type": "Dentist", "address": "Upper Unit 43, Stretford Mall, Manchester", "postcode": "M32 9BB", "telephone": 1618652431.0, "website": null, "area_name": "Trafford", "area_code": "E0800009" }, "geometry": { "type": "Point", "coordinates": [ -2.310817, 53.445206 ] } },
{ "type": "Feature", "properties": { "name": "KS Dental Sale Manchester", "type": "Dentist", "address": "331 Washway Road, Sale", "postcode": "M33 4EE", "telephone": 1619732753.0, "website": null, "area_name": "Trafford", "area_code": "E0800009" }, "geometry": { "type": "Point", "coordinates": [ -2.337966, 53.413385 ] } },
{ "type": "Feature", "properties": { "name": "Dental Practice - Manchester Road", "type": "Dentist", "address": "63 Manchester Road, Altrincham", "postcode": "WA14 4RH", "telephone": 1619282886.0, "website": null, "area_name": "Trafford", "area_code": "E0800009" }, "geometry": { "type": "Point", "coordinates": [ -2.352566, 53.396022 ] } },
{ "type": "Feature", "properties": { "name": "Greenwood Dental Practice", "type": "Dentist", "address": "16 Greenwood Street, Altrincham", "postcode": "WA14 1RZ", "telephone": 1612330610.0, "website": "http:\/\/www.greenwooddental.co.uk", "area_name": "Trafford", "area_code": "E0800009" }, "geometry": { "type": "Point", "coordinates": [ -2.352158, 53.38672 ] } },
{ "type": "Feature", "properties": { "name": "The Dental Treatment Centre", "type": "Dentist", "address": "436 Flixton Road, Flixton, Manchester", "postcode": "M41 6QT", "telephone": 1617482490.0, "website": "http:\/\/www.clickdentist.co.uk", "area_name": "Trafford", "area_code": "E0800009" }, "geometry": { "type": "Point", "coordinates": [ -2.384388, 53.44448 ] } },
{ "type": "Feature", "properties": { "name": "Regent Dental Centre", "type": "Dentist", "address": "22 Regent Road, Altrincham", "postcode": "WA14 1RP", "telephone": 1619412143.0, "website": "http:\/\/www.regentdentalcentre.co.uk", "area_name": "Trafford", "area_code": "E0800009" }, "geometry": { "type": "Point", "coordinates": [ -2.352258, 53.386045 ] } },
{ "type": "Feature", "properties": { "name": "Bupa - Stockport Road, Timperley", "type": "Dentist", "address": "415 Stockport Road, Timperley, Altrincham", "postcode": "WA15 7XR", "telephone": 1619808010.0, "website": null, "area_name": "Trafford", "area_code": "E0800009" }, "geometry": { "type": "Point", "coordinates": [ -2.315515, 53.398597 ] } },
{ "type": "Feature", "properties": { "name": "Bupa - Washway Road, Sale", "type": "Dentist", "address": "23 Washway Road, Sale", "postcode": "M33 7AD", "telephone": 1619695513.0, "website": "http:\/\/www.haddonlodgedental.co.uk", "area_name": "Trafford", "area_code": "E0800009" }, "geometry": { "type": "Point", "coordinates": [ -2.325507, 53.424941 ] } },
{ "type": "Feature", "properties": { "name": "Firswood Dental Practice", "type": "Dentist", "address": "90-92 Warwick Road South, Firswood, Manchester", "postcode": "M16 0HU", "telephone": null, "website": null, "area_name": "Trafford", "area_code": "E0800009" }, "geometry": { "type": "Point", "coordinates": [ -2.281641, 53.452335 ] } },
{ "type": "Feature", "properties": { "name": "Sale Moor Dental Practice", "type": "Dentist", "address": "15 Marsland Road, Sale", "postcode": "M33 3HP", "telephone": 1619629990.0, "website": null, "area_name": "Trafford", "area_code": "E0800009" }, "geometry": { "type": "Point", "coordinates": [ -2.304805, 53.41929 ] } },
{ "type": "Feature", "properties": { "name": "Green Lane Dental Practice", "type": "Dentist", "address": "46 Green Lane, Ashton-on-Mersey, Sale", "postcode": "M33 5PP", "telephone": 1619733802.0, "website": null, "area_name": "Trafford", "area_code": "E0800009" }, "geometry": { "type": "Point", "coordinates": [ -2.341857, 53.429643 ] } },
{ "type": "Feature", "properties": { "name": "Butterfly Dental Care Limited - Altrincham", "type": "Dentist", "address": "17 Barrington Road, Altrincham", "postcode": "WA14 1HP", "telephone": 1619412048.0, "website": null, "area_name": "Trafford", "area_code": "E0800009" }, "geometry": { "type": "Point", "coordinates": [ -2.348577, 53.391872 ] } },
{ "type": "Feature", "properties": { "name": "Ellesmere Dental Practice", "type": "Dentist", "address": "70 Ellesmere Road, Altrincham", "postcode": "WA14 1JD", "telephone": 1619291009.0, "website": null, "area_name": "Trafford", "area_code": "E0800009" }, "geometry": { "type": "Point", "coordinates": [ -2.349202, 53.394746 ] } },
{ "type": "Feature", "properties": { "name": "Manchester Dental", "type": "Dentist", "address": "154 Flixton Road, Urmston, Manchester", "postcode": "M41 5BG", "telephone": 1617482674.0, "website": "http:\/\/www.manchesterdental.co.uk", "area_name": "Trafford", "area_code": "E0800009" }, "geometry": { "type": "Point", "coordinates": [ -2.362664, 53.448267 ] } },
{ "type": "Feature", "properties": { "name": "Bupa - Northenden Road, Sale Moor", "type": "Dentist", "address": "116 Northenden Road, Sale", "postcode": "M33 3HD", "telephone": 1619736356.0, "website": "http:\/\/www.salemoordentist.co.uk", "area_name": "Trafford", "area_code": "E0800009" }, "geometry": { "type": "Point", "coordinates": [ -2.306545, 53.420551 ] } },
{ "type": "Feature", "properties": { "name": "DCO Dental Group - Sale", "type": "Dentist", "address": "1 Hope Road, Sale", "postcode": "M33 3AB", "telephone": 1619627465.0, "website": "http:\/\/www.dcodental.co.uk", "area_name": "Trafford", "area_code": "E0800009" }, "geometry": { "type": "Point", "coordinates": [ -2.319176, 53.423511 ] } },
{ "type": "Feature", "properties": { "name": "DCO Dental Group - Timperley", "type": "Dentist", "address": "The Lakes Medical Centre, 53C Mainwood Road, Timperley, Altrincham", "postcode": "WA15 7JW", "telephone": 1619806745.0, "website": "http:\/\/www.dcodental.co.uk", "area_name": "Trafford", "area_code": "E0800009" }, "geometry": { "type": "Point", "coordinates": [ -2.312943, 53.392375 ] } },
{ "type": "Feature", "properties": { "name": "Ayres Road Dental Surgery", "type": "Dentist", "address": "151 Ayres Road, Old Trafford, Manchester", "postcode": "M16 9WR", "telephone": 1618721695.0, "website": null, "area_name": "Trafford", "area_code": "E0800009" }, "geometry": { "type": "Point", "coordinates": [ -2.271872, 53.457679 ] } },
{ "type": "Feature", "properties": { "name": "Ellesmere Endodontic Centre", "type": "Dentist", "address": "70 Ellesmere Road, Altrincham", "postcode": "WA14 1JD", "telephone": 1619269535.0, "website": null, "area_name": "Trafford", "area_code": "E0800009" }, "geometry": { "type": "Point", "coordinates": [ -2.349202, 53.394746 ] } },
{ "type": "Feature", "properties": { "name": "Delahays Dental Practice", "type": "Dentist", "address": "2 Delahays Drive, Hale, Altrincham", "postcode": "WA15 8DP", "telephone": 1619805019.0, "website": null, "area_name": "Trafford", "area_code": "E0800009" }, "geometry": { "type": "Point", "coordinates": [ -2.323197, 53.376312 ] } },
{ "type": "Feature", "properties": { "name": "Sale Dental Care", "type": "Dentist", "address": "77 Washway Road, Sale", "postcode": "M33 7TQ", "telephone": 1619697432.0, "website": "http:\/\/www.saledentalspa.co.uk", "area_name": "Trafford", "area_code": "E0800009" }, "geometry": { "type": "Point", "coordinates": [ -2.329303, 53.42158 ] } },
{ "type": "Feature", "properties": { "name": "Hale Bowden Dental Practice", "type": "Dentist", "address": "118 Ashley Road, Hale, Altrincham", "postcode": "WA14 2UN", "telephone": null, "website": null, "area_name": "Trafford", "area_code": "E0800009" }, "geometry": { "type": "Point", "coordinates": [ -2.349039, 53.378531 ] } },
{ "type": "Feature", "properties": { "name": "Turret Orthodontics Practice", "type": "Dentist", "address": "258 Washway road, Sale", "postcode": "M33 4RZ", "telephone": 1619733501.0, "website": null, "area_name": "Trafford", "area_code": "E0800009" }, "geometry": { "type": "Point", "coordinates": [ -2.335899, 53.416537 ] } },
{ "type": "Feature", "properties": { "name": "Barrington Dental Care", "type": "Dentist", "address": "23A Barrington Road, Altrincham", "postcode": "WA14 1HP", "telephone": null, "website": null, "area_name": "Trafford", "area_code": "E0800009" }, "geometry": { "type": "Point", "coordinates": [ -2.348577, 53.391872 ] } },
{ "type": "Feature", "properties": { "name": "KS Dental", "type": "Dentist", "address": "55 Flixton Road, Urmston, Manchester", "postcode": "M41 5AN", "telephone": 1617484473.0, "website": null, "area_name": "Trafford", "area_code": "E0800009" }, "geometry": { "type": "Point", "coordinates": [ -2.358598, 53.44803 ] } },
{ "type": "Feature", "properties": { "name": "Kissdental Flixton", "type": "Dentist", "address": "157 Woodsend Road, Flixton, Manchester", "postcode": "M41 8GN", "telephone": 1617485250.0, "website": "http:\/\/www.kissdental.co.uk", "area_name": "Trafford", "area_code": "E0800009" }, "geometry": { "type": "Point", "coordinates": [ -2.393504, 53.455039 ] } },
{ "type": "Feature", "properties": { "name": "Kissdental Altrincham", "type": "Dentist", "address": "2 New Street, Altrincham", "postcode": "WA14 2QS", "telephone": 1619281628.0, "website": "http:\/\/www.kissdental.co.uk", "area_name": "Trafford", "area_code": "E0800009" }, "geometry": { "type": "Point", "coordinates": [ -2.354115, 53.385292 ] } },
{ "type": "Feature", "properties": { "name": "Timperley Village Dental Practice", "type": "Dentist", "address": "273 Stockport Road, Timperley, Altrincham", "postcode": "WA15 7SP", "telephone": 1619803485.0, "website": null, "area_name": "Trafford", "area_code": "E0800009" }, "geometry": { "type": "Point", "coordinates": [ -2.323207, 53.395555 ] } },
{ "type": "Feature", "properties": { "name": "Manor Dental Practice", "type": "Dentist", "address": "216 Washway Road, Sale", "postcode": "M33 4RA", "telephone": 1619733501.0, "website": null, "area_name": "Trafford", "area_code": "E0800009" }, "geometry": { "type": "Point", "coordinates": [ -2.332836, 53.419231 ] } },
{ "type": "Feature", "properties": { "name": "Claremont Dental Surgery", "type": "Dentist", "address": "11 Claremont Road, Sale", "postcode": "M33 7DZ", "telephone": 1619690434.0, "website": null, "area_name": "Trafford", "area_code": "E0800009" }, "geometry": { "type": "Point", "coordinates": [ -2.321359, 53.425646 ] } },
{ "type": "Feature", "properties": { "name": "The Dental Team", "type": "Dentist", "address": "858 Chester Road, Stretford, Manchester", "postcode": "M32 0QJ", "telephone": 7969333461.0, "website": null, "area_name": "Trafford", "area_code": "E0800009" }, "geometry": { "type": "Point", "coordinates": [ -2.297611, 53.455685 ] } },
{ "type": "Feature", "properties": { "name": "Brooklands Dental Surgery", "type": "Dentist", "address": "203 Marsland Road, Sale", "postcode": "M33 3ND", "telephone": 1619620066.0, "website": null, "area_name": "Trafford", "area_code": "E0800009" }, "geometry": { "type": "Point", "coordinates": [ -2.320468, 53.417325 ] } },
{ "type": "Feature", "properties": { "name": "Re-Enhance Limited", "type": "Clinic|Dentist", "address": "Progress House, 17 Cecil Road, Hale, Altrincham", "postcode": "WA15 9NZ", "telephone": 1619299530.0, "website": null, "area_name": "Trafford", "area_code": "E0800009" }, "geometry": { "type": "Point", "coordinates": [ -2.346183, 53.376688 ] } },
{ "type": "Feature", "properties": { "name": "KS Dental Care Limited", "type": "Dentist", "address": "331 Washway Road, Sale", "postcode": "M33 4EE", "telephone": 1619732753.0, "website": null, "area_name": "Trafford", "area_code": "E0800009" }, "geometry": { "type": "Point", "coordinates": [ -2.337966, 53.413385 ] } },
{ "type": "Feature", "properties": { "name": "Hale Dental Clinic", "type": "Dentist", "address": "163a Ashley Road, Hale, Altrincham", "postcode": "WA15 9SD", "telephone": 8456046448.0, "website": null, "area_name": "Trafford", "area_code": "E0800009" }, "geometry": { "type": "Point", "coordinates": [ -2.346371, 53.377613 ] } },
{ "type": "Feature", "properties": { "name": "Crescent Dental Care", "type": "Dentist", "address": "2 Crescent Road, Hale, Altrincham", "postcode": "WA15 9NA", "telephone": 1619298111.0, "website": "http:\/\/www.crescentdentalcare-hale.co.uk", "area_name": "Trafford", "area_code": "E0800009" }, "geometry": { "type": "Point", "coordinates": [ -2.343866, 53.374573 ] } },
{ "type": "Feature", "properties": { "name": "Trafford Dental Centre", "type": "Dentist", "address": "86 Davyhulme Road East, Stretford, Manchester", "postcode": "M32 0DJ", "telephone": 1618654629.0, "website": "http:\/\/www.smartdentalcare.co.uk", "area_name": "Trafford", "area_code": "E0800009" }, "geometry": { "type": "Point", "coordinates": [ -2.309059, 53.451988 ] } },
{ "type": "Feature", "properties": { "name": "Goose Green Dental", "type": "Dentist", "address": "5 Goose Green, Altrincham", "postcode": "WA14 1DW", "telephone": 1619284882.0, "website": null, "area_name": "Trafford", "area_code": "E0800009" }, "geometry": { "type": "Point", "coordinates": [ -2.350554, 53.385457 ] } },
{ "type": "Feature", "properties": { "name": "Brooks Bar Dental Practice", "type": "Dentist", "address": "176 Chorlton Road, Manchester", "postcode": "M16 7WW", "telephone": 1612262841.0, "website": null, "area_name": "Trafford", "area_code": "E0800009" }, "geometry": { "type": "Point", "coordinates": [ -2.258524, 53.459478 ] } },
{ "type": "Feature", "properties": { "name": "Stretford Road Dental Practice", "type": "Dentist", "address": "13 Stretford Road, Urmston, Manchester", "postcode": "M41 9JY", "telephone": 1617475375.0, "website": null, "area_name": "Trafford", "area_code": "E0800009" }, "geometry": { "type": "Point", "coordinates": [ -2.351459, 53.445957 ] } }
]
}
