{
"type": "FeatureCollection",
"crs": { "type": "name", "properties": { "name": "urn:ogc:def:crs:OGC:1.3:CRS84" } },
"features": [
{ "type": "Feature", "properties": { "name": "Lime Square Medical Centre", "alias": null, "cqc_id": "1-199784675", "tel": 1613710678.0, "address": "Lime Square, Ashton Old Road, Manchester", "postcode": "M11 1DA", "area_name": "Manchester", "area_code": "E08000003" }, "geometry": { "type": "Point", "coordinates": [ -2.164901, 53.473649 ] } },
{ "type": "Feature", "properties": { "name": "ABL Health Limited", "alias": null, "cqc_id": "1-780038013", "tel": 1204570999.0, "address": "71 Redgate Way, Farnworth, Bolton", "postcode": "BL4 0JL", "area_name": "Bolton", "area_code": "E08000001" }, "geometry": { "type": "Point", "coordinates": [ -2.429374, 53.550328 ] } },
{ "type": "Feature", "properties": { "name": "Nuffield Health Wellbeing Centre Manchester", "alias": null, "cqc_id": "1-102643516", "tel": 1618738112.0, "address": "East Pavilion, Harbour City, Salford", "postcode": "M50 3SP", "area_name": "Salford", "area_code": "E08000006" }, "geometry": { "type": "Point", "coordinates": [ -2.290235, 53.473779 ] } },
{ "type": "Feature", "properties": { "name": "Huntley Mount Medical Centre", "alias": null, "cqc_id": "1-1098199366", "tel": 1617616677.0, "address": "Huntley Mount Road, Bury", "postcode": "BL9 6JA", "area_name": "Bury", "area_code": "E08000002" }, "geometry": { "type": "Point", "coordinates": [ -2.27859, 53.600201 ] } },
{ "type": "Feature", "properties": { "name": "Samedaydoctor Manchester Clinic", "alias": null, "cqc_id": "1-281960460", "tel": 1618277868.0, "address": "28 Queen Street, Manchester", "postcode": "M2 5HX", "area_name": "Manchester", "area_code": "E08000003" }, "geometry": { "type": "Point", "coordinates": [ -2.247283, 53.479455 ] } },
{ "type": "Feature", "properties": { "name": "Manchester Orthopaedic Clinical Services", "alias": null, "cqc_id": "1-1079874105", "tel": 1617070110.0, "address": "19 Ellesmere Road, Eccles, Manchester", "postcode": "M30 9JY", "area_name": "Salford", "area_code": "E08000006" }, "geometry": { "type": "Point", "coordinates": [ -2.340837, 53.490371 ] } },
{ "type": "Feature", "properties": { "name": "Skin Medical Manchester", "alias": null, "cqc_id": "1-101634797", "tel": 1618397663.0, "address": "20 St Ann's Square, Manchester", "postcode": "M2 7HG", "area_name": "Manchester", "area_code": "E08000003" }, "geometry": { "type": "Point", "coordinates": [ -2.246198, 53.48219 ] } },
{ "type": "Feature", "properties": { "name": "Doctorcall Manchester", "alias": null, "cqc_id": "1-115033705", "tel": 8442579507.0, "address": "2-4 Exchange Street, St Ann's Square, Manchester", "postcode": "M2 7HA", "area_name": "Manchester", "area_code": "E08000003" }, "geometry": { "type": "Point", "coordinates": [ -2.245632, 53.48284 ] } },
{ "type": "Feature", "properties": { "name": "Rochdale Ophthalmology Clinical Assessment and Treatment Service", "alias": null, "cqc_id": "1-116865921", "tel": 8450774124.0, "address": "The Croft Shifa, Belfield Road, Rochdale", "postcode": "OL16 2UP", "area_name": "Rochdale", "area_code": "E08000005" }, "geometry": { "type": "Point", "coordinates": [ -2.14084, 53.622824 ] } },
{ "type": "Feature", "properties": { "name": "St Andrews House Medical Centre", "alias": null, "cqc_id": "1-199787250", "tel": 1613383181.0, "address": "Stalybridge Resource Centre, 2 Waterloo Road, Stalybridge", "postcode": "SK15 2AU", "area_name": "Tameside", "area_code": "E08000008" }, "geometry": { "type": "Point", "coordinates": [ -2.059094, 53.484668 ] } },
{ "type": "Feature", "properties": { "name": "Willowbank Surgery", "alias": null, "cqc_id": "1-1269736179", "tel": 1612059240.0, "address": "1 Church Lane, Harpurhey, Manchester", "postcode": "M9 4WH", "area_name": "Manchester", "area_code": "E08000003" }, "geometry": { "type": "Point", "coordinates": [ -2.208318, 53.50993 ] } },
{ "type": "Feature", "properties": { "name": "MASTA Travel Clinic - Manchester", "alias": null, "cqc_id": "1-101726655", "tel": 3301004131.0, "address": "STA Manchester, Unit 6, Barton Arcade, 556 Deansgate, Manchester", "postcode": "M3 2BW", "area_name": "Manchester", "area_code": "E08000003" }, "geometry": { "type": "Point", "coordinates": [ -2.246759, 53.482209 ] } },
{ "type": "Feature", "properties": { "name": "Seven Brooks Medical Centre", "alias": null, "cqc_id": "1-1455850967", "tel": 1942483933.0, "address": "21 Church Street, Atherton, Manchester", "postcode": "M46 9DE", "area_name": "Wigan", "area_code": "E08000010" }, "geometry": { "type": "Point", "coordinates": [ -2.489022, 53.524185 ] } },
{ "type": "Feature", "properties": { "name": "Laserase Bolton Limited", "alias": null, "cqc_id": "1-141656414", "tel": 1204570900.0, "address": "71 Redgate Way, Farnworth, Bolton", "postcode": "BL4 0JL", "area_name": "Bolton", "area_code": "E08000001" }, "geometry": { "type": "Point", "coordinates": [ -2.429374, 53.550328 ] } },
{ "type": "Feature", "properties": { "name": "Jarvis Medical Practice - GPCC", "alias": null, "cqc_id": "1-1543643284", "tel": 1616229220.0, "address": "137 Glodwick Road, Oldham", "postcode": "OL4 1YN", "area_name": "Oldham", "area_code": "E08000004" }, "geometry": { "type": "Point", "coordinates": [ -2.095095, 53.537786 ] } },
{ "type": "Feature", "properties": { "name": "The Dale Medical Practice", "alias": null, "cqc_id": "1-1599007781", "tel": 1706261900.0, "address": "2nd Floor Nye Bevan House, Maclure Road, Rochdale", "postcode": "OL11 1DN", "area_name": "Rochdale", "area_code": "E08000005" }, "geometry": { "type": "Point", "coordinates": [ -2.154239, 53.611617 ] } },
{ "type": "Feature", "properties": { "name": "Little Lever Health Centre", "alias": null, "cqc_id": "1-1467332505", "tel": 1204462988.0, "address": "Mytham Road, Little Lever, Bolton", "postcode": "BL3 1JF", "area_name": "Bolton", "area_code": "E08000001" }, "geometry": { "type": "Point", "coordinates": [ -2.370624, 53.559818 ] } },
{ "type": "Feature", "properties": { "name": "Nuffield Health Manchester Printworks Fitness and Wellbeing Centre", "alias": null, "cqc_id": "1-102643516", "tel": 1614646947.0, "address": "The Printworks, 27 Withy Grove, Manchester", "postcode": "M4 2BS", "area_name": "Manchester", "area_code": "E08000003" }, "geometry": { "type": "Point", "coordinates": [ -2.240778, 53.485169 ] } },
{ "type": "Feature", "properties": { "name": "Ultima Vitality", "alias": null, "cqc_id": "1-1769942713", "tel": 1614347373.0, "address": "718A Wilmslow Road, Manchester", "postcode": "M20 2DW", "area_name": "Manchester", "area_code": "E08000003" }, "geometry": { "type": "Point", "coordinates": [ -2.231744, 53.417567 ] } },
{ "type": "Feature", "properties": { "name": "Thornley House Medical Centre", "alias": null, "cqc_id": "1-1794137932", "tel": 1613671791.0, "address": "Thornley Street, Hyde", "postcode": "SK14 1JY", "area_name": "Tameside", "area_code": "E08000008" }, "geometry": { "type": "Point", "coordinates": [ -2.076116, 53.446746 ] } },
{ "type": "Feature", "properties": { "name": "THMG Manchester Clinic", "alias": null, "cqc_id": "1-1794840188", "tel": 2072919700.0, "address": "The Chambers, Police Street, Manchester", "postcode": "M2 7LQ", "area_name": "Manchester", "area_code": "E08000003" }, "geometry": { "type": "Point", "coordinates": [ -2.246709, 53.481544 ] } },
{ "type": "Feature", "properties": { "name": "Hollinwood Medical Practice", "alias": null, "cqc_id": "1-199810820", "tel": 1616277900.0, "address": "1 Clive Street, Oldham", "postcode": "OL8 3TR", "area_name": "Oldham", "area_code": "E08000004" }, "geometry": { "type": "Point", "coordinates": [ -2.128466, 53.521996 ] } },
{ "type": "Feature", "properties": { "name": "Whiteson Hair Loss Consultancy Ltd", "alias": null, "cqc_id": "1-101725307", "tel": 7970859229.0, "address": "The Old Hall Clinic, 14 Old Hall Road, Gatley", "postcode": "SK8 4BE", "area_name": "Stockport", "area_code": "E08000007" }, "geometry": { "type": "Point", "coordinates": [ -2.234427, 53.393814 ] } },
{ "type": "Feature", "properties": { "name": "Lees Medical Practice", "alias": null, "cqc_id": "1-199785433", "tel": 1616521285.0, "address": "Lees Medical Practice, Athens Way, Lees, Oldham", "postcode": "OL4 3BP", "area_name": "Oldham", "area_code": "E08000004" }, "geometry": { "type": "Point", "coordinates": [ -2.074881, 53.540281 ] } },
{ "type": "Feature", "properties": { "name": "Star Clinic", "alias": null, "cqc_id": "1-158826172", "tel": 8717054565.0, "address": "Milton Hall, 244 Deansgate, Manchester", "postcode": "M3 4BQ", "area_name": "Manchester", "area_code": "E08000003" }, "geometry": { "type": "Point", "coordinates": [ -2.250049, 53.477977 ] } },
{ "type": "Feature", "properties": { "name": "Shevington Surgery", "alias": null, "cqc_id": "1-2054708264", "tel": 1942483777.0, "address": "Houghton   Lane, Shavington, Wigan", "postcode": "WN6 8ET", "area_name": "Wigan", "area_code": "E08000010" }, "geometry": { "type": "Point", "coordinates": [ -2.69942, 53.574041 ] } },
{ "type": "Feature", "properties": { "name": "Seven Brooks Medical Centre", "alias": null, "cqc_id": "1-2054708264", "tel": 1942884026.0, "address": "21 Church Street, Atherton, Wigan", "postcode": "M46 9DE", "area_name": "Wigan", "area_code": "E08000010" }, "geometry": { "type": "Point", "coordinates": [ -2.489022, 53.524185 ] } },
{ "type": "Feature", "properties": { "name": "Pemberton Surgery", "alias": null, "cqc_id": "1-2054708264", "tel": 8444779459.0, "address": "Sherwood Drive, Wigan", "postcode": "WN5 9QX", "area_name": "Wigan", "area_code": "E08000010" }, "geometry": { "type": "Point", "coordinates": [ -2.669739, 53.538311 ] } },
{ "type": "Feature", "properties": { "name": "NE Consultancy", "alias": null, "cqc_id": "1-2093651201", "tel": 1613378086.0, "address": "223-225 Stockport Road, Guide Bridge, Ashton Under Lyne", "postcode": "OL7 0NT", "area_name": "Tameside", "area_code": "E08000008" }, "geometry": { "type": "Point", "coordinates": [ -2.1126, 53.476468 ] } },
{ "type": "Feature", "properties": { "name": "Grasmere Surgery", "alias": null, "cqc_id": "1-2079218909", "tel": 1942483330.0, "address": "Leigh Health Centre, The Avenue, Leigh", "postcode": "WN7 1HR", "area_name": "Wigan", "area_code": "E08000010" }, "geometry": { "type": "Point", "coordinates": [ -2.511455, 53.503236 ] } },
{ "type": "Feature", "properties": { "name": "Oaklands Hospital", "alias": null, "cqc_id": "1-302081610", "tel": 1617877700.0, "address": "19 Lancaster Road, Salford", "postcode": "M6 8AQ", "area_name": "Salford", "area_code": "E08000006" }, "geometry": { "type": "Point", "coordinates": [ -2.321064, 53.492297 ] } },
{ "type": "Feature", "properties": { "name": "The Jalal Practice", "alias": null, "cqc_id": "1-2072110897", "tel": 1616213443.0, "address": "Integrated Care Centre, New Radcliffe Street, Oldham", "postcode": "OL1 1NL", "area_name": "Oldham", "area_code": "E08000004" }, "geometry": { "type": "Point", "coordinates": [ -2.116945, 53.543824 ] } },
{ "type": "Feature", "properties": { "name": "Bryn Cross Surgery", "alias": null, "cqc_id": "1-1993339166", "tel": 1942727270.0, "address": "246 Wigan Road, Ashton In Makerfield, Wigan", "postcode": "WN4 0AR", "area_name": "Wigan", "area_code": "E08000010" }, "geometry": { "type": "Point", "coordinates": [ -2.64744, 53.500897 ] } },
{ "type": "Feature", "properties": { "name": "Eccles Gateway", "alias": null, "cqc_id": "1-2103767480", "tel": 1612124231.0, "address": "Eccles Gateway, 28 Barton Lane, Eccles", "postcode": "M30 0TU", "area_name": "Salford", "area_code": "E08000006" }, "geometry": { "type": "Point", "coordinates": [ -2.339314, 53.48253 ] } },
{ "type": "Feature", "properties": { "name": "The Medical Centre", "alias": null, "cqc_id": "1-2215373526", "tel": 1614387106.0, "address": "The Etihad Campus, CFA - First Team Centre, 161 Clayton Lane, Manchester", "postcode": "M11 4TS", "area_name": "Manchester", "area_code": "E08000003" }, "geometry": { "type": "Point", "coordinates": [ -2.186364, 53.478993 ] } },
{ "type": "Feature", "properties": { "name": "DHI Manchester", "alias": null, "cqc_id": "1-1788251795", "tel": 1618393769.0, "address": "Suite 3C & 3D, Floor 3, Blackfriars House, Parsonage,, Manchester", "postcode": "M3 2JA", "area_name": "Manchester", "area_code": "E08000003" }, "geometry": { "type": "Point", "coordinates": [ -2.247865, 53.483375 ] } },
{ "type": "Feature", "properties": { "name": "10 St John Street", "alias": null, "cqc_id": "1-101635738", "tel": 2074862277.0, "address": "10 St John Street, Manchester", "postcode": "M3 4DY", "area_name": "Manchester", "area_code": "E08000003" }, "geometry": { "type": "Point", "coordinates": [ -2.25092, 53.477812 ] } },
{ "type": "Feature", "properties": { "name": "BL Medical Practice", "alias": null, "cqc_id": "1-2175188122", "tel": 1614269464.0, "address": "Woodley Health Centre, Hyde Road, Stockport", "postcode": "SK6 1ND", "area_name": "Stockport", "area_code": "E08000007" }, "geometry": { "type": "Point", "coordinates": [ -2.099661, 53.426289 ] } },
{ "type": "Feature", "properties": { "name": "Face & Eye", "alias": null, "cqc_id": "1-443753979", "tel": 1619472720.0, "address": "2 Gibwood Road, Manchester", "postcode": "M22 4BT", "area_name": "Manchester", "area_code": "E08000003" }, "geometry": { "type": "Point", "coordinates": [ -2.266591, 53.405584 ] } },
{ "type": "Feature", "properties": { "name": "Ashton Medical Centre", "alias": null, "cqc_id": "1-2243873064", "tel": 1942727325.0, "address": "120 Wigan Road, Ashton In Makerfield, Wigan", "postcode": "WN4 9SU", "area_name": "Wigan", "area_code": "E08000010" }, "geometry": { "type": "Point", "coordinates": [ -2.642855, 53.494792 ] } },
{ "type": "Feature", "properties": { "name": "Lower Ince Surgery", "alias": null, "cqc_id": "1-2243873064", "tel": 1942481140.0, "address": "Clare Houae, Phoenix Way, Ince, Wigan", "postcode": "WN3 4NW", "area_name": "Wigan", "area_code": "E08000010" }, "geometry": { "type": "Point", "coordinates": [ -2.614585, 53.534922 ] } },
{ "type": "Feature", "properties": { "name": "Ince Surgery", "alias": null, "cqc_id": "1-2243873064", "tel": 1942483150.0, "address": "Ince Community Centre, Manchester Road, Ince, Wigan", "postcode": "WN2 2DJ", "area_name": "Wigan", "area_code": "E08000010" }, "geometry": { "type": "Point", "coordinates": [ -2.604008, 53.543362 ] } },
{ "type": "Feature", "properties": { "name": "Braithwaite Road Surgery", "alias": null, "cqc_id": "1-2243873064", "tel": 1942718221.0, "address": "36 Braithwaite Road, Lowton, Warrington", "postcode": "WA3 2HY", "area_name": "Wigan", "area_code": "E08000010" }, "geometry": { "type": "Point", "coordinates": [ -2.574985, 53.477412 ] } },
{ "type": "Feature", "properties": { "name": "Astley General Practice", "alias": null, "cqc_id": "1-2243873064", "tel": 1942876339.0, "address": "391A Manchester Road, Astley, Tyldesley, Manchester", "postcode": "M29 7BY", "area_name": "Wigan", "area_code": "E08000010" }, "geometry": { "type": "Point", "coordinates": [ -2.458266, 53.500415 ] } },
{ "type": "Feature", "properties": { "name": "3D Medical Centre", "alias": null, "cqc_id": "1-2243873064", "tel": 1204463246.0, "address": "200-202 Deane Road, Bolton", "postcode": "BL3 5DP", "area_name": "Bolton", "area_code": "E08000001" }, "geometry": { "type": "Point", "coordinates": [ -2.443963, 53.573058 ] } },
{ "type": "Feature", "properties": { "name": "Bolton General Practice", "alias": null, "cqc_id": "1-2244021771", "tel": 1204521000.0, "address": "Marsden House, Marsden Road, Bolton", "postcode": "BL1 2AY", "area_name": "Bolton", "area_code": "E08000001" }, "geometry": { "type": "Point", "coordinates": [ -2.43424, 53.578947 ] } },
{ "type": "Feature", "properties": { "name": "The Heights General Practice", "alias": null, "cqc_id": "1-2244021771", "tel": 1617365282.0, "address": "355 Bolton Road, Salford", "postcode": "M6 7NJ", "area_name": "Salford", "area_code": "E08000006" }, "geometry": { "type": "Point", "coordinates": [ -2.308735, 53.500671 ] } },
{ "type": "Feature", "properties": { "name": "Bolton Medical Centre", "alias": null, "cqc_id": "1-2244021771", "tel": 1204463900.0, "address": "21 Rupert Street, Bolton", "postcode": "BL3 6PY", "area_name": "Bolton", "area_code": "E08000001" }, "geometry": { "type": "Point", "coordinates": [ -2.431399, 53.56543 ] } },
{ "type": "Feature", "properties": { "name": "Nuffield Health Manchester Diagnostic Suite", "alias": null, "cqc_id": "1-102643516", "tel": 7557296378.0, "address": "City Labs, Nelson Street, Manchester", "postcode": "M13 9NQ", "area_name": "Manchester", "area_code": "E08000003" }, "geometry": { "type": "Point", "coordinates": [ -2.228478, 53.462228 ] } },
{ "type": "Feature", "properties": { "name": "Beehive Surgery", "alias": null, "cqc_id": "1-2064573585", "tel": 1204550100.0, "address": "106-108 Crescent Road, Bolton", "postcode": "BL3 2JR", "area_name": "Bolton", "area_code": "E08000001" }, "geometry": { "type": "Point", "coordinates": [ -2.419172, 53.564161 ] } },
{ "type": "Feature", "properties": { "name": "Urmston Group Practice", "alias": null, "cqc_id": "1-199787408", "tel": 1617559870.0, "address": "6 Woodsend Crescent Road, Urmston, Manchester", "postcode": "M41 8AA", "area_name": "Trafford", "area_code": "E08000009" }, "geometry": { "type": "Point", "coordinates": [ -2.394066, 53.452491 ] } },
{ "type": "Feature", "properties": { "name": "Fernclough Surgery", "alias": null, "cqc_id": "1-1269736179", "tel": null, "address": "Unit 1, Tavistock Square, Harpurhey, Machester", "postcode": "M9 5RD", "area_name": "Manchester", "area_code": "E08000003" }, "geometry": { "type": "Point", "coordinates": [ -2.216154, 53.50589 ] } },
{ "type": "Feature", "properties": { "name": "Veincentre Manchester (3-5 St John Street)", "alias": null, "cqc_id": "1-136108318", "tel": 1782753960.0, "address": "2nd Floor Suite, 3-5 St John Street, Manchester", "postcode": "M3 4DN", "area_name": "Manchester", "area_code": "E08000003" }, "geometry": { "type": "Point", "coordinates": [ -2.250814, 53.477436 ] } },
{ "type": "Feature", "properties": { "name": "Deane Medical Centre", "alias": null, "cqc_id": "1-2446445327", "tel": 7905046240.0, "address": "155-157 Deane Road, Bolton", "postcode": "BL3 5AH", "area_name": "Bolton", "area_code": "E08000001" }, "geometry": { "type": "Point", "coordinates": [ -2.441983, 53.572699 ] } },
{ "type": "Feature", "properties": { "name": "Heaton Medical Centre", "alias": null, "cqc_id": "1-2446445327", "tel": 1204843677.0, "address": "2 Lucy Street, Bolton", "postcode": "BL1 5PU", "area_name": "Bolton", "area_code": "E08000001" }, "geometry": { "type": "Point", "coordinates": [ -2.46832, 53.587976 ] } },
{ "type": "Feature", "properties": { "name": "Primrose Surgery", "alias": null, "cqc_id": "1-199787456", "tel": 1617472424.0, "address": "59 Old Crofts Bank, Urmston, Manchester", "postcode": "M41 7AB", "area_name": "Trafford", "area_code": "E08000009" }, "geometry": { "type": "Point", "coordinates": [ -2.357311, 53.456159 ] } },
{ "type": "Feature", "properties": { "name": "Cheetham Hill Medical Centre", "alias": null, "cqc_id": "1-2418354863", "tel": 7951725356.0, "address": "244 Cheetham Hill Road, Manchester", "postcode": "M8 8AU", "area_name": "Manchester", "area_code": "E08000003" }, "geometry": { "type": "Point", "coordinates": [ -2.235847, 53.500819 ] } },
{ "type": "Feature", "properties": { "name": "The Neville Family Medical Centre", "alias": null, "cqc_id": "1-2428350755", "tel": 1617214865.0, "address": "25 Old Market Street, Blackley, Manchester", "postcode": "M9 8DX", "area_name": "Manchester", "area_code": "E08000003" }, "geometry": { "type": "Point", "coordinates": [ -2.220629, 53.522771 ] } },
{ "type": "Feature", "properties": { "name": "Direct Medicare UK Limited", "alias": null, "cqc_id": "1-2464425273", "tel": 16119624625.0, "address": "Bodmin Road Health Centre, Bodmin Road, Sale", "postcode": "M33 5JH", "area_name": "Trafford", "area_code": "E08000009" }, "geometry": { "type": "Point", "coordinates": [ -2.351718, 53.428123 ] } },
{ "type": "Feature", "properties": { "name": "Ashton 7 Day Access Hub", "alias": null, "cqc_id": "1-2460997239", "tel": 1613427000.0, "address": "Ashton Primary Care Centre, 193 Old Street, Ashton-Under-Lyne", "postcode": "OL6 7SR", "area_name": "Tameside", "area_code": "E08000008" }, "geometry": { "type": "Point", "coordinates": [ -2.099213, 53.486097 ] } },
{ "type": "Feature", "properties": { "name": "Hyde 7 Day Access Hub", "alias": null, "cqc_id": "1-2460997239", "tel": 7533992822.0, "address": "Haughton Thornley Medical Centre, Thornley House, Thornley Street, Hyde", "postcode": "SK14 1JY", "area_name": "Tameside", "area_code": "E08000008" }, "geometry": { "type": "Point", "coordinates": [ -2.076116, 53.446746 ] } },
{ "type": "Feature", "properties": { "name": "Cheetham Hill Medical Centre", "alias": null, "cqc_id": "1-2162142726", "tel": null, "address": "244 Cheetham Hill Road, Cheetham Hill, Manchester", "postcode": "M8 8UP", "area_name": "Manchester", "area_code": "E08000003" }, "geometry": { "type": "Point", "coordinates": [ -2.23526, 53.501162 ] } },
{ "type": "Feature", "properties": { "name": "Conran Medical Centre", "alias": null, "cqc_id": "1-2162142726", "tel": null, "address": "77 Church Lane, Harpurhey, Manchester", "postcode": "M9 1BA", "area_name": "Manchester", "area_code": "E08000003" }, "geometry": { "type": "Point", "coordinates": [ -2.210459, 53.515913 ] } },
{ "type": "Feature", "properties": { "name": "North Manchester General Hospital-Outpatients A", "alias": null, "cqc_id": "1-2162142726", "tel": null, "address": "Delaunays Road, Manchester", "postcode": "M8 5RB", "area_name": "Manchester", "area_code": "E08000003" }, "geometry": { "type": "Point", "coordinates": [ -2.229502, 53.517882 ] } },
{ "type": "Feature", "properties": { "name": "Integrated Care Centre", "alias": null, "cqc_id": "1-2517173072", "tel": 1616224294.0, "address": "New Radcliffe Street, Oldham", "postcode": "OL1 1NL", "area_name": "Oldham", "area_code": "E08000004" }, "geometry": { "type": "Point", "coordinates": [ -2.116945, 53.543824 ] } },
{ "type": "Feature", "properties": { "name": "Royton Health & Wellbeing Centre", "alias": null, "cqc_id": "1-2517173072", "tel": null, "address": "Park Street, Royton, Oldham", "postcode": "OL2 6QW", "area_name": "Oldham", "area_code": "E08000004" }, "geometry": { "type": "Point", "coordinates": [ -2.121594, 53.566109 ] } },
{ "type": "Feature", "properties": { "name": "Keppel Building", "alias": null, "cqc_id": "1-2517173072", "tel": 1616224294.0, "address": "Ashton Road West, Failsworth, Oldham", "postcode": "M35 0AD", "area_name": "Oldham", "area_code": "E08000004" }, "geometry": { "type": "Point", "coordinates": [ -2.156747, 53.509855 ] } },
{ "type": "Feature", "properties": { "name": "New Islington Medical Practice", "alias": null, "cqc_id": "1-2592533415", "tel": 1612725660.0, "address": "Old Mill Street, Ancoats, Manchester", "postcode": "M4 6EE", "area_name": "Manchester", "area_code": "E08000003" }, "geometry": { "type": "Point", "coordinates": [ -2.219472, 53.4829 ] } },
{ "type": "Feature", "properties": { "name": "Jolly Medical Centre", "alias": null, "cqc_id": "1-2726837618", "tel": 1617409864.0, "address": "72 Crescent Road, Manchester", "postcode": "M8 9NT", "area_name": "Manchester", "area_code": "E08000003" }, "geometry": { "type": "Point", "coordinates": [ -2.240026, 53.512118 ] } },
{ "type": "Feature", "properties": { "name": "Werneth Medical Practice", "alias": null, "cqc_id": "1-2734765353", "tel": 1616205677.0, "address": "76A Windsor Road, Oldham", "postcode": "OL8 4AL", "area_name": "Oldham", "area_code": "E08000004" }, "geometry": { "type": "Point", "coordinates": [ -2.126938, 53.53497 ] } },
{ "type": "Feature", "properties": { "name": "Newlands Medical Centre", "alias": null, "cqc_id": "1-2728940060", "tel": 1204846909.0, "address": "315 Chorley New Road, Bolton", "postcode": "BL1 5BP", "area_name": "Bolton", "area_code": "E08000001" }, "geometry": { "type": "Point", "coordinates": [ -2.46548, 53.579477 ] } },
{ "type": "Feature", "properties": { "name": "Crown Clinic Limited", "alias": null, "cqc_id": "1-213602415", "tel": 1614374333.0, "address": "Ground Floor, Global House, Bailey Lane, Manchester Airport, Manchester", "postcode": "M90 4AB", "area_name": "Manchester", "area_code": "E08000003" }, "geometry": { "type": "Point", "coordinates": [ -2.273202, 53.371565 ] } },
{ "type": "Feature", "properties": { "name": "Springfield Medical Centre", "alias": null, "cqc_id": "1-199786119", "tel": 1618712450.0, "address": "384 Liverpool Road, Eccles, Manchester", "postcode": "M30 8QD", "area_name": "Salford", "area_code": "E08000006" }, "geometry": { "type": "Point", "coordinates": [ -2.362019, 53.480252 ] } },
{ "type": "Feature", "properties": { "name": "Springfield Surgery", "alias": null, "cqc_id": "1-2791824315", "tel": 1614265252.0, "address": "24-28 Commercial Road, Hazel Grove, Stockport", "postcode": "SK7 4AA", "area_name": "Stockport", "area_code": "E08000007" }, "geometry": { "type": "Point", "coordinates": [ -2.122229, 53.382377 ] } },
{ "type": "Feature", "properties": { "name": "Woodley Village Surgery", "alias": null, "cqc_id": "1-2242269292", "tel": 1614269494.0, "address": "Hyde Road, Woodley, Stockport", "postcode": "SK6 1ND", "area_name": "Stockport", "area_code": "E08000007" }, "geometry": { "type": "Point", "coordinates": [ -2.099661, 53.426289 ] } },
{ "type": "Feature", "properties": { "name": "Brookdale Surgery", "alias": null, "cqc_id": "1-2440411955", "tel": 1616814265.0, "address": "202 Droylsden Road, Manchester", "postcode": "M40 1NZ", "area_name": "Manchester", "area_code": "E08000003" }, "geometry": { "type": "Point", "coordinates": [ -2.174181, 53.499199 ] } },
{ "type": "Feature", "properties": { "name": "The Pike Practice", "alias": null, "cqc_id": "1-2243873064", "tel": 1457832861.0, "address": "Market Place, Mossley, Ashton Under Lyne", "postcode": "OL5 0HE", "area_name": "Tameside", "area_code": "E08000008" }, "geometry": { "type": "Point", "coordinates": [ -2.045643, 53.517861 ] } },
{ "type": "Feature", "properties": { "name": "Halliwell Health Centre", "alias": null, "cqc_id": "1-2446445327", "tel": 1204546124.0, "address": "Lindfield Drive, Bolton", "postcode": "BL1 3RG", "area_name": "Bolton", "area_code": "E08000001" }, "geometry": { "type": "Point", "coordinates": [ -2.431738, 53.588322 ] } },
{ "type": "Feature", "properties": { "name": "John Street Medical Practice", "alias": null, "cqc_id": "1-199810820", "tel": null, "address": "1 John Street, Oldham", "postcode": "OL8 1DF", "area_name": "Oldham", "area_code": "E08000004" }, "geometry": { "type": "Point", "coordinates": [ -2.119272, 53.540449 ] } },
{ "type": "Feature", "properties": { "name": "The Village Medical Practice", "alias": null, "cqc_id": "1-199810820", "tel": null, "address": "High Street, Shaw, Oldham", "postcode": "OL2 8ST", "area_name": "Oldham", "area_code": "E08000004" }, "geometry": { "type": "Point", "coordinates": [ -2.095994, 53.574817 ] } },
{ "type": "Feature", "properties": { "name": "Hilton House Medical", "alias": null, "cqc_id": "1-2915837323", "tel": 3339000150.0, "address": "Hilton House, Irwell Street, Bury", "postcode": "BL9 0HZ", "area_name": "Bury", "area_code": "E08000002" }, "geometry": { "type": "Point", "coordinates": [ -2.302129, 53.593394 ] } },
{ "type": "Feature", "properties": { "name": "Westleigh Medical Centre", "alias": null, "cqc_id": "1-2695307118", "tel": 1942607627.0, "address": "4-12 Westleigh Lane, Leigh", "postcode": "WN7 5JE", "area_name": "Wigan", "area_code": "E08000010" }, "geometry": { "type": "Point", "coordinates": [ -2.526024, 53.510851 ] } },
{ "type": "Feature", "properties": { "name": "Pikes Lane Centre", "alias": null, "cqc_id": "1-3017418265", "tel": null, "address": "Deane Road, Bolton", "postcode": "BL3 5HP", "area_name": "Bolton", "area_code": "E08000001" }, "geometry": { "type": "Point", "coordinates": [ -2.446348, 53.572728 ] } },
{ "type": "Feature", "properties": { "name": "AMS Clinic Manchester", "alias": null, "cqc_id": "1-1144786341", "tel": null, "address": "Dr Bokhari and Partners (Cheetham Hill Medical Centre), 244 Cheetham Hill Road, Manchester", "postcode": "M8 8UP", "area_name": "Manchester", "area_code": "E08000003" }, "geometry": { "type": "Point", "coordinates": [ -2.23526, 53.501162 ] } },
{ "type": "Feature", "properties": { "name": "The Private Clinic Limited - Manchester", "alias": null, "cqc_id": "1-2729792896", "tel": 1618339393.0, "address": "25 St John Street, Manchester", "postcode": "M3 4DT", "area_name": "Manchester", "area_code": "E08000003" }, "geometry": { "type": "Point", "coordinates": [ -2.251916, 53.477731 ] } },
{ "type": "Feature", "properties": { "name": "The Village Medical Centre", "alias": null, "cqc_id": "1-199810199", "tel": 1706370666.0, "address": "Peel Street, Littleborough", "postcode": "OL15 8AQ", "area_name": "Rochdale", "area_code": "E08000005" }, "geometry": { "type": "Point", "coordinates": [ -2.097994, 53.642757 ] } },
{ "type": "Feature", "properties": { "name": "Cherry Medical Practice", "alias": null, "cqc_id": "1-3175804469", "tel": 1612125380.0, "address": "Little Hulton Health Centre, Haysbrook Avenue, Worsley, Manchester", "postcode": "M28 0AY", "area_name": "Salford", "area_code": "E08000006" }, "geometry": { "type": "Point", "coordinates": [ -2.423902, 53.529872 ] } },
{ "type": "Feature", "properties": { "name": "BMI The Alexandra Hospital", "alias": null, "cqc_id": "1-302081610", "tel": 1142632136.0, "address": "Mill Lane, Cheadle", "postcode": "SK8 2PX", "area_name": "Stockport", "area_code": "E08000007" }, "geometry": { "type": "Point", "coordinates": [ -2.215828, 53.397264 ] } },
{ "type": "Feature", "properties": { "name": "Dr Davis's Medical Practice", "alias": null, "cqc_id": "1-3077913394", "tel": 1612125050.0, "address": "1st Floor Newbury Place Health Centre, 55 Rigby Street, Salford", "postcode": "M7 4NX", "area_name": "Salford", "area_code": "E08000006" }, "geometry": { "type": "Point", "coordinates": [ -2.260516, 53.507103 ] } },
{ "type": "Feature", "properties": { "name": "The Hospital Group-Abbey Pines", "alias": null, "cqc_id": "1-2850567794", "tel": null, "address": "192 Altrincham Road, Manchester", "postcode": "M22 4RZ", "area_name": "Manchester", "area_code": "E08000003" }, "geometry": { "type": "Point", "coordinates": [ -2.252758, 53.393866 ] } },
{ "type": "Feature", "properties": { "name": "The Hospital Group-Colwyn Chambers", "alias": null, "cqc_id": "1-2850567794", "tel": null, "address": "5th Floor, Colwyn Chambers, 19 York Street, Manchester", "postcode": "M2 3BA", "area_name": "Manchester", "area_code": "E08000003" }, "geometry": { "type": "Point", "coordinates": [ -2.239954, 53.480659 ] } },
{ "type": "Feature", "properties": { "name": "Town Hall Surgery", "alias": null, "cqc_id": "1-2912413996", "tel": 1613302125.0, "address": "112 King Street, Dukinfield", "postcode": "SK16 4LD", "area_name": "Tameside", "area_code": "E08000008" }, "geometry": { "type": "Point", "coordinates": [ -2.092973, 53.478374 ] } },
{ "type": "Feature", "properties": { "name": "Kirkholt Medical Practice", "alias": null, "cqc_id": "1-199810820", "tel": 1706261813.0, "address": "Queens Drive, Rochdale", "postcode": "OL11 2NP", "area_name": "Rochdale", "area_code": "E08000005" }, "geometry": { "type": "Point", "coordinates": [ -2.162243, 53.59832 ] } },
{ "type": "Feature", "properties": { "name": "Birtle View Medical Practice", "alias": null, "cqc_id": "1-199810820", "tel": 1706261823.0, "address": "George Street, Heywood", "postcode": "OL10 4PW", "area_name": "Rochdale", "area_code": "E08000005" }, "geometry": { "type": "Point", "coordinates": [ -2.2277, 53.595186 ] } },
{ "type": "Feature", "properties": { "name": "The Kingsway Practice", "alias": null, "cqc_id": "1-199810820", "tel": 1706261866.0, "address": "285A Kingsway, Rochdale", "postcode": "OL16 4AT", "area_name": "Rochdale", "area_code": "E08000005" }, "geometry": { "type": "Point", "coordinates": [ -2.136045, 53.613309 ] } },
{ "type": "Feature", "properties": { "name": "Cornerstone Surgery", "alias": null, "cqc_id": "1-3723825280", "tel": 1204325125.0, "address": "469-471 Chorley Old Road, Bolton", "postcode": "BL1 6AH", "area_name": "Bolton", "area_code": "E08000001" }, "geometry": { "type": "Point", "coordinates": [ -2.457402, 53.588155 ] } },
{ "type": "Feature", "properties": { "name": "Spamedica Limited", "alias": null, "cqc_id": "1-101727990", "tel": 1618300870.0, "address": "SpaMedica House, 43 Churchgate, Bolton", "postcode": "BL1 1HU", "area_name": "Bolton", "area_code": "E08000001" }, "geometry": { "type": "Point", "coordinates": [ -2.425822, 53.57993 ] } },
{ "type": "Feature", "properties": { "name": "Swinton Gateway", "alias": null, "cqc_id": "1-2103767480", "tel": 1612124231.0, "address": "Swinton Gateway, 100 Chorley Road, Swinton, Manchester", "postcode": "M27 6BP", "area_name": "Salford", "area_code": "E08000006" }, "geometry": { "type": "Point", "coordinates": [ -2.342204, 53.512236 ] } },
{ "type": "Feature", "properties": { "name": "Diet UK Bolton", "alias": null, "cqc_id": "1-2695476603", "tel": 1204493975.0, "address": "Newlands Centre, 315 Chorley New Road, Bolton", "postcode": "BL1 5BP", "area_name": "Bolton", "area_code": "E08000001" }, "geometry": { "type": "Point", "coordinates": [ -2.46548, 53.579477 ] } },
{ "type": "Feature", "properties": { "name": "Newbury Green Medical Practice", "alias": null, "cqc_id": "1-199786139", "tel": 1612125050.0, "address": "Newbury Place Health Centre, 55 Rigby Street, Salford", "postcode": "M7 4NX", "area_name": "Salford", "area_code": "E08000006" }, "geometry": { "type": "Point", "coordinates": [ -2.260516, 53.507103 ] } },
{ "type": "Feature", "properties": { "name": "Brooks Bar Medical Centre", "alias": null, "cqc_id": "1-3769470093", "tel": 1612267777.0, "address": "162-164 Chorlton Road, Manchester", "postcode": "M16 7WW", "area_name": "Trafford", "area_code": "E08000009" }, "geometry": { "type": "Point", "coordinates": [ -2.258524, 53.459478 ] } },
{ "type": "Feature", "properties": { "name": "The Birches Medical Centre", "alias": null, "cqc_id": "1-3754445443", "tel": 1617733037.0, "address": "Polefield Road, Prestwich, Manchester", "postcode": "M25 2GN", "area_name": "Bury", "area_code": "E08000002" }, "geometry": { "type": "Point", "coordinates": [ -2.271091, 53.538361 ] } },
{ "type": "Feature", "properties": { "name": "Manchester", "alias": null, "cqc_id": "1-2819608943", "tel": 1618322134.0, "address": "66-68 Bridge Street, Manchester", "postcode": "M3 2RJ", "area_name": "Manchester", "area_code": "E08000003" }, "geometry": { "type": "Point", "coordinates": [ -2.248589, 53.480785 ] } },
{ "type": "Feature", "properties": { "name": "Slag Lane Medical Centre", "alias": null, "cqc_id": "1-3886586691", "tel": 1942715200.0, "address": "216 Slag Lane, Lowton, Warrington", "postcode": "WA3 2EZ", "area_name": "Wigan", "area_code": "E08000010" }, "geometry": { "type": "Point", "coordinates": [ -2.575634, 53.478569 ] } },
{ "type": "Feature", "properties": { "name": "Droylsden Road Family Practice", "alias": null, "cqc_id": "1-199808952", "tel": 1612412723.0, "address": "125 Droylsden Road, Manchester", "postcode": "M40 1NT", "area_name": "Manchester", "area_code": "E08000003" }, "geometry": { "type": "Point", "coordinates": [ -2.175662, 53.499916 ] } },
{ "type": "Feature", "properties": { "name": "Hawkley Brook Medical Practice", "alias": null, "cqc_id": "1-3827975678", "tel": 1942481400.0, "address": "Chandler House, Poolstock Lane, Wigan", "postcode": "WN3 5HL", "area_name": "Wigan", "area_code": "E08000010" }, "geometry": { "type": "Point", "coordinates": [ -2.643772, 53.529393 ] } },
{ "type": "Feature", "properties": { "name": "Heald Green HC 2", "alias": null, "cqc_id": "1-3953270251", "tel": 1614269020.0, "address": "Finney Lane, Heald Green, Cheadle", "postcode": "SK8 3JD", "area_name": "Stockport", "area_code": "E08000007" }, "geometry": { "type": "Point", "coordinates": [ -2.229276, 53.369878 ] } },
{ "type": "Feature", "properties": { "name": "Five Oaks Family Practice", "alias": null, "cqc_id": "1-2162142726", "tel": 1612303035.0, "address": "Oak House, 47 Graham Street, Manchester", "postcode": "M11 3BB", "area_name": "Manchester", "area_code": "E08000003" }, "geometry": { "type": "Point", "coordinates": [ -2.19447, 53.47569 ] } },
{ "type": "Feature", "properties": { "name": "Whitley Road Medical Centre", "alias": null, "cqc_id": "1-2162142726", "tel": 1612654407.0, "address": "1 Whitley Road, Manchester", "postcode": "M40 7QH", "area_name": "Manchester", "area_code": "E08000003" }, "geometry": { "type": "Point", "coordinates": [ -2.2227, 53.49493 ] } },
{ "type": "Feature", "properties": { "name": "Dr Samuel Levenson", "alias": null, "cqc_id": "1-199786402", "tel": 1612125050.0, "address": "Newbury Place Health Centre, 55 Rigby Street, Salford", "postcode": "M7 4NX", "area_name": "Salford", "area_code": "E08000006" }, "geometry": { "type": "Point", "coordinates": [ -2.260516, 53.507103 ] } },
{ "type": "Feature", "properties": { "name": "Windermere Road Surgery", "alias": null, "cqc_id": "1-3972701275", "tel": 1616676609.0, "address": "109-111 Windermere Road, Middleton, Manchester", "postcode": "M24 5WF", "area_name": "Rochdale", "area_code": "E08000005" }, "geometry": { "type": "Point", "coordinates": [ -2.205709, 53.55956 ] } },
{ "type": "Feature", "properties": { "name": "West Gorton Medical Centre", "alias": null, "cqc_id": "1-199784615", "tel": 1612235226.0, "address": "2 Clowes Street, Manchester", "postcode": "M12 5JE", "area_name": "Manchester", "area_code": "E08000003" }, "geometry": { "type": "Point", "coordinates": [ -2.203859, 53.467205 ] } },
{ "type": "Feature", "properties": { "name": "Durnford Medical Centre", "alias": null, "cqc_id": "1-3918137320", "tel": 1616538673.0, "address": "113 Long Street, Middleton, Manchester", "postcode": "M24 6DL", "area_name": "Rochdale", "area_code": "E08000005" }, "geometry": { "type": "Point", "coordinates": [ -2.197033, 53.554038 ] } },
{ "type": "Feature", "properties": { "name": "Ashworth Street Surgery", "alias": null, "cqc_id": "1-3918137320", "tel": 1616538673.0, "address": "85 Spotland Road, Rochdale", "postcode": "OL12 6RT", "area_name": "Rochdale", "area_code": "E08000005" }, "geometry": { "type": "Point", "coordinates": [ -2.165652, 53.619565 ] } },
{ "type": "Feature", "properties": { "name": "Phoenix Centre", "alias": null, "cqc_id": "1-3918137320", "tel": 1616538673.0, "address": "Pine Street, Heywood", "postcode": "OL10 1DT", "area_name": "Rochdale", "area_code": "E08000005" }, "geometry": { "type": "Point", "coordinates": [ -2.2183, 53.591868 ] } },
{ "type": "Feature", "properties": { "name": "Dr Carlos Xavier & Partners", "alias": null, "cqc_id": "1-2899172008", "tel": 1942605135.0, "address": "208C Newton Road, Lowton, Warrington", "postcode": "WA3 2AQ", "area_name": "Wigan", "area_code": "E08000010" }, "geometry": { "type": "Point", "coordinates": [ -2.561051, 53.471942 ] } },
{ "type": "Feature", "properties": { "name": "Woodlands Medical Practice", "alias": null, "cqc_id": "1-4147761088", "tel": 1619621332.0, "address": "9 Maple Road, Brooklands, Manchester", "postcode": "M23 9RL", "area_name": "Manchester", "area_code": "E08000003" }, "geometry": { "type": "Point", "coordinates": [ -2.31213, 53.406624 ] } },
{ "type": "Feature", "properties": { "name": "New Bank Health Centre", "alias": null, "cqc_id": "1-199784783", "tel": 1612775600.0, "address": "339 Stockport Road, Manchester", "postcode": "M12 4JE", "area_name": "Manchester", "area_code": "E08000003" }, "geometry": { "type": "Point", "coordinates": [ -2.204384, 53.460123 ] } },
{ "type": "Feature", "properties": { "name": "Victoria Mill Medical Practice", "alias": null, "cqc_id": "1-2162142726", "tel": 1612654407.0, "address": "Victoria Mill, 10 Lower Vickers Street, Manchester", "postcode": "M40 7LH", "area_name": "Manchester", "area_code": "E08000003" }, "geometry": { "type": "Point", "coordinates": [ -2.214292, 53.489633 ] } },
{ "type": "Feature", "properties": { "name": "Charlestown Medical Practice", "alias": null, "cqc_id": "1-2162142726", "tel": null, "address": "Charlestown Road, Manchester", "postcode": "M9 7ED", "area_name": "Manchester", "area_code": "E08000003" }, "geometry": { "type": "Point", "coordinates": [ -2.186902, 53.52264 ] } },
{ "type": "Feature", "properties": { "name": "Manchester Institute of Health & Performance", "alias": null, "cqc_id": "1-2418354863", "tel": 7951725356.0, "address": "299 Alan Turing Way, Manchester", "postcode": "M11 3BS", "area_name": "Manchester", "area_code": "E08000003" }, "geometry": { "type": "Point", "coordinates": [ -2.191764, 53.477301 ] } },
{ "type": "Feature", "properties": { "name": "Limelight Health and Well-being Hub", "alias": null, "cqc_id": "1-3769470093", "tel": 1612267777.0, "address": "Limelight, 1-3 St Brides Way, Manchester", "postcode": "M16 9NW", "area_name": "Trafford", "area_code": "E08000009" }, "geometry": { "type": "Point", "coordinates": [ -2.261969, 53.461412 ] } },
{ "type": "Feature", "properties": { "name": "Manchester Private Hospital", "alias": null, "cqc_id": "1-3705113743", "tel": 1618277868.0, "address": "New Court, Regents Place, 2 Windsor Street, Salford", "postcode": "M5 4HB", "area_name": "Salford", "area_code": "E08000006" }, "geometry": { "type": "Point", "coordinates": [ -2.278563, 53.479002 ] } },
{ "type": "Feature", "properties": { "name": "West Gorton Medical Centre", "alias": null, "cqc_id": "1-1555716224", "tel": 161223522.0, "address": "2 Clowes Street, Manchester", "postcode": "M12 5JE", "area_name": "Manchester", "area_code": "E08000003" }, "geometry": { "type": "Point", "coordinates": [ -2.203859, 53.467205 ] } },
{ "type": "Feature", "properties": { "name": "Pemberton Surgery", "alias": "Pemberton Hub", "cqc_id": "1-4381552157", "tel": 1942367199.0, "address": "Sherwood Drive, Wigan", "postcode": "WN5 9QX", "area_name": "Wigan", "area_code": "E08000010" }, "geometry": { "type": "Point", "coordinates": [ -2.669739, 53.538311 ] } },
{ "type": "Feature", "properties": { "name": "Ashton Medical Centre", "alias": "Ashton Hub", "cqc_id": "1-4381552157", "tel": 1942727325.0, "address": "120 Wigan Road, Ashton In Makerfield, Wigan", "postcode": "WN4 9SU", "area_name": "Wigan", "area_code": "E08000010" }, "geometry": { "type": "Point", "coordinates": [ -2.642855, 53.494792 ] } },
{ "type": "Feature", "properties": { "name": "Shevington Surgery", "alias": "Shevington Hub", "cqc_id": "1-4381552157", "tel": 1942483777.0, "address": "1 Houghton Lane, Shevington, Wigan", "postcode": "WN6 8ET", "area_name": "Wigan", "area_code": "E08000010" }, "geometry": { "type": "Point", "coordinates": [ -2.69942, 53.574041 ] } },
{ "type": "Feature", "properties": { "name": "Pennygate Medical Practice", "alias": "Pennygate Hub", "cqc_id": "1-4381552157", "tel": 1942807500.0, "address": "109 Ladies Lane, Hindley, Wigan", "postcode": "WN2 2QG", "area_name": "Wigan", "area_code": "E08000010" }, "geometry": { "type": "Point", "coordinates": [ -2.576271, 53.540002 ] } },
{ "type": "Feature", "properties": { "name": "Intrahealth Tyldesley", "alias": "Tyldesley Hub", "cqc_id": "1-4381552157", "tel": 1942481680.0, "address": "Tyldesley Health Centre, Poplar Street, Tyldesley, Manchester", "postcode": "M29 8AX", "area_name": "Wigan", "area_code": "E08000010" }, "geometry": { "type": "Point", "coordinates": [ -2.468999, 53.516715 ] } },
{ "type": "Feature", "properties": { "name": "Bridgewater Medical Centre", "alias": "Bridgewater Hub", "cqc_id": "1-4381552157", "tel": 1942481851.0, "address": "Bridgewater Medical Centre, Henry Street, Leigh", "postcode": "WN7 2PE", "area_name": "Wigan", "area_code": "E08000010" }, "geometry": { "type": "Point", "coordinates": [ -2.511927, 53.493519 ] } },
{ "type": "Feature", "properties": { "name": "Christopher Home", "alias": null, "cqc_id": "1-4381552157", "tel": 1942244000.0, "address": "Wigan Lane, Wigan", "postcode": "WN1 2NN", "area_name": "Wigan", "area_code": "E08000010" }, "geometry": { "type": "Point", "coordinates": [ -2.629091, 53.55774 ] } },
{ "type": "Feature", "properties": { "name": "MYA Clinics Limited (Manchester)", "alias": null, "cqc_id": "1-4338676007", "tel": 1612144790.0, "address": "262 Deansgate, Manchester", "postcode": "M3 4BG", "area_name": "Manchester", "area_code": "E08000003" }, "geometry": { "type": "Point", "coordinates": [ -2.250062, 53.477735 ] } },
{ "type": "Feature", "properties": { "name": "The Bodyline Clinic Limited Stockport", "alias": null, "cqc_id": "1-4472783281", "tel": 8454918750.0, "address": "Heaton House, Heaton Lane, Stockport", "postcode": "SK4 1AQ", "area_name": "Stockport", "area_code": "E08000007" }, "geometry": { "type": "Point", "coordinates": [ -2.164728, 53.40983 ] } },
{ "type": "Feature", "properties": { "name": "The Bodyline Clinic Limited Openshaw", "alias": null, "cqc_id": "1-4472783281", "tel": 8454918750.0, "address": "Unit 1, 1119 Ashton Old Road, Manchester", "postcode": "M11 1AA", "area_name": "Manchester", "area_code": "E08000003" }, "geometry": { "type": "Point", "coordinates": [ -2.172284, 53.473765 ] } },
{ "type": "Feature", "properties": { "name": "The Jolly Medical Centre", "alias": null, "cqc_id": "1-2162142726", "tel": 1617409864.0, "address": "74 Crescent Road, Manchester", "postcode": "M8 9NT", "area_name": "Manchester", "area_code": "E08000003" }, "geometry": { "type": "Point", "coordinates": [ -2.240026, 53.512118 ] } },
{ "type": "Feature", "properties": { "name": "Winstanley Medical Centre", "alias": null, "cqc_id": "1-4381552157", "tel": 1942483213.0, "address": "Holmes House Avenue, Wigan", "postcode": "WN3 6JN", "area_name": "Wigan", "area_code": "E08000010" }, "geometry": { "type": "Point", "coordinates": [ -2.668958, 53.521291 ] } },
{ "type": "Feature", "properties": { "name": "Baguley Clinic", "alias": null, "cqc_id": "1-1539373541", "tel": 161438168.0, "address": "Baguley Clinic, Hall Lane, Manchester", "postcode": "M23 1NA", "area_name": "Manchester", "area_code": "E08000003" }, "geometry": { "type": "Point", "coordinates": [ -2.280504, 53.39409 ] } },
{ "type": "Feature", "properties": { "name": "Longsight Medical Practice", "alias": null, "cqc_id": "1-4476835810", "tel": 1612564488.0, "address": "526-528 Stockport Road, Manchester", "postcode": "M13 0RR", "area_name": "Manchester", "area_code": "E08000003" }, "geometry": { "type": "Point", "coordinates": [ -2.201887, 53.457584 ] } },
{ "type": "Feature", "properties": { "name": "CuRx Operational Base", "alias": null, "cqc_id": "1-2570927684", "tel": 7716090301.0, "address": "The Mezzanine, Junction 21 Business Park, Gorse Street, Chadderton, Oldham", "postcode": "OL9 9QH", "area_name": "Oldham", "area_code": "E08000004" }, "geometry": { "type": "Point", "coordinates": [ -2.15726, 53.53024 ] } },
{ "type": "Feature", "properties": { "name": "Tranquil TMS Limited", "alias": null, "cqc_id": "1-4572494011", "tel": 7935835625.0, "address": "G10 - 5300 Lakeside, Cheadle Royal Business Park, Cheadle", "postcode": "SK8 3GP", "area_name": "Stockport", "area_code": "E08000007" }, "geometry": { "type": "Point", "coordinates": [ -2.223648, 53.380206 ] } },
{ "type": "Feature", "properties": { "name": "Advanced Skin Limited", "alias": null, "cqc_id": "1-4547946543", "tel": 7921850589.0, "address": "Lumiere Building, 38 City Road East, Manchester", "postcode": "M15 4QN", "area_name": "Manchester", "area_code": "E08000003" }, "geometry": { "type": "Point", "coordinates": [ -2.249879, 53.472108 ] } },
{ "type": "Feature", "properties": { "name": "Walkden Gateway", "alias": null, "cqc_id": "1-2103767480", "tel": 1617932500.0, "address": "Walkden Gateway, 2 Smith Street, Worsley, Manchester", "postcode": "M28 3EZ", "area_name": "Salford", "area_code": "E08000006" }, "geometry": { "type": "Point", "coordinates": [ -2.398541, 53.524898 ] } },
{ "type": "Feature", "properties": { "name": "Newbury Place Medical & Retail Centre", "alias": null, "cqc_id": "1-2103767480", "tel": 1612125050.0, "address": "55 Rigby Street, Salford", "postcode": "M7 4NX", "area_name": "Salford", "area_code": "E08000006" }, "geometry": { "type": "Point", "coordinates": [ -2.260516, 53.507103 ] } },
{ "type": "Feature", "properties": { "name": "Pendleton Gateway", "alias": null, "cqc_id": "1-2103767480", "tel": null, "address": "1 Broad Walk, Pendleton, Salford", "postcode": "M6 5FX", "area_name": "Salford", "area_code": "E08000006" }, "geometry": { "type": "Point", "coordinates": [ -2.284742, 53.488361 ] } },
{ "type": "Feature", "properties": { "name": "Academy of Health and Diet", "alias": null, "cqc_id": "1-4327011632", "tel": 7889509511.0, "address": "8 Market Street, Leigh", "postcode": "WN7 1DS", "area_name": "Wigan", "area_code": "E08000010" }, "geometry": { "type": "Point", "coordinates": [ -2.519114, 53.497135 ] } },
{ "type": "Feature", "properties": { "name": "Winstanley Medical Centre", "alias": null, "cqc_id": "1-2383802146", "tel": null, "address": "Holmes House Avenue, Wigan", "postcode": "WN3 6JN", "area_name": "Wigan", "area_code": "E08000010" }, "geometry": { "type": "Point", "coordinates": [ -2.668958, 53.521291 ] } },
{ "type": "Feature", "properties": { "name": "Elmfield Surgery", "alias": null, "cqc_id": "1-1455850967", "tel": 1942481080.0, "address": "Omerod House, Ahterton Health Centre, Nelson Street, Atherton, Manchester", "postcode": "M46 0LE", "area_name": "Wigan", "area_code": "E08000010" }, "geometry": { "type": "Point", "coordinates": [ -2.500811, 53.527489 ] } },
{ "type": "Feature", "properties": { "name": "Irlam Clinic", "alias": null, "cqc_id": "1-4742752580", "tel": 1617750000.0, "address": "125 Liverpool Road, Irlam, Manchester", "postcode": "M44 6DP", "area_name": "Salford", "area_code": "E08000006" }, "geometry": { "type": "Point", "coordinates": [ -2.417074, 53.449107 ] } },
{ "type": "Feature", "properties": { "name": "The Robert Darbishire Practice", "alias": null, "cqc_id": "1-1555716224", "tel": 161225669.0, "address": "Rusholme Health Centre, Walmer Street, Rusholme, Manchester", "postcode": "M14 5NP", "area_name": "Manchester", "area_code": "E08000003" }, "geometry": { "type": "Point", "coordinates": [ -2.226177, 53.454626 ] } },
{ "type": "Feature", "properties": { "name": "Cornerstone Medical Practice", "alias": null, "cqc_id": "1-4742752580", "tel": 1612124445.0, "address": "Langworthy Centre, 451 Liverpool Street, Salford", "postcode": "M6 5QQ", "area_name": "Salford", "area_code": "E08000006" }, "geometry": { "type": "Point", "coordinates": [ -2.296843, 53.483785 ] } },
{ "type": "Feature", "properties": { "name": "RK Medical Practice", "alias": null, "cqc_id": "1-4826318120", "tel": 1614939493.0, "address": "Brownley Green Health Centre, 171 Brownley Road, Manchester", "postcode": "M22 9UH", "area_name": "Manchester", "area_code": "E08000003" }, "geometry": { "type": "Point", "coordinates": [ -2.255632, 53.386597 ] } },
{ "type": "Feature", "properties": { "name": "Dr Kamal Gupta", "alias": "Dr K Gupta", "cqc_id": "1-199788575", "tel": 1942481815.0, "address": "Bridgewater Medical Centre,, Henry Street,, Leigh", "postcode": "WN7 2PE", "area_name": "Wigan", "area_code": "E08000010" }, "geometry": { "type": "Point", "coordinates": [ -2.511927, 53.493519 ] } },
{ "type": "Feature", "properties": { "name": "Dr Harjit Singh", "alias": "Eccles Gateway Medical Centre", "cqc_id": "1-199786459", "tel": 1612117039.0, "address": "28 Barton Lane, Eccles, Manchester", "postcode": "M30 0TU", "area_name": "Salford", "area_code": "E08000006" }, "geometry": { "type": "Point", "coordinates": [ -2.339314, 53.48253 ] } },
{ "type": "Feature", "properties": { "name": "Dr Rajesh Saraf", "alias": "Saraf Medical Practice", "cqc_id": "1-199785501", "tel": 1619098388.0, "address": "Moorside Medical Centre, 681 Ripponden Road, Oldham", "postcode": "OL1 4JU", "area_name": "Oldham", "area_code": "E08000004" }, "geometry": { "type": "Point", "coordinates": [ -2.076954, 53.561455 ] } },
{ "type": "Feature", "properties": { "name": "Yorkshire Street Surgery", "alias": null, "cqc_id": "1-4788600247", "tel": 7747473574.0, "address": "188 Yorkshire Street, Rochdale", "postcode": "OL16 2DN", "area_name": "Rochdale", "area_code": "E08000005" }, "geometry": { "type": "Point", "coordinates": [ -2.152215, 53.620446 ] } },
{ "type": "Feature", "properties": { "name": "Dr Kiren Kaur", "alias": "Moorside Medical Practice", "cqc_id": "1-199785528", "tel": 1613448150.0, "address": "Moorside Medical Centre, 681 Ripponden Road, Oldham", "postcode": "OL1 4JU", "area_name": "Oldham", "area_code": "E08000004" }, "geometry": { "type": "Point", "coordinates": [ -2.076954, 53.561455 ] } },
{ "type": "Feature", "properties": { "name": "Dr Alistair (Medical Services) Limited", "alias": null, "cqc_id": "1-199807170", "tel": 1942481580.0, "address": "Kid Glove House, Kid Glove Road, Golborne", "postcode": "WA3 3GS", "area_name": "Wigan", "area_code": "E08000010" }, "geometry": { "type": "Point", "coordinates": [ -2.596088, 53.479089 ] } },
{ "type": "Feature", "properties": { "name": "Dr Vijaya Joshi", "alias": "Chapel Medical Centre", "cqc_id": "1-199786392", "tel": 1617757373.0, "address": "Chapel Medical Centre, 220 Liverpool Road, Higher Irlam, Manchester", "postcode": "M44 6FE", "area_name": "Salford", "area_code": "E08000006" }, "geometry": { "type": "Point", "coordinates": [ -2.418293, 53.449094 ] } },
{ "type": "Feature", "properties": { "name": "Dr Mohammad Khan", "alias": "Manchester Road East Medical Practice", "cqc_id": "1-199786469", "tel": 1617993233.0, "address": "152a Manchester Road East, Little Hulton, Manchester", "postcode": "M38 9LQ", "area_name": "Salford", "area_code": "E08000006" }, "geometry": { "type": "Point", "coordinates": [ -2.409599, 53.526659 ] } },
{ "type": "Feature", "properties": { "name": "Dr Suvajit Chatterjee", "alias": "Vernon Park Surgery", "cqc_id": "1-199786932", "tel": 1614265484.0, "address": "32 Brinnington Road, Vernon Park, Stockport", "postcode": "SK1 2EX", "area_name": "Stockport", "area_code": "E08000007" }, "geometry": { "type": "Point", "coordinates": [ -2.142795, 53.418398 ] } },
{ "type": "Feature", "properties": { "name": "Dr Christina Mary Greenhough", "alias": "Mossley Medical Practice", "cqc_id": "1-199787349", "tel": 1457833315.0, "address": "187 Manchester Road, Mossley, Ashton Under Lyne", "postcode": "OL5 9AB", "area_name": "Tameside", "area_code": "E08000008" }, "geometry": { "type": "Point", "coordinates": [ -2.04063, 53.51405 ] } },
{ "type": "Feature", "properties": { "name": "Dr Nasima Sidda", "alias": "Dr Sidda Surgery", "cqc_id": "1-199783782", "tel": 1204462966.0, "address": "Watersmeeting Health Center, Waters Meeting Road, Bolton", "postcode": "BL1 8TT", "area_name": "Bolton", "area_code": "E08000001" }, "geometry": { "type": "Point", "coordinates": [ -2.42777, 53.590359 ] } },
{ "type": "Feature", "properties": { "name": "Dr Laurence Howard Sherman", "alias": "Greyland Medical Centre", "cqc_id": "1-199784110", "tel": 1617987850.0, "address": "Greyland Medical Centre, 468 Bury Old Road, Prestwich, Manchester", "postcode": "M25 1NL", "area_name": "Bury", "area_code": "E08000002" }, "geometry": { "type": "Point", "coordinates": [ -2.276308, 53.537702 ] } },
{ "type": "Feature", "properties": { "name": "Dr John Danson", "alias": "Danson Family Practice", "cqc_id": "1-199785393", "tel": 1614841484.0, "address": "Featherstall Road South, Oldham", "postcode": "OL9 7AY", "area_name": "Oldham", "area_code": "E08000004" }, "geometry": { "type": "Point", "coordinates": [ -2.130476, 53.537321 ] } },
{ "type": "Feature", "properties": { "name": "Dr Afzal Hussain", "alias": "Walmersley Road Medical Practice", "cqc_id": "1-199784178", "tel": 1617646100.0, "address": "110 Walmersley Road, Bury", "postcode": "BL9 6DX", "area_name": "Bury", "area_code": "E08000002" }, "geometry": { "type": "Point", "coordinates": [ -2.289512, 53.599735 ] } },
{ "type": "Feature", "properties": { "name": "Dr Samir Sadik", "alias": null, "cqc_id": "1-199787359", "tel": 1613307087.0, "address": "1 Dunkerley Street, Ashton Under Lyne", "postcode": "OL7 9EJ", "area_name": "Tameside", "area_code": "E08000008" }, "geometry": { "type": "Point", "coordinates": [ -2.103916, 53.498778 ] } },
{ "type": "Feature", "properties": { "name": "Mrs Elaine Evans", "alias": "Foxleigh Family Surgery", "cqc_id": "1-199788075", "tel": 1942481800.0, "address": "The Bridgewater Medical Centre, Henry Street, Leigh", "postcode": "WN7 2PE", "area_name": "Wigan", "area_code": "E08000010" }, "geometry": { "type": "Point", "coordinates": [ -2.511927, 53.493519 ] } },
{ "type": "Feature", "properties": { "name": "The Chowdhury Practice", "alias": null, "cqc_id": "1-4718045673", "tel": 1616213535.0, "address": "New Radcliffe Street, Oldham", "postcode": "OL1 1NL", "area_name": "Oldham", "area_code": "E08000004" }, "geometry": { "type": "Point", "coordinates": [ -2.116945, 53.543824 ] } },
{ "type": "Feature", "properties": { "name": "Dr Syed Rizvi", "alias": "David Medical Centre", "cqc_id": "1-199784734", "tel": 1618812297.0, "address": "274 Barlow Moor Road, Chorlton-cum-Hardy, Manchester", "postcode": "M21 8HA", "area_name": "Manchester", "area_code": "E08000003" }, "geometry": { "type": "Point", "coordinates": [ -2.268728, 53.431961 ] } },
{ "type": "Feature", "properties": { "name": "Merseybank Practice", "alias": null, "cqc_id": "1-199784734", "tel": 1614455559.0, "address": "36 Mersey Bank Avenue, Chorlton, Manchester", "postcode": "M21 7NN", "area_name": "Manchester", "area_code": "E08000003" }, "geometry": { "type": "Point", "coordinates": [ -2.263012, 53.42276 ] } },
{ "type": "Feature", "properties": { "name": "Dr Anita Sharma", "alias": "Dr A Sharma, South Chadderton Health Centre", "cqc_id": "1-199785538", "tel": 1616521876.0, "address": "Chadderton South Health Centre, Eaves Lane, Chadderton, Oldham", "postcode": "OL9 8RG", "area_name": "Oldham", "area_code": "E08000004" }, "geometry": { "type": "Point", "coordinates": [ -2.15145, 53.533368 ] } },
{ "type": "Feature", "properties": { "name": "Pennine MSK Partnership Limited", "alias": "Integrated Care Centre", "cqc_id": "1-199798184", "tel": 161621383.0, "address": "Integrated Care Centre, New Radcliffe Street, Oldham", "postcode": "OL1 1NL", "area_name": "Oldham", "area_code": "E08000004" }, "geometry": { "type": "Point", "coordinates": [ -2.116945, 53.543824 ] } },
{ "type": "Feature", "properties": { "name": "Rochdale Road Medical Centre", "alias": null, "cqc_id": "1-199785805", "tel": 1616439131.0, "address": "48a Rochdale Road, Middleton, Manchester", "postcode": "M24 2PU", "area_name": "Rochdale", "area_code": "E08000005" }, "geometry": { "type": "Point", "coordinates": [ -2.195702, 53.556772 ] } },
{ "type": "Feature", "properties": { "name": "Dr Sonal Sharma", "alias": "Inspire Medical Centre", "cqc_id": "1-199785825", "tel": 1706752703.0, "address": "2nd Floor Croft Shifa Health Centre, Rochdale", "postcode": "OL16 2UY", "area_name": "Rochdale", "area_code": "E08000005" }, "geometry": { "type": "Point", "coordinates": [ -2.138254, 53.622746 ] } },
{ "type": "Feature", "properties": { "name": "Dr Joann Amin", "alias": "The Willows Surgery", "cqc_id": "1-199786440", "tel": 1617362356.0, "address": "The Willows, Lords Avenue, Salford, Salford", "postcode": "M5 5JR", "area_name": "Salford", "area_code": "E08000006" }, "geometry": { "type": "Point", "coordinates": [ -2.309137, 53.485461 ] } },
{ "type": "Feature", "properties": { "name": "Salford Health Matters CIC", "alias": null, "cqc_id": "1-2103767480", "tel": 1612125818.0, "address": "Willow Tree Healthy Living Centre, 94 Littleton Road, Salford", "postcode": "M7 3SE", "area_name": "Salford", "area_code": "E08000006" }, "geometry": { "type": "Point", "coordinates": [ -2.278113, 53.502274 ] } },
{ "type": "Feature", "properties": { "name": "Salford Health Matters Homeless Service", "alias": null, "cqc_id": "1-2103767480", "tel": 1612125818.0, "address": "Windsor Christian Centre, Churchill Way, Salford", "postcode": "M6 5BU", "area_name": "Salford", "area_code": "E08000006" }, "geometry": { "type": "Point", "coordinates": [ -2.284531, 53.486008 ] } },
{ "type": "Feature", "properties": { "name": "Salford Health Matters Little Hulton", "alias": null, "cqc_id": "1-2103767480", "tel": 1612125818.0, "address": "Haysbrook Avenue, Worsley, Manchester", "postcode": "M28 0AY", "area_name": "Salford", "area_code": "E08000006" }, "geometry": { "type": "Point", "coordinates": [ -2.423902, 53.529872 ] } },
{ "type": "Feature", "properties": { "name": "Donneybrook Medical Centre", "alias": null, "cqc_id": "1-199787180", "tel": 1613683838.0, "address": "Clarendon Street, Hyde", "postcode": "SK14 2AH", "area_name": "Tameside", "area_code": "E08000008" }, "geometry": { "type": "Point", "coordinates": [ -2.080237, 53.452631 ] } },
{ "type": "Feature", "properties": { "name": "Dr Richard Clare", "alias": "Dr Richard George Clare", "cqc_id": "1-199787594", "tel": 1619733499.0, "address": "The Surgery, 12 Derbyshire Road South, Sale", "postcode": "M33 3JP", "area_name": "Trafford", "area_code": "E08000009" }, "geometry": { "type": "Point", "coordinates": [ -2.310144, 53.416957 ] } },
{ "type": "Feature", "properties": { "name": "Dr Sally Johnston", "alias": null, "cqc_id": "1-199787730", "tel": 1619629662.0, "address": "34 Riddings Road, Timperley, Altrincham", "postcode": "WA15 6BP", "area_name": "Trafford", "area_code": "E08000009" }, "geometry": { "type": "Point", "coordinates": [ -2.331291, 53.404424 ] } },
{ "type": "Feature", "properties": { "name": "Dr Rachel Tomalin", "alias": "Cale Green Surgery", "cqc_id": "1-199786815", "tel": 1614802882.0, "address": "20 Meyer Street, Cale Green, Stockport", "postcode": "SK3 8JE", "area_name": "Stockport", "area_code": "E08000007" }, "geometry": { "type": "Point", "coordinates": [ -2.158364, 53.397148 ] } },
{ "type": "Feature", "properties": { "name": "Dr Salam J Farhan", "alias": "Partington Central Surgery", "cqc_id": "1-199787515", "tel": 1617757032.0, "address": "Partington Health Centre, Central Road, Partington, Manchester", "postcode": "M31 4FY", "area_name": "Trafford", "area_code": "E08000009" }, "geometry": { "type": "Point", "coordinates": [ -2.425413, 53.417204 ] } },
{ "type": "Feature", "properties": { "name": "Gloucester House Medical Centre", "alias": null, "cqc_id": "1-199787691", "tel": 1617487115.0, "address": "17 Station Road, Urmston, Manchester", "postcode": "M41 9JS", "area_name": "Trafford", "area_code": "E08000009" }, "geometry": { "type": "Point", "coordinates": [ -2.352599, 53.447337 ] } },
{ "type": "Feature", "properties": { "name": "Dr Chandra Khatri", "alias": "Dr C P Khatri", "cqc_id": "1-199788015", "tel": 1942882950.0, "address": "The Surgery, High Street, Tyldesley, Manchester", "postcode": "M29 8AL", "area_name": "Wigan", "area_code": "E08000010" }, "geometry": { "type": "Point", "coordinates": [ -2.469552, 53.514951 ] } },
{ "type": "Feature", "properties": { "name": "The Park Medical Centre", "alias": null, "cqc_id": "1-1539373541", "tel": 1614381680.0, "address": "434 Altrincham Road, Baguley, Manchester", "postcode": "M23 9AB", "area_name": "Manchester", "area_code": "E08000003" }, "geometry": { "type": "Point", "coordinates": [ -2.28807, 53.40104 ] } },
{ "type": "Feature", "properties": { "name": "Bodey Medical Centre", "alias": null, "cqc_id": "1-1539373541", "tel": 1614381680.0, "address": "Ladybarn Court, 28 Ladybarn Lane, Manchester", "postcode": "M14 6WP", "area_name": "Manchester", "area_code": "E08000003" }, "geometry": { "type": "Point", "coordinates": [ -2.214798, 53.440636 ] } },
{ "type": "Feature", "properties": { "name": "Townside Surgery - Dr Cooke", "alias": null, "cqc_id": "1-199783946", "tel": 1617621600.0, "address": "Townside Primary Care Centre, Knowsley Place, 1 Knowsley Place, Knowsley Street, Bury", "postcode": "BL9 0SN", "area_name": "Bury", "area_code": "E08000002" }, "geometry": { "type": "Point", "coordinates": [ -2.29898, 53.59031 ] } },
{ "type": "Feature", "properties": { "name": "Dr Anoop Sahal", "alias": "The Family surgery", "cqc_id": "1-199787662", "tel": 1619299300.0, "address": "94 Navigation Road, Altrincham", "postcode": "WA14 1LL", "area_name": "Trafford", "area_code": "E08000009" }, "geometry": { "type": "Point", "coordinates": [ -2.346055, 53.396194 ] } },
{ "type": "Feature", "properties": { "name": "Dr Masud Prodhan", "alias": "Old Trafford Medical Practice", "cqc_id": "1-199787672", "tel": 1618487563.0, "address": "Seymour Grove Health Centre, Manchester", "postcode": "M16 0LW", "area_name": "Trafford", "area_code": "E08000009" }, "geometry": { "type": "Point", "coordinates": [ -2.275745, 53.458074 ] } },
{ "type": "Feature", "properties": { "name": "Dr Syed Shah", "alias": null, "cqc_id": "1-199787976", "tel": 1942892727.0, "address": "145 Elliot Street, Tyldesley, Manchester", "postcode": "M29 8FL", "area_name": "Wigan", "area_code": "E08000010" }, "geometry": { "type": "Point", "coordinates": [ -2.469317, 53.514161 ] } },
{ "type": "Feature", "properties": { "name": "Dr Ugo Umeadi", "alias": "Cleggs Lane Medical Practice", "cqc_id": "1-199786227", "tel": 1617994001.0, "address": "131 Cleggs Lane, Little Hulton, Manchester", "postcode": "M38 9RS", "area_name": "Salford", "area_code": "E08000006" }, "geometry": { "type": "Point", "coordinates": [ -2.419336, 53.534939 ] } },
{ "type": "Feature", "properties": { "name": "Dr Krishna Khatri", "alias": "Dr K Khatri", "cqc_id": "1-199788264", "tel": 1942883794.0, "address": "10 Higher Green Lane, Astley, Tyldesley, Manchester", "postcode": "M29 7HG", "area_name": "Wigan", "area_code": "E08000010" }, "geometry": { "type": "Point", "coordinates": [ -2.447913, 53.500769 ] } },
{ "type": "Feature", "properties": { "name": "Ailsa Craig Medical Centre", "alias": null, "cqc_id": "1-199784247", "tel": 1612245555.0, "address": "Ailsa Craig Medical Group, 270 Dickenson Road, Longsight, Manchester", "postcode": "M13 0YL", "area_name": "Manchester", "area_code": "E08000003" }, "geometry": { "type": "Point", "coordinates": [ -2.208542, 53.454175 ] } },
{ "type": "Feature", "properties": { "name": "Dr Peter Chadwick", "alias": "Burnage Healthcare Practice", "cqc_id": "1-199785137", "tel": 1614321404.0, "address": "The Surgery, Primary Care Resource Centre, Burnage Lane, Manchester", "postcode": "M19 1EW", "area_name": "Manchester", "area_code": "E08000003" }, "geometry": { "type": "Point", "coordinates": [ -2.200433, 53.43018 ] } },
{ "type": "Feature", "properties": { "name": "Leela Ltd", "alias": "The Strand Medical Centre", "cqc_id": "1-199785913", "tel": 1706861616.0, "address": "The Strand, Rochdale", "postcode": "OL11 2JG", "area_name": "Rochdale", "area_code": "E08000005" }, "geometry": { "type": "Point", "coordinates": [ -2.156245, 53.593988 ] } },
{ "type": "Feature", "properties": { "name": "Dr Chidananda Barua", "alias": null, "cqc_id": "1-199783869", "tel": 1204463100.0, "address": "Frederick Street, Farnworth, Bolton", "postcode": "BL4 9AH", "area_name": "Bolton", "area_code": "E08000001" }, "geometry": { "type": "Point", "coordinates": [ -2.397759, 53.546123 ] } },
{ "type": "Feature", "properties": { "name": "Woodbank Surgery", "alias": null, "cqc_id": "1-199784035", "tel": 1617051630.0, "address": "2 Hunstanton Drive, Brandlesholme, Bury", "postcode": "BL8 1EG", "area_name": "Bury", "area_code": "E08000002" }, "geometry": { "type": "Point", "coordinates": [ -2.308802, 53.60507 ] } },
{ "type": "Feature", "properties": { "name": "Leigh Family Practice", "alias": null, "cqc_id": "1-199784035", "tel": 1942481830.0, "address": "Bridgewater Medical Centre,, Henry Street,, Leigh", "postcode": "WN7 2PE", "area_name": "Wigan", "area_code": "E08000010" }, "geometry": { "type": "Point", "coordinates": [ -2.511927, 53.493519 ] } },
{ "type": "Feature", "properties": { "name": "Shakespeare Surgery", "alias": null, "cqc_id": "1-199788313", "tel": 1942481531.0, "address": "Chandler House, Worsley Mesnes Health Centre, Poolstock Lane, Wigan", "postcode": "WN3 5HL", "area_name": "Wigan", "area_code": "E08000010" }, "geometry": { "type": "Point", "coordinates": [ -2.643772, 53.529393 ] } },
{ "type": "Feature", "properties": { "name": "Dr Mahendra Patel", "alias": null, "cqc_id": "1-199787447", "tel": 1619802656.0, "address": "Shay Lane, Hale Barns, Altrincham", "postcode": "WA15 8NZ", "area_name": "Trafford", "area_code": "E08000009" }, "geometry": { "type": "Point", "coordinates": [ -2.31556, 53.372189 ] } },
{ "type": "Feature", "properties": { "name": "Droylsden Medical Practice", "alias": null, "cqc_id": "1-199808952", "tel": 1613427777.0, "address": "1-3 Albion Drive, Droylsden, Manchester", "postcode": "M43 7NP", "area_name": "Tameside", "area_code": "E08000008" }, "geometry": { "type": "Point", "coordinates": [ -2.145664, 53.487166 ] } },
{ "type": "Feature", "properties": { "name": "Guide Bridge Medical Practice", "alias": null, "cqc_id": "1-199808952", "tel": 1613442609.0, "address": "Guide Lane Clinic, Guide Lane, Audenshaw, Manchester", "postcode": "M34 5HY", "area_name": "Tameside", "area_code": "E08000008" }, "geometry": { "type": "Point", "coordinates": [ -2.113281, 53.471588 ] } },
{ "type": "Feature", "properties": { "name": "Millbrook Medical Practice", "alias": null, "cqc_id": "1-199808952", "tel": 1613042470.0, "address": "Hollybank, Off Grove Road, Stalybridge", "postcode": "SK15 3BJ", "area_name": "Tameside", "area_code": "E08000008" }, "geometry": { "type": "Point", "coordinates": [ -2.034281, 53.492265 ] } },
{ "type": "Feature", "properties": { "name": "Simpson Medical Practice", "alias": null, "cqc_id": "1-199808952", "tel": 1612035550.0, "address": "361 Moston Lane, Manchester", "postcode": "M40 9NB", "area_name": "Manchester", "area_code": "E08000003" }, "geometry": { "type": "Point", "coordinates": [ -2.198039, 53.514029 ] } },
{ "type": "Feature", "properties": { "name": "Dr Krishnakant Buch", "alias": "Dr K H Buch", "cqc_id": "1-199786412", "tel": 1612126525.0, "address": "Lower Broughton Health Centre, Great Clowes Street, Salford", "postcode": "M7 1RD", "area_name": "Salford", "area_code": "E08000006" }, "geometry": { "type": "Point", "coordinates": [ -2.258808, 53.49359 ] } },
{ "type": "Feature", "properties": { "name": "Dr Mahadeva Selvarajan", "alias": "Deane Clinic One Stop Health Centre", "cqc_id": "1-199783898", "tel": 120464089.0, "address": "Deane Clinic One Stop Health Centre, Horsfield Street, Bolton", "postcode": "BL3 4LU", "area_name": "Bolton", "area_code": "E08000001" }, "geometry": { "type": "Point", "coordinates": [ -2.464537, 53.567885 ] } },
{ "type": "Feature", "properties": { "name": "Orchard Medical Centre", "alias": null, "cqc_id": "1-199786287", "tel": 1617028579.0, "address": "10 Leigh Road, Boothstown, Manchester", "postcode": "M28 1LZ", "area_name": "Salford", "area_code": "E08000006" }, "geometry": { "type": "Point", "coordinates": [ -2.420888, 53.502881 ] } },
{ "type": "Feature", "properties": { "name": "Dr Samir Naseef", "alias": "Orient House Medical Centre", "cqc_id": "1-199783772", "tel": 1204462198.0, "address": "216 Wigan Road, Deane, Bolton", "postcode": "BL3 5QE", "area_name": "Bolton", "area_code": "E08000001" }, "geometry": { "type": "Point", "coordinates": [ -2.460819, 53.568942 ] } },
{ "type": "Feature", "properties": { "name": "Dr Hany Azmy", "alias": "The Surgery - Dr Hany Azmy", "cqc_id": "1-199786863", "tel": 1614804164.0, "address": "The Surgery, 30 Brinnington Road, Brinnington, Stockport", "postcode": "SK1 2EX", "area_name": "Stockport", "area_code": "E08000007" }, "geometry": { "type": "Point", "coordinates": [ -2.142795, 53.418398 ] } },
{ "type": "Feature", "properties": { "name": "Peel Hall Medical Practice", "alias": null, "cqc_id": "1-199784327", "tel": 1613751000.0, "address": "Forum Health, Simonsway, Wythenshawe, Manchester", "postcode": "M22 5RX", "area_name": "Manchester", "area_code": "E08000003" }, "geometry": { "type": "Point", "coordinates": [ -2.265017, 53.379925 ] } },
{ "type": "Feature", "properties": { "name": "Dr Brian Perkins", "alias": "Dr Perkins' Practice", "cqc_id": "1-199785548", "tel": 1616213888.0, "address": "Integrated Care Centre, New Radcliffe Street, Oldham", "postcode": "OL1 1NL", "area_name": "Oldham", "area_code": "E08000004" }, "geometry": { "type": "Point", "coordinates": [ -2.116945, 53.543824 ] } },
{ "type": "Feature", "properties": { "name": "Dr Syed Shahbazi", "alias": "Family Medical Practice", "cqc_id": "1-199788236", "tel": 1942481638.0, "address": "Kidglove House, Kidglove Road, Golborne", "postcode": "WA3 3GS", "area_name": "Wigan", "area_code": "E08000010" }, "geometry": { "type": "Point", "coordinates": [ -2.596088, 53.479089 ] } },
{ "type": "Feature", "properties": { "name": "Dr Geeta Gupta", "alias": null, "cqc_id": "1-199786922", "tel": 1614269191.0, "address": "South Reddish Medical Centre, Reddish Road, South Reddish, Stockport", "postcode": "SK5 7QU", "area_name": "Stockport", "area_code": "E08000007" }, "geometry": { "type": "Point", "coordinates": [ -2.156517, 53.422309 ] } },
{ "type": "Feature", "properties": { "name": "Dr George Duru", "alias": "The Duru Practice", "cqc_id": "1-199796711", "tel": 1616213636.0, "address": "Integrated Care Centre, New Radcliffe Street, Oldham", "postcode": "OL1 1NL", "area_name": "Oldham", "area_code": "E08000004" }, "geometry": { "type": "Point", "coordinates": [ -2.116945, 53.543824 ] } },
{ "type": "Feature", "properties": { "name": "The Robert Darbishire Practice", "alias": null, "cqc_id": "1-199784783", "tel": 1612256699.0, "address": "Rusholme Health Centre, Walmer Street, Rusholme, Manchester", "postcode": "M14 5NP", "area_name": "Manchester", "area_code": "E08000003" }, "geometry": { "type": "Point", "coordinates": [ -2.226177, 53.454626 ] } },
{ "type": "Feature", "properties": { "name": "The Whitswood Practice", "alias": "Alexandra Range Medical Practice", "cqc_id": "1-199784783", "tel": 1612263620.0, "address": "Alexandra Park Health Centre, 2 Whitswood Close, Manchester", "postcode": "M16 7AP", "area_name": "Manchester", "area_code": "E08000003" }, "geometry": { "type": "Point", "coordinates": [ -2.253502, 53.455769 ] } },
{ "type": "Feature", "properties": { "name": "Dr R Anderson and Dr M Ahmed", "alias": "Boothstown Medical Centre", "cqc_id": "1-199788085", "tel": 8444773276.0, "address": "239 Mosley Common Road, Worsley, Manchester", "postcode": "M28 1BZ", "area_name": "Salford", "area_code": "E08000006" }, "geometry": { "type": "Point", "coordinates": [ -2.422973, 53.50477 ] } },
{ "type": "Feature", "properties": { "name": "Dr Raina Patel", "alias": "The Guywood Practice", "cqc_id": "1-199786903", "tel": 1614265242.0, "address": "The Romiley Health Centre, Chichester Road, Romiley, Stockport", "postcode": "SK6 4QR", "area_name": "Stockport", "area_code": "E08000007" }, "geometry": { "type": "Point", "coordinates": [ -2.08993, 53.414998 ] } },
{ "type": "Feature", "properties": { "name": "Dr Zuber Ahmed", "alias": "Sun Valley Medical Practice", "cqc_id": "1-199785625", "tel": 1616229230.0, "address": "Sun Valley Medical Practice, 137 Glodwick Road, Oldham", "postcode": "OL4 1YN", "area_name": "Oldham", "area_code": "E08000004" }, "geometry": { "type": "Point", "coordinates": [ -2.095095, 53.537786 ] } },
{ "type": "Feature", "properties": { "name": "Dr Saira Zaman", "alias": null, "cqc_id": "1-199787807", "tel": 1942481423.0, "address": "Chandler House, Worsley Mesnes Health Centre, Poolstock Lane, Wigan", "postcode": "WN3 5HL", "area_name": "Wigan", "area_code": "E08000010" }, "geometry": { "type": "Point", "coordinates": [ -2.643772, 53.529393 ] } },
{ "type": "Feature", "properties": { "name": "Conran Medical Centre", "alias": null, "cqc_id": "1-199784506", "tel": 1612052714.0, "address": "77 Church Lane, Harpurhey, Manchester", "postcode": "M9 5BH", "area_name": "Manchester", "area_code": "E08000003" }, "geometry": { "type": "Point", "coordinates": [ -2.210659, 53.510547 ] } },
{ "type": "Feature", "properties": { "name": "Dr Davis's Medical Practice", "alias": "Leicester Road Medical Centre", "cqc_id": "1-199786382", "tel": 1617089992.0, "address": "53 Leicester Road, Salford", "postcode": "M7 4AS", "area_name": "Salford", "area_code": "E08000006" }, "geometry": { "type": "Point", "coordinates": [ -2.253963, 53.507649 ] } },
{ "type": "Feature", "properties": { "name": "Dr Devang Shah", "alias": "Grove Medical Practice", "cqc_id": "1-199787750", "tel": 1619039302.0, "address": "169 Grove Lane, Timperley, Altrincham", "postcode": "WA15 6PH", "area_name": "Trafford", "area_code": "E08000009" }, "geometry": { "type": "Point", "coordinates": [ -2.323566, 53.397228 ] } },
{ "type": "Feature", "properties": { "name": "Leesbrook Surgery", "alias": null, "cqc_id": "1-199785266", "tel": 1616214800.0, "address": "Mellor Street, Lees, Oldham", "postcode": "OL4 3DG", "area_name": "Oldham", "area_code": "E08000004" }, "geometry": { "type": "Point", "coordinates": [ -2.07266, 53.53879 ] } },
{ "type": "Feature", "properties": { "name": "Swan Lane Medical Centre", "alias": null, "cqc_id": "1-199783479", "tel": 1204661600.0, "address": "Swan Lane, Bolton", "postcode": "BL3 6TL", "area_name": "Bolton", "area_code": "E08000001" }, "geometry": { "type": "Point", "coordinates": [ -2.442391, 53.566945 ] } },
{ "type": "Feature", "properties": { "name": "Radcliffe Medical Practice", "alias": null, "cqc_id": "1-199783966", "tel": 1617242062.0, "address": "Radcliffe Primary Care Centre, 69 Church Street West, Radcliffe, Manchester", "postcode": "M26 2SP", "area_name": "Bury", "area_code": "E08000002" }, "geometry": { "type": "Point", "coordinates": [ -2.323706, 53.560143 ] } },
{ "type": "Feature", "properties": { "name": "Timperley Health Centre - Westwood", "alias": null, "cqc_id": "1-199787418", "tel": 1619803751.0, "address": "169 Grove Lane, Timperley, Altrincham", "postcode": "WA15 6PH", "area_name": "Trafford", "area_code": "E08000009" }, "geometry": { "type": "Point", "coordinates": [ -2.323566, 53.397228 ] } },
{ "type": "Feature", "properties": { "name": "Staveleigh Medical Centre", "alias": null, "cqc_id": "1-199787101", "tel": 1613048009.0, "address": "King Street, Stalybridge", "postcode": "SK15 2AE", "area_name": "Tameside", "area_code": "E08000008" }, "geometry": { "type": "Point", "coordinates": [ -2.058251, 53.484571 ] } },
{ "type": "Feature", "properties": { "name": "Deane Medical Centre", "alias": null, "cqc_id": "1-199783675", "tel": 1204525526.0, "address": "155-157 Deane Road, Bolton", "postcode": "BL3 5AH", "area_name": "Bolton", "area_code": "E08000001" }, "geometry": { "type": "Point", "coordinates": [ -2.441983, 53.572699 ] } },
{ "type": "Feature", "properties": { "name": "The Mazhari and Khan Practice", "alias": null, "cqc_id": "1-199784901", "tel": 1612231658.0, "address": "Clayton Health Centre, 89 North Road, Clayton, Manchester", "postcode": "M11 4EJ", "area_name": "Manchester", "area_code": "E08000003" }, "geometry": { "type": "Point", "coordinates": [ -2.184157, 53.484308 ] } },
{ "type": "Feature", "properties": { "name": "Whittaker Lane Medical Centre", "alias": null, "cqc_id": "1-199784148", "tel": 1617731580.0, "address": "Daisy Bank, Whittaker Lane, Prestwich, Manchester", "postcode": "M25 1EX", "area_name": "Bury", "area_code": "E08000002" }, "geometry": { "type": "Point", "coordinates": [ -2.268645, 53.528488 ] } },
{ "type": "Feature", "properties": { "name": "Failsworth Group Practice", "alias": null, "cqc_id": "1-199785295", "tel": 1616826297.0, "address": "Failsworth District Centre, Ashton Road West, Failsworth, Manchester", "postcode": "M35 0AD", "area_name": "Oldham", "area_code": "E08000004" }, "geometry": { "type": "Point", "coordinates": [ -2.156747, 53.509855 ] } },
{ "type": "Feature", "properties": { "name": "The Limes Medical Practice", "alias": null, "cqc_id": "1-199786080", "tel": 1617908621.0, "address": "8-12 Hodge Road, Worsley, Manchester", "postcode": "M28 3AT", "area_name": "Salford", "area_code": "E08000006" }, "geometry": { "type": "Point", "coordinates": [ -2.397527, 53.522942 ] } },
{ "type": "Feature", "properties": { "name": "Medlock Medical Practice  Dr Hossain & Dr Chauhan", "alias": null, "cqc_id": "1-199785557", "tel": 1616811401.0, "address": "Failsworth District Centre, Ashton Road West, Failsworth, Manchester", "postcode": "M35 0AD", "area_name": "Oldham", "area_code": "E08000004" }, "geometry": { "type": "Point", "coordinates": [ -2.156747, 53.509855 ] } },
{ "type": "Feature", "properties": { "name": "Ellenbrook Medical Practice", "alias": null, "cqc_id": "1-199786267", "tel": 1617039091.0, "address": "14 Morston Close, Worsley, Manchester", "postcode": "M28 1PB", "area_name": "Salford", "area_code": "E08000006" }, "geometry": { "type": "Point", "coordinates": [ -2.413552, 53.511185 ] } },
{ "type": "Feature", "properties": { "name": "Longford Street Medical Centre", "alias": null, "cqc_id": "1-199785765", "tel": 1706621417.0, "address": "Longford Street, Heywood", "postcode": "OL10 4NH", "area_name": "Rochdale", "area_code": "E08000005" }, "geometry": { "type": "Point", "coordinates": [ -2.218524, 53.594259 ] } },
{ "type": "Feature", "properties": { "name": "Middleton Health Centre", "alias": null, "cqc_id": "1-199810820", "tel": 1616557434.0, "address": "Unit F1, Middleton Shopping Centre, Limetrees Road, Middleton, Manchester", "postcode": "M24 4EL", "area_name": "Rochdale", "area_code": "E08000005" }, "geometry": { "type": "Point", "coordinates": [ -2.201051, 53.548242 ] } },
{ "type": "Feature", "properties": { "name": "Hawthorn Medical Centre", "alias": null, "cqc_id": "1-199810820", "tel": 1612206080.0, "address": "Unit K, Fallowfield Retail Park, Birchfields Road, Manchester", "postcode": "M14 6FS", "area_name": "Manchester", "area_code": "E08000003" }, "geometry": { "type": "Point", "coordinates": [ -2.204544, 53.443216 ] } },
{ "type": "Feature", "properties": { "name": "Kirby - Crompton Health Centre", "alias": null, "cqc_id": "1-199783626", "tel": 1204463111.0, "address": "Crompton Health Centre, 501 Crompton Way, Bolton", "postcode": "BL1 8UP", "area_name": "Bolton", "area_code": "E08000001" }, "geometry": { "type": "Point", "coordinates": [ -2.415226, 53.597486 ] } },
{ "type": "Feature", "properties": { "name": "The Uplands Medical Practice", "alias": null, "cqc_id": "1-199783936", "tel": 1617668221.0, "address": "Bury New Road,, Whitefiel, Manchester", "postcode": "M45 8GH", "area_name": "Bury", "area_code": "E08000002" }, "geometry": { "type": "Point", "coordinates": [ -2.295878, 53.548594 ] } },
{ "type": "Feature", "properties": { "name": "Stonehill Medical Centre", "alias": null, "cqc_id": "1-199783519", "tel": 1204573445.0, "address": "Piggott Street, Farnworth, Bolton", "postcode": "BL4 9QZ", "area_name": "Bolton", "area_code": "E08000001" }, "geometry": { "type": "Point", "coordinates": [ -2.402444, 53.543635 ] } },
{ "type": "Feature", "properties": { "name": "St George's Medical Centre", "alias": null, "cqc_id": "1-199784377", "tel": 1618703449.0, "address": "St Georges Drive, Moston, Manchester", "postcode": "M40 5HP", "area_name": "Manchester", "area_code": "E08000003" }, "geometry": { "type": "Point", "coordinates": [ -2.189031, 53.509666 ] } },
{ "type": "Feature", "properties": { "name": "Dr Ahmad and Partners", "alias": "Alexander House Health Centre", "cqc_id": "1-199787817", "tel": 1942482330.0, "address": "Platt Bridge Health Centre, Rivington Avenue, Platt Bridge, Wigan", "postcode": "WN2 5NG", "area_name": "Wigan", "area_code": "E08000010" }, "geometry": { "type": "Point", "coordinates": [ -2.595925, 53.522279 ] } },
{ "type": "Feature", "properties": { "name": "St Andrews Medical Practice 2", "alias": "Drs Budden, Sutherland and Tasker", "cqc_id": "1-199786100", "tel": 1617075500.0, "address": "30 Russell Street, Eccles, Manchester", "postcode": "M30 0NU", "area_name": "Salford", "area_code": "E08000006" }, "geometry": { "type": "Point", "coordinates": [ -2.339619, 53.484875 ] } },
{ "type": "Feature", "properties": { "name": "The Village Surgery", "alias": null, "cqc_id": "1-199787681", "tel": 1619039010.0, "address": "169 Grove Lane, Timperley, Altrincham", "postcode": "WA15 6PH", "area_name": "Trafford", "area_code": "E08000009" }, "geometry": { "type": "Point", "coordinates": [ -2.323566, 53.397228 ] } },
{ "type": "Feature", "properties": { "name": "Hattersley Group Practice", "alias": null, "cqc_id": "1-199787151", "tel": 1613684161.0, "address": "Hattersley Health Centre, Hattersley Road East, Hattersley, Hyde", "postcode": "SK14 3EH", "area_name": "Tameside", "area_code": "E08000008" }, "geometry": { "type": "Point", "coordinates": [ -2.027426, 53.450228 ] } },
{ "type": "Feature", "properties": { "name": "St Andrews Medical Practice 4", "alias": "Drs Behardien & Walker", "cqc_id": "1-199786020", "tel": 1617075500.0, "address": "30 Russell Street, Eccles, Manchester", "postcode": "M30 0NU", "area_name": "Salford", "area_code": "E08000006" }, "geometry": { "type": "Point", "coordinates": [ -2.339619, 53.484875 ] } },
{ "type": "Feature", "properties": { "name": "Wilmslow Road Surgery", "alias": null, "cqc_id": "1-199784852", "tel": 1612242452.0, "address": "Wilmslow Road Medical Centre, 156 Wilmslow Road, Rusholme, Manchester", "postcode": "M14 5LQ", "area_name": "Manchester", "area_code": "E08000003" }, "geometry": { "type": "Point", "coordinates": [ -2.222822, 53.452153 ] } },
{ "type": "Feature", "properties": { "name": "Premier Health Team", "alias": null, "cqc_id": "1-199788152", "tel": 1942481851.0, "address": "The Bridgewater Medical Centre, Henry Street, Leigh", "postcode": "WN7 2PE", "area_name": "Wigan", "area_code": "E08000010" }, "geometry": { "type": "Point", "coordinates": [ -2.511927, 53.493519 ] } },
{ "type": "Feature", "properties": { "name": "Dr Maung and Partners", "alias": null, "cqc_id": "1-199788161", "tel": 1942483488.0, "address": "Leigh Health Centre, The Avenue, Leigh", "postcode": "WN7 1HR", "area_name": "Wigan", "area_code": "E08000010" }, "geometry": { "type": "Point", "coordinates": [ -2.511455, 53.503236 ] } },
{ "type": "Feature", "properties": { "name": "Clarendon Surgery", "alias": null, "cqc_id": "1-199786325", "tel": 1612117373.0, "address": "Pendleton Gateway, 1 The Broadwalk, Salford", "postcode": "M6 5FX", "area_name": "Salford", "area_code": "E08000006" }, "geometry": { "type": "Point", "coordinates": [ -2.284742, 53.488361 ] } },
{ "type": "Feature", "properties": { "name": "Ribblesdale Dr Britton & Partners", "alias": null, "cqc_id": "1-199784026", "tel": 1617621650.0, "address": "Townside Primary Care Centre, Knowsley Place, 1 Knowsley Place, Knowsley Street, Bury", "postcode": "BL9 0SN", "area_name": "Bury", "area_code": "E08000002" }, "geometry": { "type": "Point", "coordinates": [ -2.29898, 53.59031 ] } },
{ "type": "Feature", "properties": { "name": "Block Lane Surgery", "alias": null, "cqc_id": "1-199785473", "tel": 1616202321.0, "address": "The Surgery, 158 Block Lane, Chadderton, Oldham", "postcode": "OL9 7SG", "area_name": "Oldham", "area_code": "E08000004" }, "geometry": { "type": "Point", "coordinates": [ -2.139039, 53.535037 ] } },
{ "type": "Feature", "properties": { "name": "Littletown Family Medical Practice", "alias": null, "cqc_id": "1-199785519", "tel": 1616245457.0, "address": "53 Manchester Road, Oldham", "postcode": "OL8 4LR", "area_name": "Oldham", "area_code": "E08000004" }, "geometry": { "type": "Point", "coordinates": [ -2.134298, 53.529137 ] } },
{ "type": "Feature", "properties": { "name": "Ashville Surgery", "alias": null, "cqc_id": "1-199784486", "tel": 1618814293.0, "address": "171 Upper Chorlton Road, Whalley Range, Manchester", "postcode": "M16 9RT", "area_name": "Manchester", "area_code": "E08000003" }, "geometry": { "type": "Point", "coordinates": [ -2.268044, 53.452519 ] } },
{ "type": "Feature", "properties": { "name": "Medlock Vale Medical Practice", "alias": null, "cqc_id": "1-199787121", "tel": 1613701610.0, "address": "58 Ashton Road, Droylsden, Manchester", "postcode": "M43 7BW", "area_name": "Tameside", "area_code": "E08000008" }, "geometry": { "type": "Point", "coordinates": [ -2.142502, 53.479062 ] } },
{ "type": "Feature", "properties": { "name": "Sullivan Way Surgery", "alias": "Dr Smith and Partners", "cqc_id": "1-199787857", "tel": 1942243649.0, "address": "Sullivan Way, Scholes, Wigan", "postcode": "WN1 3TB", "area_name": "Wigan", "area_code": "E08000010" }, "geometry": { "type": "Point", "coordinates": [ -2.622534, 53.549154 ] } },
{ "type": "Feature", "properties": { "name": "Sharma and Partners", "alias": "Medicentre", "cqc_id": "1-199787768", "tel": 1942483754.0, "address": "Medicentre, 185 Wigan Road, Ashton-in-Makerfield, Wigan", "postcode": "WN4 9SL", "area_name": "Wigan", "area_code": "E08000010" }, "geometry": { "type": "Point", "coordinates": [ -2.643055, 53.494018 ] } },
{ "type": "Feature", "properties": { "name": "Lever Chambers 2", "alias": null, "cqc_id": "1-199783568", "tel": 1204462660.0, "address": "Lever Chambers Centre for Health,, Ashburner Street,, Bolton", "postcode": "BL1 1SQ", "area_name": "Bolton", "area_code": "E08000001" }, "geometry": { "type": "Point", "coordinates": [ -2.431198, 53.576864 ] } },
{ "type": "Feature", "properties": { "name": "Castleton Health Centre", "alias": null, "cqc_id": "1-199785745", "tel": 1706658905.0, "address": "2 Elizabeth Street, Castleton, Rochdale", "postcode": "OL11 3HY", "area_name": "Rochdale", "area_code": "E08000005" }, "geometry": { "type": "Point", "coordinates": [ -2.18229, 53.597034 ] } },
{ "type": "Feature", "properties": { "name": "Ashcroft Surgery", "alias": null, "cqc_id": "1-199784625", "tel": 1612241329.0, "address": "803 Stockport Road, Levenshulme, Manchester", "postcode": "M19 3BS", "area_name": "Manchester", "area_code": "E08000003" }, "geometry": { "type": "Point", "coordinates": [ -2.19117, 53.445449 ] } },
{ "type": "Feature", "properties": { "name": "Argyle Street Medical Centre", "alias": null, "cqc_id": "1-199785815", "tel": 1706366135.0, "address": "141 Argyle Street, Heywood", "postcode": "OL10 3SD", "area_name": "Rochdale", "area_code": "E08000005" }, "geometry": { "type": "Point", "coordinates": [ -2.239335, 53.58737 ] } },
{ "type": "Feature", "properties": { "name": "Walkden Gateway", "alias": null, "cqc_id": "1-199783568", "tel": 1612117175.0, "address": "2 Smith street,Walkden, Manchester", "postcode": "M28 3EZ", "area_name": "Salford", "area_code": "E08000006" }, "geometry": { "type": "Point", "coordinates": [ -2.398541, 53.524898 ] } },
{ "type": "Feature", "properties": { "name": "Salford Medical Centre 1", "alias": null, "cqc_id": "1-199786030", "tel": 1617361166.0, "address": "Salford Medical Centre(1), 194-198 Langworthy Road, Salford", "postcode": "M6 5PP", "area_name": "Salford", "area_code": "E08000006" }, "geometry": { "type": "Point", "coordinates": [ -2.294577, 53.487206 ] } },
{ "type": "Feature", "properties": { "name": "Dearden Avenue Medical Practice", "alias": "Dr A Ahuja Surgery", "cqc_id": "1-199786277", "tel": 1612126262.0, "address": "1A Dearden Avenue, Little Hulton, Manchester", "postcode": "M38 9GH", "area_name": "Salford", "area_code": "E08000006" }, "geometry": { "type": "Point", "coordinates": [ -2.418615, 53.533827 ] } },
{ "type": "Feature", "properties": { "name": "Dr Patel, Kamath and Partners", "alias": null, "cqc_id": "1-199787966", "tel": 8443878500.0, "address": "Longshoot Health Centre, Scholes, Wigan", "postcode": "WN1 3NH", "area_name": "Wigan", "area_code": "E08000010" }, "geometry": { "type": "Point", "coordinates": [ -2.620127, 53.54967 ] } },
{ "type": "Feature", "properties": { "name": "Donald Wilde Medical Centre", "alias": null, "cqc_id": "1-199785226", "tel": 1616523184.0, "address": "283 Rochdale Road, Oldham", "postcode": "OL1 2HG", "area_name": "Oldham", "area_code": "E08000004" }, "geometry": { "type": "Point", "coordinates": [ -2.120459, 53.549464 ] } },
{ "type": "Feature", "properties": { "name": "Marus Bridge Practice", "alias": null, "cqc_id": "1-199788245", "tel": 1942481500.0, "address": "Chandler House, Worsley Mesnes Health Centre, Poolstock Lane, Wigan", "postcode": "WN3 5HL", "area_name": "Wigan", "area_code": "E08000010" }, "geometry": { "type": "Point", "coordinates": [ -2.643772, 53.529393 ] } },
{ "type": "Feature", "properties": { "name": "Shay Lane Medical Centre - Kelman", "alias": "Drs Kelman,Cranston&Naylor", "cqc_id": "1-199787428", "tel": 1619803835.0, "address": "Shay Lane, Hale Barns, Altrincham", "postcode": "WA15 8NZ", "area_name": "Trafford", "area_code": "E08000009" }, "geometry": { "type": "Point", "coordinates": [ -2.31556, 53.372189 ] } },
{ "type": "Feature", "properties": { "name": "Garden City Medical Centre", "alias": null, "cqc_id": "1-199784198", "tel": 1204884710.0, "address": "1a Garden City, Holcombe Brook, Bury", "postcode": "BL0 9TN", "area_name": "Bury", "area_code": "E08000002" }, "geometry": { "type": "Point", "coordinates": [ -2.330377, 53.629515 ] } },
{ "type": "Feature", "properties": { "name": "Mandalay Medical Centre", "alias": null, "cqc_id": "1-199783646", "tel": 8444771751.0, "address": "933 Blackburn Road, Bolton", "postcode": "BL1 7LR", "area_name": "Bolton", "area_code": "E08000001" }, "geometry": { "type": "Point", "coordinates": [ -2.432116, 53.610567 ] } },
{ "type": "Feature", "properties": { "name": "Bodey Medical Centre", "alias": null, "cqc_id": "1-199784466", "tel": 1612486644.0, "address": "28 Ladybarn Lane, Fallowfield, Manchester", "postcode": "M14 6WP", "area_name": "Manchester", "area_code": "E08000003" }, "geometry": { "type": "Point", "coordinates": [ -2.214798, 53.440636 ] } },
{ "type": "Feature", "properties": { "name": "Princess Road Surgery", "alias": null, "cqc_id": "1-199784655", "tel": 1614457805.0, "address": "471-475 Princess Road, Withington, Manchester", "postcode": "M20 1BH", "area_name": "Manchester", "area_code": "E08000003" }, "geometry": { "type": "Point", "coordinates": [ -2.243625, 53.440374 ] } },
{ "type": "Feature", "properties": { "name": "Shekar et al", "alias": "Minden Family Practices - Shekar Practice", "cqc_id": "1-199783976", "tel": 1614478281.0, "address": "Minden Family Practices, Moorgate Primary Care Centre, 22 Derby Way, Bury", "postcode": "BL9 0NJ", "area_name": "Bury", "area_code": "E08000002" }, "geometry": { "type": "Point", "coordinates": [ -2.288591, 53.59553 ] } },
{ "type": "Feature", "properties": { "name": "HT Practice", "alias": null, "cqc_id": "1-199787220", "tel": 1613427200.0, "address": "Ashton Primary Care Centre, 193 Old Street, Ashton-Under-Lyne", "postcode": "OL6 7SR", "area_name": "Tameside", "area_code": "E08000008" }, "geometry": { "type": "Point", "coordinates": [ -2.099213, 53.486097 ] } },
{ "type": "Feature", "properties": { "name": "Park View Group Practice", "alias": null, "cqc_id": "1-199786705", "tel": 1614269500.0, "address": "2 Longford Road West, Reddish, Stockport", "postcode": "SK5 6ET", "area_name": "Stockport", "area_code": "E08000007" }, "geometry": { "type": "Point", "coordinates": [ -2.160577, 53.445476 ] } },
{ "type": "Feature", "properties": { "name": "Drs Adab, Chavdarov, Chen, Chew-Graham, Hill, Ratcliffe and Siebert", "alias": "Chorlton Family Practice", "cqc_id": "1-199784705", "tel": 1618814545.0, "address": "Chorlton Health Centre, 1 Nicolas Road, Chorlton-cum-Hardy, Manchester", "postcode": "M21 9NJ", "area_name": "Manchester", "area_code": "E08000003" }, "geometry": { "type": "Point", "coordinates": [ -2.279717, 53.443773 ] } },
{ "type": "Feature", "properties": { "name": "Hopwood Medical Centre", "alias": null, "cqc_id": "1-199785873", "tel": 1706369886.0, "address": "1-3 Walton Street, Hopwood, Heywood", "postcode": "OL10 2BS", "area_name": "Rochdale", "area_code": "E08000005" }, "geometry": { "type": "Point", "coordinates": [ -2.212052, 53.587143 ] } },
{ "type": "Feature", "properties": { "name": "Valentine Medical Centre", "alias": null, "cqc_id": "1-199784317", "tel": 1612415480.0, "address": "2 Smethurst Street, Blackley, Manchester", "postcode": "M9 8PP", "area_name": "Manchester", "area_code": "E08000003" }, "geometry": { "type": "Point", "coordinates": [ -2.213082, 53.515702 ] } },
{ "type": "Feature", "properties": { "name": "Mount Road Surgery", "alias": null, "cqc_id": "1-199784596", "tel": 1612314997.0, "address": "110 Mount Road, Gorton, Manchester", "postcode": "M18 7BQ", "area_name": "Manchester", "area_code": "E08000003" }, "geometry": { "type": "Point", "coordinates": [ -2.1814, 53.45981 ] } },
{ "type": "Feature", "properties": { "name": "Longfield Medical Practice", "alias": null, "cqc_id": "1-199784218", "tel": 1617730494.0, "address": "Prestwich Health Centre, Fairfax Road, Prestwich, Manchester", "postcode": "M25 1BT", "area_name": "Bury", "area_code": "E08000002" }, "geometry": { "type": "Point", "coordinates": [ -2.28357, 53.533828 ] } },
{ "type": "Feature", "properties": { "name": "Dr Alistair Partnership", "alias": null, "cqc_id": "1-199788303", "tel": 1942483250.0, "address": "7 Brooks Medical Centre, 21 Church Street, Atherton, Manchester", "postcode": "M46 9DE", "area_name": "Wigan", "area_code": "E08000010" }, "geometry": { "type": "Point", "coordinates": [ -2.489022, 53.524185 ] } },
{ "type": "Feature", "properties": { "name": "Irlam Group Practice", "alias": null, "cqc_id": "1-199786050", "tel": 1617761000.0, "address": "523 Liverpool Road, Irlam, Manchester", "postcode": "M44 6ZS", "area_name": "Salford", "area_code": "E08000006" }, "geometry": { "type": "Point", "coordinates": [ -2.426415, 53.439142 ] } },
{ "type": "Feature", "properties": { "name": "Bramhall Park Medical Centre", "alias": "Dr Devine & Partners", "cqc_id": "1-199786685", "tel": 1612044221.0, "address": "235 Bramhall Lane South, Bramhall, Stockport", "postcode": "SK7 3EP", "area_name": "Stockport", "area_code": "E08000007" }, "geometry": { "type": "Point", "coordinates": [ -2.162344, 53.376037 ] } },
{ "type": "Feature", "properties": { "name": "The Gill Medical Centre", "alias": null, "cqc_id": "1-199786158", "tel": 1617903033.0, "address": "5 Harriet Street, Worsley, Manchester", "postcode": "M28 3DR", "area_name": "Salford", "area_code": "E08000006" }, "geometry": { "type": "Point", "coordinates": [ -2.398384, 53.524288 ] } },
{ "type": "Feature", "properties": { "name": "Ashworth Street Surgery", "alias": null, "cqc_id": "1-199785715", "tel": 1706346767.0, "address": "85 Spotland Road, Rochdale", "postcode": "OL12 6RT", "area_name": "Rochdale", "area_code": "E08000005" }, "geometry": { "type": "Point", "coordinates": [ -2.165652, 53.619565 ] } },
{ "type": "Feature", "properties": { "name": "Lower Broughton Medical Practice 3", "alias": null, "cqc_id": "1-199786421", "tel": 1612126520.0, "address": "Lower Broughton Health Centre, Great Clowes Street, Salford", "postcode": "M7 1RD", "area_name": "Salford", "area_code": "E08000006" }, "geometry": { "type": "Point", "coordinates": [ -2.258808, 53.49359 ] } },
{ "type": "Feature", "properties": { "name": "The Energise Healthy Living Centre", "alias": null, "cqc_id": "1-199786421", "tel": 1613515050.0, "address": "3 Douglas Green, Salford", "postcode": "M6 6ES", "area_name": "Salford", "area_code": "E08000006" }, "geometry": { "type": "Point", "coordinates": [ -2.283601, 53.497848 ] } },
{ "type": "Feature", "properties": { "name": "Hazeldene Medical Centre", "alias": "Dr Rodger & Partners", "cqc_id": "1-199784744", "tel": 1612418039.0, "address": "97 Moston Lane East, New Moston, Manchester", "postcode": "M40 3HD", "area_name": "Manchester", "area_code": "E08000003" }, "geometry": { "type": "Point", "coordinates": [ -2.161372, 53.516187 ] } },
{ "type": "Feature", "properties": { "name": "Woodlands Medical Practice", "alias": null, "cqc_id": "1-199785315", "tel": 1619098131.0, "address": "Chadderton Town Health Centre, Chadderton, Oldham", "postcode": "OL9 0LH", "area_name": "Oldham", "area_code": "E08000004" }, "geometry": { "type": "Point", "coordinates": [ -2.142182, 53.545559 ] } },
{ "type": "Feature", "properties": { "name": "Heaton Moor Medical Group", "alias": null, "cqc_id": "1-199786566", "tel": 1614320671.0, "address": "32 Heaton Moor Road, Heaton Moor, Stockport", "postcode": "SK4 4NX", "area_name": "Stockport", "area_code": "E08000007" }, "geometry": { "type": "Point", "coordinates": [ -2.180393, 53.424819 ] } },
{ "type": "Feature", "properties": { "name": "Cornerstone Family Practice", "alias": null, "cqc_id": "1-199784516", "tel": 1612230637.0, "address": "Cornerstone Centre, Graham Street, Beswick, Manchester", "postcode": "M11 3AA", "area_name": "Manchester", "area_code": "E08000003" }, "geometry": { "type": "Point", "coordinates": [ -2.195097, 53.474422 ] } },
{ "type": "Feature", "properties": { "name": "The Elms Medical Centre", "alias": null, "cqc_id": "1-199784158", "tel": 1617662662.0, "address": "Green Lane, Whitefield, Manchester", "postcode": "M45 7FD", "area_name": "Bury", "area_code": "E08000002" }, "geometry": { "type": "Point", "coordinates": [ -2.295201, 53.553233 ] } },
{ "type": "Feature", "properties": { "name": "Urban Village Medical Practice", "alias": null, "cqc_id": "1-199785088", "tel": 1612725656.0, "address": "Old Mill Street, Manchester", "postcode": "M4 6EE", "area_name": "Manchester", "area_code": "E08000003" }, "geometry": { "type": "Point", "coordinates": [ -2.219472, 53.4829 ] } },
{ "type": "Feature", "properties": { "name": "Cheetham Hill Primary Care Centre", "alias": null, "cqc_id": "1-199784556", "tel": 1612776939.0, "address": "244 Cheetham Hill Road, Manchester", "postcode": "M8 8UP", "area_name": "Manchester", "area_code": "E08000003" }, "geometry": { "type": "Point", "coordinates": [ -2.23526, 53.501162 ] } },
{ "type": "Feature", "properties": { "name": "Dr Seabrook & partners", "alias": null, "cqc_id": "1-199786596", "tel": 1614265300.0, "address": "Cheadle Hulme Health Centre, Smithy Green, Hulme Hall Road, Cheadle", "postcode": "SK8 6LU", "area_name": "Stockport", "area_code": "E08000007" }, "geometry": { "type": "Point", "coordinates": [ -2.191357, 53.366475 ] } },
{ "type": "Feature", "properties": { "name": "Awburn House Medical Practice", "alias": null, "cqc_id": "1-199787071", "tel": 1457763263.0, "address": "Mottram Moor, Mottram, Hyde", "postcode": "SK14 6LA", "area_name": "Tameside", "area_code": "E08000008" }, "geometry": { "type": "Point", "coordinates": [ -2.011, 53.458105 ] } },
{ "type": "Feature", "properties": { "name": "Dr M B Ghafoor and Dr S A Abbasi", "alias": "Dr M B Ghafoor & Dr S A Abbasi's Practice", "cqc_id": "1-199785952", "tel": 1706261999.0, "address": "1st Floor, Nye Bevan House, Maclure Road, Rochdale", "postcode": "OL11 1DN", "area_name": "Rochdale", "area_code": "E08000005" }, "geometry": { "type": "Point", "coordinates": [ -2.154239, 53.611617 ] } },
{ "type": "Feature", "properties": { "name": "Durnford Medical Centre", "alias": null, "cqc_id": "1-199785845", "tel": 1616432011.0, "address": "113 Long Street, Middleton, Manchester", "postcode": "M24 6DL", "area_name": "Rochdale", "area_code": "E08000005" }, "geometry": { "type": "Point", "coordinates": [ -2.197033, 53.554038 ] } },
{ "type": "Feature", "properties": { "name": "Bradford Street Surgery", "alias": null, "cqc_id": "1-199783694", "tel": 1204521061.0, "address": "65 Bradford Street, Haulgh, Bolton", "postcode": "BL2 1HT", "area_name": "Bolton", "area_code": "E08000001" }, "geometry": { "type": "Point", "coordinates": [ -2.418225, 53.576838 ] } },
{ "type": "Feature", "properties": { "name": "Milnrow Village Practice", "alias": null, "cqc_id": "1-199785665", "tel": 1706641409.0, "address": "44-48 Newhey Road, Milnrow, Rochdale", "postcode": "OL16 4EG", "area_name": "Rochdale", "area_code": "E08000005" }, "geometry": { "type": "Point", "coordinates": [ -2.106343, 53.606608 ] } },
{ "type": "Feature", "properties": { "name": "Lockside Medical Centre", "alias": null, "cqc_id": "1-199787081", "tel": 1613037200.0, "address": "85 Huddersfield Road, Stalybridge", "postcode": "SK15 2PT", "area_name": "Tameside", "area_code": "E08000008" }, "geometry": { "type": "Point", "coordinates": [ -2.046286, 53.484945 ] } },
{ "type": "Feature", "properties": { "name": "Al-Shifa Medical Centre", "alias": null, "cqc_id": "1-199785038", "tel": 1614342753.0, "address": "4-6 Copson Street, Withington, Manchester", "postcode": "M20 3HE", "area_name": "Manchester", "area_code": "E08000003" }, "geometry": { "type": "Point", "coordinates": [ -2.229695, 53.433705 ] } },
{ "type": "Feature", "properties": { "name": "Lower Broughton Medical Practice 4", "alias": null, "cqc_id": "1-199786188", "tel": 1618392730.0, "address": "Lower Broughton Health Centre, Great Clowes Street, Salford", "postcode": "M7 1RD", "area_name": "Salford", "area_code": "E08000006" }, "geometry": { "type": "Point", "coordinates": [ -2.258808, 53.49359 ] } },
{ "type": "Feature", "properties": { "name": "Woodside Medical Centre", "alias": null, "cqc_id": "1-199785775", "tel": 1616439244.0, "address": "247J Wood Street, Langley Estate, Middleton, Manchester", "postcode": "M24 5QL", "area_name": "Rochdale", "area_code": "E08000005" }, "geometry": { "type": "Point", "coordinates": [ -2.213286, 53.556347 ] } },
{ "type": "Feature", "properties": { "name": "Oldham Medical Services", "alias": null, "cqc_id": "1-199785334", "tel": 1616244716.0, "address": "Langham House, 368 Ashton Road, Oldham", "postcode": "OL8 3HF", "area_name": "Oldham", "area_code": "E08000004" }, "geometry": { "type": "Point", "coordinates": [ -2.111252, 53.525305 ] } },
{ "type": "Feature", "properties": { "name": "Park Medical Practice", "alias": null, "cqc_id": "1-199787388", "tel": 1619733485.0, "address": "119 Park Road, Timperley, Altrincham", "postcode": "WA15 6QQ", "area_name": "Trafford", "area_code": "E08000009" }, "geometry": { "type": "Point", "coordinates": [ -2.327843, 53.401899 ] } },
{ "type": "Feature", "properties": { "name": "Brooklands Medical Practice", "alias": null, "cqc_id": "1-199784685", "tel": 1619983818.0, "address": "594 Altrincham Road, Wythenshawe, Manchester", "postcode": "M23 9JH", "area_name": "Manchester", "area_code": "E08000003" }, "geometry": { "type": "Point", "coordinates": [ -2.304253, 53.400982 ] } },
{ "type": "Feature", "properties": { "name": "Stamford House Medical Centre", "alias": null, "cqc_id": "1-199787339", "tel": 1613440803.0, "address": "2 Princess Street, Ashton Under Lyne", "postcode": "OL6 9QH", "area_name": "Tameside", "area_code": "E08000008" }, "geometry": { "type": "Point", "coordinates": [ -2.078642, 53.493647 ] } },
{ "type": "Feature", "properties": { "name": "Dukinfield Medical Practice", "alias": null, "cqc_id": "1-199787230", "tel": 1613436382.0, "address": "20-22 Concord Way, Dukinfield", "postcode": "SK16 4DB", "area_name": "Tameside", "area_code": "E08000008" }, "geometry": { "type": "Point", "coordinates": [ -2.083416, 53.476538 ] } },
{ "type": "Feature", "properties": { "name": "Dr Vasanth and Partners", "alias": null, "cqc_id": "1-199788217", "tel": 1942481040.0, "address": "Atherton Health Centre, Atherton, Manchester", "postcode": "M46 0LE", "area_name": "Wigan", "area_code": "E08000010" }, "geometry": { "type": "Point", "coordinates": [ -2.500811, 53.527489 ] } },
{ "type": "Feature", "properties": { "name": "Silverdale Medical Practice", "alias": null, "cqc_id": "1-199786090", "tel": 1612126565.0, "address": "Pendlebury Health Centre, 659 Bolton Road, Pendlebury, Manchester", "postcode": "M27 8HP", "area_name": "Salford", "area_code": "E08000006" }, "geometry": { "type": "Point", "coordinates": [ -2.331475, 53.518793 ] } },
{ "type": "Feature", "properties": { "name": "Bedford House Medical Centre", "alias": null, "cqc_id": "1-199787111", "tel": 1613309880.0, "address": "GP Surgery, Glebe Street, Ashton Under Lyne", "postcode": "OL6 6HD", "area_name": "Tameside", "area_code": "E08000008" }, "geometry": { "type": "Point", "coordinates": [ -2.089184, 53.489361 ] } },
{ "type": "Feature", "properties": { "name": "Beech House Medical Practice", "alias": null, "cqc_id": "1-199786645", "tel": 1614836222.0, "address": "Beech Avenue,, Hazel Grove,, Stockport", "postcode": "SK7 4QR", "area_name": "Stockport", "area_code": "E08000007" }, "geometry": { "type": "Point", "coordinates": [ -2.118146, 53.379406 ] } },
{ "type": "Feature", "properties": { "name": "Lever Chambers 1", "alias": "Dr Lyon & Partners", "cqc_id": "1-199783558", "tel": 1204462630.0, "address": "Lever Chambers Centre for Health,, Ashburner Street,, Bolton", "postcode": "BL1 1SQ", "area_name": "Bolton", "area_code": "E08000001" }, "geometry": { "type": "Point", "coordinates": [ -2.431198, 53.576864 ] } },
{ "type": "Feature", "properties": { "name": "Dr Wong and Partners", "alias": null, "cqc_id": "1-199787827", "tel": 1942605506.0, "address": "Old Henry Street Medical Centre, Henry Street, Leigh", "postcode": "WN7 2PG", "area_name": "Wigan", "area_code": "E08000010" }, "geometry": { "type": "Point", "coordinates": [ -2.51155, 53.494815 ] } },
{ "type": "Feature", "properties": { "name": "Dr D. Pal & Dr M. Pal", "alias": null, "cqc_id": "1-199788179", "tel": 1942481600.0, "address": "Golborne Health Centre, Kidglove Road, Golborne, Warrington", "postcode": "WA3 3GS", "area_name": "Wigan", "area_code": "E08000010" }, "geometry": { "type": "Point", "coordinates": [ -2.596088, 53.479089 ] } },
{ "type": "Feature", "properties": { "name": "Longsight Medical Practice", "alias": null, "cqc_id": "1-199785176", "tel": 1612564488.0, "address": "Longsight Health Centre, 526-528 Stockport Road, Longsight, Manchester", "postcode": "M13 0RR", "area_name": "Manchester", "area_code": "E08000003" }, "geometry": { "type": "Point", "coordinates": [ -2.201887, 53.457584 ] } },
{ "type": "Feature", "properties": { "name": "Mark Street Surgery", "alias": null, "cqc_id": "1-199785735", "tel": 1706643183.0, "address": "2 Mark Street, Rochdale", "postcode": "OL12 9BE", "area_name": "Rochdale", "area_code": "E08000005" }, "geometry": { "type": "Point", "coordinates": [ -2.144639, 53.62423 ] } },
{ "type": "Feature", "properties": { "name": "The Maples Medical Centre", "alias": null, "cqc_id": "1-199784337", "tel": 1614988484.0, "address": "2 Scout Drive, Newall Green, Manchester", "postcode": "M23 2SY", "area_name": "Manchester", "area_code": "E08000003" }, "geometry": { "type": "Point", "coordinates": [ -2.286712, 53.384846 ] } },
{ "type": "Feature", "properties": { "name": "Saddleworth Medical Practice", "alias": null, "cqc_id": "1-199785373", "tel": 1457872228.0, "address": "Smithy Lane, Uppermill, Oldham", "postcode": "OL3 6AH", "area_name": "Oldham", "area_code": "E08000004" }, "geometry": { "type": "Point", "coordinates": [ -2.004957, 53.548331 ] } },
{ "type": "Feature", "properties": { "name": "Blackford House Medical Centre", "alias": null, "cqc_id": "1-199783986", "tel": 1617666622.0, "address": "137 Croft Lane, Hollins, Bury", "postcode": "BL9 8QA", "area_name": "Bury", "area_code": "E08000002" }, "geometry": { "type": "Point", "coordinates": [ -2.283325, 53.574266 ] } },
{ "type": "Feature", "properties": { "name": "Monarch Medical Centre", "alias": null, "cqc_id": "1-199783996", "tel": 1617230123.0, "address": "65 Cross Lane, Radcliffe, Manchester", "postcode": "M26 2QZ", "area_name": "Bury", "area_code": "E08000002" }, "geometry": { "type": "Point", "coordinates": [ -2.316823, 53.564198 ] } },
{ "type": "Feature", "properties": { "name": "Oak Gables Medical Practice", "alias": null, "cqc_id": "1-199785383", "tel": 1706888222.0, "address": "The Oak Gables Partnership, Crompton Health Centre, High Street, Shaw, Oldham", "postcode": "OL2 8ST", "area_name": "Oldham", "area_code": "E08000004" }, "geometry": { "type": "Point", "coordinates": [ -2.095994, 53.574817 ] } },
{ "type": "Feature", "properties": { "name": "The Sides Medical Practice", "alias": null, "cqc_id": "1-199786070", "tel": 1617941604.0, "address": "The Sides Medical Centre, Moorside Road, Swinton, Manchester", "postcode": "M27 0EW", "area_name": "Salford", "area_code": "E08000006" }, "geometry": { "type": "Point", "coordinates": [ -2.354232, 53.505929 ] } },
{ "type": "Feature", "properties": { "name": "Wilbraham Surgery", "alias": null, "cqc_id": "1-199784773", "tel": 1618816120.0, "address": "515 Wilbraham Road, Chorlton-Cum-Hardy, Manchester", "postcode": "M21 0UF", "area_name": "Manchester", "area_code": "E08000003" }, "geometry": { "type": "Point", "coordinates": [ -2.271518, 53.442318 ] } },
{ "type": "Feature", "properties": { "name": "Delamere Medical Practice", "alias": null, "cqc_id": "1-199787505", "tel": 1618640200.0, "address": "Delamere Avenue, Stretford, Manchester", "postcode": "M32 0DF", "area_name": "Trafford", "area_code": "E08000009" }, "geometry": { "type": "Point", "coordinates": [ -2.307365, 53.450887 ] } },
{ "type": "Feature", "properties": { "name": "Al-Fal Medical Group - Pikes Lane Health Centre", "alias": null, "cqc_id": "1-199783850", "tel": 1204463330.0, "address": "The Pikes Lane Centre, Deane Road, Bolton", "postcode": "BL3 5HP", "area_name": "Bolton", "area_code": "E08000001" }, "geometry": { "type": "Point", "coordinates": [ -2.446348, 53.572728 ] } },
{ "type": "Feature", "properties": { "name": "Whitley Road Medical Centre", "alias": null, "cqc_id": "1-199784635", "tel": 1612054407.0, "address": "1 Whitley Road, Collyhurst, Manchester", "postcode": "M40 7QH", "area_name": "Manchester", "area_code": "E08000003" }, "geometry": { "type": "Point", "coordinates": [ -2.2227, 53.49493 ] } },
{ "type": "Feature", "properties": { "name": "Haughton Thornley Medical Centres", "alias": null, "cqc_id": "1-199787161", "tel": 1613677910.0, "address": "Thornley House Medical Centre, Thornley Street, Hyde", "postcode": "SK14 1JY", "area_name": "Tameside", "area_code": "E08000008" }, "geometry": { "type": "Point", "coordinates": [ -2.076116, 53.446746 ] } },
{ "type": "Feature", "properties": { "name": "Stockport Medical Group", "alias": "Edgeley Medical Practice", "cqc_id": "1-199787012", "tel": 1614265333.0, "address": "1-3 Avondale Road, Edgeley, Stockport", "postcode": "SK3 9NX", "area_name": "Stockport", "area_code": "E08000007" }, "geometry": { "type": "Point", "coordinates": [ -2.177788, 53.402873 ] } },
{ "type": "Feature", "properties": { "name": "St Gabriel's Medical Centre", "alias": null, "cqc_id": "1-199784091", "tel": 1617731791.0, "address": "4 Bishops Road, Prestwich, Manchester", "postcode": "M25 0HT", "area_name": "Bury", "area_code": "E08000002" }, "geometry": { "type": "Point", "coordinates": [ -2.265791, 53.520809 ] } },
{ "type": "Feature", "properties": { "name": "Conway Road Medical Practice", "alias": null, "cqc_id": "1-199787604", "tel": 1619731151.0, "address": "Conway Road Health Centre, 80a Conway Road, Sale", "postcode": "M33 2TB", "area_name": "Trafford", "area_code": "E08000009" }, "geometry": { "type": "Point", "coordinates": [ -2.303561, 53.417873 ] } },
{ "type": "Feature", "properties": { "name": "Wellfield Medical Centre", "alias": null, "cqc_id": "1-199784793", "tel": 1617402213.0, "address": "55 Crescent Road, Crumpsall, Manchester", "postcode": "M8 9JT", "area_name": "Manchester", "area_code": "E08000003" }, "geometry": { "type": "Point", "coordinates": [ -2.242019, 53.512545 ] } },
{ "type": "Feature", "properties": { "name": "Dr IK Babar", "alias": null, "cqc_id": "1-199785795", "tel": 1706261883.0, "address": "Floor 2, The Croft Shifa Health Centre, Belfield Road, Rochdale", "postcode": "OL16 2UY", "area_name": "Rochdale", "area_code": "E08000005" }, "geometry": { "type": "Point", "coordinates": [ -2.138254, 53.622746 ] } },
{ "type": "Feature", "properties": { "name": "Quayside Medical Practice", "alias": null, "cqc_id": "1-199785463", "tel": 1616811818.0, "address": "Failsworth District Centre, Ashton Road West, Failsworth, Manchester", "postcode": "M35 0AD", "area_name": "Oldham", "area_code": "E08000004" }, "geometry": { "type": "Point", "coordinates": [ -2.156747, 53.509855 ] } },
{ "type": "Feature", "properties": { "name": "The Singh Medical Practice", "alias": null, "cqc_id": "1-199784724", "tel": 1618612408.0, "address": "The Harpurhey Health Centre, 1 Church Lane, Harpurhey, Manchester", "postcode": "M9 4BE", "area_name": "Manchester", "area_code": "E08000003" }, "geometry": { "type": "Point", "coordinates": [ -2.213622, 53.512042 ] } },
{ "type": "Feature", "properties": { "name": "Heaton Mersey Medical Practice", "alias": null, "cqc_id": "1-199786606", "tel": 1614269400.0, "address": "460 Didsbury Road, Heaton Mersey, Stockport", "postcode": "SK4 3BT", "area_name": "Stockport", "area_code": "E08000007" }, "geometry": { "type": "Point", "coordinates": [ -2.205118, 53.412519 ] } },
{ "type": "Feature", "properties": { "name": "Partington Family Practice", "alias": null, "cqc_id": "1-199787555", "tel": 1617757033.0, "address": "Partington Health Centre, Central Road, Partington, Manchester", "postcode": "M31 4FY", "area_name": "Trafford", "area_code": "E08000009" }, "geometry": { "type": "Point", "coordinates": [ -2.425413, 53.417204 ] } },
{ "type": "Feature", "properties": { "name": "The Dawes Family Practice", "alias": null, "cqc_id": "1-199785883", "tel": 1706644040.0, "address": "83 Spotland Road, Rochdale", "postcode": "OL12 6RX", "area_name": "Rochdale", "area_code": "E08000005" }, "geometry": { "type": "Point", "coordinates": [ -2.165652, 53.619565 ] } },
{ "type": "Feature", "properties": { "name": "Shanti Medical Centre", "alias": null, "cqc_id": "1-199783742", "tel": 1204665354.0, "address": "160 St Helens Road, Bolton", "postcode": "BL3 3PH", "area_name": "Bolton", "area_code": "E08000001" }, "geometry": { "type": "Point", "coordinates": [ -2.451458, 53.563369 ] } },
{ "type": "Feature", "properties": { "name": "Barlow Medical Centre", "alias": null, "cqc_id": "1-199784456", "tel": 1614459000.0, "address": "828 Wilmslow Road, Didsbury, Manchester", "postcode": "M20 2RN", "area_name": "Manchester", "area_code": "E08000003" }, "geometry": { "type": "Point", "coordinates": [ -2.231434, 53.413163 ] } },
{ "type": "Feature", "properties": { "name": "Dr Ngan and Partners", "alias": null, "cqc_id": "1-199784237", "tel": 1612741500.0, "address": "The Vallance Centre, Brunswick Street, Manchester", "postcode": "M13 9UJ", "area_name": "Manchester", "area_code": "E08000003" }, "geometry": { "type": "Point", "coordinates": [ -2.224542, 53.469786 ] } },
{ "type": "Feature", "properties": { "name": "Adswood Road Surgery", "alias": null, "cqc_id": "1-199786942", "tel": 1614269770.0, "address": "270 Adswood Road, Adswood, Stockport", "postcode": "SK3 8PN", "area_name": "Stockport", "area_code": "E08000007" }, "geometry": { "type": "Point", "coordinates": [ -2.169883, 53.389393 ] } },
{ "type": "Feature", "properties": { "name": "Gorton Medical Centre", "alias": null, "cqc_id": "1-199784407", "tel": 1612231113.0, "address": "46 Wellington Street, Gorton, Manchester", "postcode": "M18 8LJ", "area_name": "Manchester", "area_code": "E08000003" }, "geometry": { "type": "Point", "coordinates": [ -2.171985, 53.463168 ] } },
{ "type": "Feature", "properties": { "name": "Standish Medical Practice", "alias": null, "cqc_id": "1-199787877", "tel": 1257421909.0, "address": "49 High Street, Wigan", "postcode": "WN6 0HD", "area_name": "Wigan", "area_code": "E08000010" }, "geometry": { "type": "Point", "coordinates": [ -2.660697, 53.584535 ] } },
{ "type": "Feature", "properties": { "name": "Peterloo Medical Centre", "alias": null, "cqc_id": "1-199785695", "tel": 1616435005.0, "address": "133-137 Manchester Old Road, Middleton, Manchester", "postcode": "M24 4DZ", "area_name": "Rochdale", "area_code": "E08000005" }, "geometry": { "type": "Point", "coordinates": [ -2.20616, 53.54676 ] } },
{ "type": "Feature", "properties": { "name": "Florence House Medical Practice", "alias": null, "cqc_id": "1-199784526", "tel": 1613702133.0, "address": "Ashton Old Road,, Higher Openshaw,, Manchester", "postcode": "M11 1JG", "area_name": "Manchester", "area_code": "E08000003" }, "geometry": { "type": "Point", "coordinates": [ -2.163496, 53.472644 ] } },
{ "type": "Feature", "properties": { "name": "Bradshaw Medical Partnership", "alias": null, "cqc_id": "1-199787837", "tel": 1942483900.0, "address": "Bradshaw Medical Centre, Bradshaw Street, Orrell, Wigan", "postcode": "WN5 0AB", "area_name": "Wigan", "area_code": "E08000010" }, "geometry": { "type": "Point", "coordinates": [ -2.688594, 53.537889 ] } },
{ "type": "Feature", "properties": { "name": "Shevington Surgery", "alias": null, "cqc_id": "1-199787907", "tel": 1942483777.0, "address": "The Surgery, Houghton Lane, Shevington, Wigan", "postcode": "WN6 8ET", "area_name": "Wigan", "area_code": "E08000010" }, "geometry": { "type": "Point", "coordinates": [ -2.69942, 53.574041 ] } },
{ "type": "Feature", "properties": { "name": "Dr Stockton & Dr Thompson", "alias": "Dr Stockton & Thompson", "cqc_id": "1-199793926", "tel": 1616544103.0, "address": "Clough Street,, Middleton,, Manchester", "postcode": "M24 2YJ", "area_name": "Rochdale", "area_code": "E08000005" }, "geometry": { "type": "Point", "coordinates": [ -2.187672, 53.55683 ] } },
{ "type": "Feature", "properties": { "name": "Langworthy Medical Practice", "alias": null, "cqc_id": "1-199786148", "tel": 1617379244.0, "address": "250 Langworthy Road, Salford", "postcode": "M6 5WW", "area_name": "Salford", "area_code": "E08000006" }, "geometry": { "type": "Point", "coordinates": [ -2.294771, 53.489371 ] } },
{ "type": "Feature", "properties": { "name": "Heald Green Health Centre 1", "alias": "Dr Dean & Partners", "cqc_id": "1-199786835", "tel": 1614269000.0, "address": "Finney Lane, Heald Green, Cheadle", "postcode": "SK8 3JD", "area_name": "Stockport", "area_code": "E08000007" }, "geometry": { "type": "Point", "coordinates": [ -2.229276, 53.369878 ] } },
{ "type": "Feature", "properties": { "name": "The Chandler Surgery", "alias": "Dr Kumar's Surgery", "cqc_id": "1-199787957", "tel": 1942481440.0, "address": "Chandler House, Worsley Mesnes Health Centre, Poolstock Lane, Wigan", "postcode": "WN3 5HL", "area_name": "Wigan", "area_code": "E08000010" }, "geometry": { "type": "Point", "coordinates": [ -2.643772, 53.529393 ] } },
{ "type": "Feature", "properties": { "name": "CH Medical", "alias": null, "cqc_id": "1-199785325", "tel": 161785924.0, "address": "Fields New Road Primary Care Centre, Chadderton, Oldham", "postcode": "OL9 8NH", "area_name": "Oldham", "area_code": "E08000004" }, "geometry": { "type": "Point", "coordinates": [ -2.145068, 53.533205 ] } },
{ "type": "Feature", "properties": { "name": "St Chads Medical Practice", "alias": null, "cqc_id": "1-199785325", "tel": 161620161.0, "address": "St Chads Centre, Lime Green Parade, Lime Green, Oldham", "postcode": "OL8 3HH", "area_name": "Oldham", "area_code": "E08000004" }, "geometry": { "type": "Point", "coordinates": [ -2.126789, 53.515222 ] } },
{ "type": "Feature", "properties": { "name": "King Street Medical Centre", "alias": null, "cqc_id": "1-199787240", "tel": 1613301142.0, "address": "96-98 King Street, Dukinfield", "postcode": "SK16 4JZ", "area_name": "Tameside", "area_code": "E08000008" }, "geometry": { "type": "Point", "coordinates": [ -2.093455, 53.478589 ] } },
{ "type": "Feature", "properties": { "name": "Northern Moor Medical Practice", "alias": null, "cqc_id": "1-199784978", "tel": 1619982503.0, "address": "216 Wythenshawe Road, Northern Moor, Manchester", "postcode": "M23 0PH", "area_name": "Manchester", "area_code": "E08000003" }, "geometry": { "type": "Point", "coordinates": [ -2.285109, 53.408049 ] } },
{ "type": "Feature", "properties": { "name": "Firsway Health Centre", "alias": null, "cqc_id": "1-199787535", "tel": 1619050310.0, "address": "121 Firsway, Sale", "postcode": "M33 4BR", "area_name": "Trafford", "area_code": "E08000009" }, "geometry": { "type": "Point", "coordinates": [ -2.355468, 53.421289 ] } },
{ "type": "Feature", "properties": { "name": "Manor Medical Practice", "alias": null, "cqc_id": "1-199786556", "tel": 1614269166.0, "address": "Offerton Health Centre, 10 Offerton Lane, Offerton, Stockport", "postcode": "SK2 5AR", "area_name": "Stockport", "area_code": "E08000007" }, "geometry": { "type": "Point", "coordinates": [ -2.136713, 53.403467 ] } },
{ "type": "Feature", "properties": { "name": "The Northenden Group Practice", "alias": null, "cqc_id": "1-199784267", "tel": 1619983206.0, "address": "489 Palatine Road, Northenden, Manchester", "postcode": "M22 4DH", "area_name": "Manchester", "area_code": "E08000003" }, "geometry": { "type": "Point", "coordinates": [ -2.265032, 53.406431 ] } },
{ "type": "Feature", "properties": { "name": "The Arch Medical Practice", "alias": null, "cqc_id": "1-199784872", "tel": 1612260606.0, "address": "175 Royce Road, Hulme, Manchester", "postcode": "M15 5TJ", "area_name": "Manchester", "area_code": "E08000003" }, "geometry": { "type": "Point", "coordinates": [ -2.249612, 53.46774 ] } },
{ "type": "Feature", "properties": { "name": "Crompton View Surgery", "alias": "Dr Walmsley and partners", "cqc_id": "1-199783733", "tel": 1204463090.0, "address": "Crompton Health Centre, 501 Crompton Way, Bolton", "postcode": "BL1 8UP", "area_name": "Bolton", "area_code": "E08000001" }, "geometry": { "type": "Point", "coordinates": [ -2.415226, 53.597486 ] } },
{ "type": "Feature", "properties": { "name": "Dr Hazem Lloyd", "alias": "Cedar House", "cqc_id": "1-199795181", "tel": 1614265198.0, "address": "Cedar House, 82 Bramhall Lane, Davenport, Stockport", "postcode": "SK2 6JG", "area_name": "Stockport", "area_code": "E08000007" }, "geometry": { "type": "Point", "coordinates": [ -2.153043, 53.393784 ] } },
{ "type": "Feature", "properties": { "name": "Fairfax Group Practice", "alias": null, "cqc_id": "1-199783926", "tel": 1617732483.0, "address": "Prestwich Health Centre, Fairfax Road, Prestwich, Manchester", "postcode": "M25 1BT", "area_name": "Bury", "area_code": "E08000002" }, "geometry": { "type": "Point", "coordinates": [ -2.28357, 53.533828 ] } },
{ "type": "Feature", "properties": { "name": "Dalefield Surgery", "alias": null, "cqc_id": "1-199783539", "tel": 1204462880.0, "address": "Avondale Health Centre, Avondale Street, Bolton", "postcode": "BL1 4JP", "area_name": "Bolton", "area_code": "E08000001" }, "geometry": { "type": "Point", "coordinates": [ -2.451813, 53.588167 ] } },
{ "type": "Feature", "properties": { "name": "Denton Medical Practice", "alias": null, "cqc_id": "1-199787200", "tel": 1613208788.0, "address": "100 Ashton Road, Denton, Manchester", "postcode": "M34 3JE", "area_name": "Tameside", "area_code": "E08000008" }, "geometry": { "type": "Point", "coordinates": [ -2.115509, 53.45991 ] } },
{ "type": "Feature", "properties": { "name": "Walkden Medical Practice", "alias": null, "cqc_id": "1-199786040", "tel": 1617025310.0, "address": "2 Hodge Road, Worsley, Manchester", "postcode": "M28 3AT", "area_name": "Salford", "area_code": "E08000006" }, "geometry": { "type": "Point", "coordinates": [ -2.397527, 53.522942 ] } },
{ "type": "Feature", "properties": { "name": "Redbank Group Practice", "alias": "Redbank Medical Group", "cqc_id": "1-199784139", "tel": 1617242040.0, "address": "Sun Suite 2nd Floor Radcliffe Primary Care Centre, 69 Church Street West,, Radcliffe", "postcode": "M26 3XA", "area_name": "Bury", "area_code": "E08000002" }, "geometry": { "type": "Point", "coordinates": [ -2.363787, 53.570535 ] } },
{ "type": "Feature", "properties": { "name": "The RLC Surgery", "alias": "Redbank Medical Group", "cqc_id": "1-199784139", "tel": 1617242080.0, "address": "Star Suite 2nd Floor Radcliffe Primary Care Centre 69 Church Street West, Radcliffe, Manchester", "postcode": "M26 2SP", "area_name": "Bury", "area_code": "E08000002" }, "geometry": { "type": "Point", "coordinates": [ -2.323706, 53.560143 ] } },
{ "type": "Feature", "properties": { "name": "Mile Lane Surgery", "alias": "Redbank Medical Group", "cqc_id": "1-199784139", "tel": 1617647804.0, "address": "Mile Lane Health Centre, 80 Mile Lane, Bury", "postcode": "BL8 2JR", "area_name": "Bury", "area_code": "E08000002" }, "geometry": { "type": "Point", "coordinates": [ -2.335248, 53.587814 ] } },
{ "type": "Feature", "properties": { "name": "Gatley Group Practice", "alias": null, "cqc_id": "1-199786755", "tel": 1614265100.0, "address": "Old Hall Road, Gatley, Cheadle", "postcode": "SK8 4DG", "area_name": "Stockport", "area_code": "E08000007" }, "geometry": { "type": "Point", "coordinates": [ -2.235344, 53.393794 ] } },
{ "type": "Feature", "properties": { "name": "Dr Anis and Anis", "alias": null, "cqc_id": "1-199787867", "tel": 1942481600.0, "address": "Golborne Health Centre, Kidglove Road, Golborne, Warrington", "postcode": "WA3 3GS", "area_name": "Wigan", "area_code": "E08000010" }, "geometry": { "type": "Point", "coordinates": [ -2.596088, 53.479089 ] } },
{ "type": "Feature", "properties": { "name": "M Ullah", "alias": "Platt House Surgery", "cqc_id": "1-199788006", "tel": 1942482370.0, "address": "Platt Bridge Health Centre, Rivington Avenue, Platt Bridge, Wigan", "postcode": "WN2 5NG", "area_name": "Wigan", "area_code": "E08000010" }, "geometry": { "type": "Point", "coordinates": [ -2.595925, 53.522279 ] } },
{ "type": "Feature", "properties": { "name": "Marple Bridge Surgery", "alias": null, "cqc_id": "1-199786546", "tel": 1614272049.0, "address": "Town Street, Marple Bridge, Stockport", "postcode": "SK6 5AA", "area_name": "Stockport", "area_code": "E08000007" }, "geometry": { "type": "Point", "coordinates": [ -2.053323, 53.400594 ] } },
{ "type": "Feature", "properties": { "name": "Dr Devadeep Gupta", "alias": "Pennine Surgery", "cqc_id": "1-199785854", "tel": 1706374990.0, "address": "Littleborough Health Centre, Featherstall Road, Littleborough", "postcode": "OL15 8HF", "area_name": "Rochdale", "area_code": "E08000005" }, "geometry": { "type": "Point", "coordinates": [ -2.103349, 53.642995 ] } },
{ "type": "Feature", "properties": { "name": "Spring View Medical Centre", "alias": null, "cqc_id": "1-199783752", "tel": 1204578128.0, "address": "Mytham Road, Little Lever, Bolton", "postcode": "BL3 1HQ", "area_name": "Bolton", "area_code": "E08000001" }, "geometry": { "type": "Point", "coordinates": [ -2.369742, 53.560837 ] } },
{ "type": "Feature", "properties": { "name": "Unsworth Medical Centre", "alias": null, "cqc_id": "1-199784006", "tel": 1617664092.0, "address": "Parr Lane, Unsworth, Bury", "postcode": "BL9 8JR", "area_name": "Bury", "area_code": "E08000002" }, "geometry": { "type": "Point", "coordinates": [ -2.273148, 53.560492 ] } },
{ "type": "Feature", "properties": { "name": "Garnet Fold Practice", "alias": null, "cqc_id": "1-199783529", "tel": 1204665588.0, "address": "374-376 St Helens Road, Bolton", "postcode": "BL3 3RR", "area_name": "Bolton", "area_code": "E08000001" }, "geometry": { "type": "Point", "coordinates": [ -2.457847, 53.559568 ] } },
{ "type": "Feature", "properties": { "name": "Bredbury Medical Centre", "alias": null, "cqc_id": "1-199786853", "tel": 1614269730.0, "address": "1 Auburn Avenue, Bredbury, Stockport", "postcode": "SK6 2AH", "area_name": "Stockport", "area_code": "E08000007" }, "geometry": { "type": "Point", "coordinates": [ -2.114054, 53.422915 ] } },
{ "type": "Feature", "properties": { "name": "Tame Valley Medical Centre", "alias": null, "cqc_id": "1-199787310", "tel": 1613307747.0, "address": "Glebe Street, Ashton Under Lyne", "postcode": "OL6 6HD", "area_name": "Tameside", "area_code": "E08000008" }, "geometry": { "type": "Point", "coordinates": [ -2.089184, 53.489361 ] } },
{ "type": "Feature", "properties": { "name": "Dr Nityananda Hati-Kakoty", "alias": null, "cqc_id": "1-199788197", "tel": 1942876011.0, "address": "Bee Fold Medical Centre, Bee Fold Lane, Atherton, Manchester", "postcode": "M46 0BD", "area_name": "Wigan", "area_code": "E08000010" }, "geometry": { "type": "Point", "coordinates": [ -2.499759, 53.521372 ] } },
{ "type": "Feature", "properties": { "name": "Dr George Bhima", "alias": "Dr Bhima Surgery", "cqc_id": "1-199785675", "tel": 1706261810.0, "address": "1st Floor, Nye Bevan House, Maclure Road, Rochdale", "postcode": "OL11 1DN", "area_name": "Rochdale", "area_code": "E08000005" }, "geometry": { "type": "Point", "coordinates": [ -2.154239, 53.611617 ] } },
{ "type": "Feature", "properties": { "name": "Eastlands Medical Practice", "alias": "Drs Glass & Singh", "cqc_id": "1-199784606", "tel": 1612239229.0, "address": "Clayton Health Centre, 89 North Road, Clayton, Manchester", "postcode": "M11 4EJ", "area_name": "Manchester", "area_code": "E08000003" }, "geometry": { "type": "Point", "coordinates": [ -2.184157, 53.484308 ] } },
{ "type": "Feature", "properties": { "name": "IntraHealth Marsh Green", "alias": "IntraHealth Limited", "cqc_id": "1-199687613", "tel": 1942483135.0, "address": "Harrow Road, Wigan", "postcode": "WN5 0QL", "area_name": "Wigan", "area_code": "E08000010" }, "geometry": { "type": "Point", "coordinates": [ -2.667437, 53.549263 ] } },
{ "type": "Feature", "properties": { "name": "Lower Ince & Platt Bridge Medical Practice", "alias": "IntraHealth Limited", "cqc_id": "1-199687613", "tel": 1942481120.0, "address": "Rivington Avenue, Platt Bridge, Wigan", "postcode": "WN2 5NG", "area_name": "Wigan", "area_code": "E08000010" }, "geometry": { "type": "Point", "coordinates": [ -2.595925, 53.522279 ] } },
{ "type": "Feature", "properties": { "name": "Tyldesley Health Centre", "alias": "IntraHealth Limited", "cqc_id": "1-199687613", "tel": 1942481680.0, "address": "Tyldesley Health Centre, Poplar Street, Tyldesley, Manchester", "postcode": "M29 8AX", "area_name": "Wigan", "area_code": "E08000010" }, "geometry": { "type": "Point", "coordinates": [ -2.468999, 53.516715 ] } },
{ "type": "Feature", "properties": { "name": "IntraHealth Family Practice", "alias": "IntraHealth Limited", "cqc_id": "1-199687613", "tel": 1942483121.0, "address": "Leigh Sports Village, Leigh Stadium, Sale Way, Leigh", "postcode": "WN7 4JY", "area_name": "Wigan", "area_code": "E08000010" }, "geometry": { "type": "Point", "coordinates": [ -2.531079, 53.489454 ] } },
{ "type": "Feature", "properties": { "name": "IntraHealth Leigh Sports Village Practice", "alias": "IntraHealth", "cqc_id": "1-199687613", "tel": 1942483121.0, "address": "Leigh Stadium, Sale Way, Leigh Sports Village, Leigh", "postcode": "WN7 4JY", "area_name": "Wigan", "area_code": "E08000010" }, "geometry": { "type": "Point", "coordinates": [ -2.531079, 53.489454 ] } },
{ "type": "Feature", "properties": { "name": "Alvanley Family Practice", "alias": null, "cqc_id": "1-199786715", "tel": 1614265757.0, "address": "Woodley Health Centre, Hyde Road, Woodley, Stockport", "postcode": "SK6 1ND", "area_name": "Stockport", "area_code": "E08000007" }, "geometry": { "type": "Point", "coordinates": [ -2.099661, 53.426289 ] } },
{ "type": "Feature", "properties": { "name": "Albion Medical Practice", "alias": null, "cqc_id": "1-199787061", "tel": 1612148717.0, "address": "1 Albion Street, Ashton Under Lyne", "postcode": "OL6 6HF", "area_name": "Tameside", "area_code": "E08000008" }, "geometry": { "type": "Point", "coordinates": [ -2.088476, 53.489604 ] } },
{ "type": "Feature", "properties": { "name": "Fig Tree Medical Practice", "alias": null, "cqc_id": "1-199783723", "tel": 1204795170.0, "address": "Farnworth Health Centre 1, Frederick Street, Farnworth, Bolton", "postcode": "BL4 9AH", "area_name": "Bolton", "area_code": "E08000001" }, "geometry": { "type": "Point", "coordinates": [ -2.397759, 53.546123 ] } },
{ "type": "Feature", "properties": { "name": "Burnside Surgery", "alias": null, "cqc_id": "1-199783656", "tel": 1204462930.0, "address": "Navigation Park, Waters Meeting Road, Bolton", "postcode": "BL1 8TT", "area_name": "Bolton", "area_code": "E08000001" }, "geometry": { "type": "Point", "coordinates": [ -2.42777, 53.590359 ] } },
{ "type": "Feature", "properties": { "name": "Market Street Medical Practice", "alias": null, "cqc_id": "1-199787290", "tel": 1613716188.0, "address": "76 Market Street, Droylsden, Manchester", "postcode": "M43 6DE", "area_name": "Tameside", "area_code": "E08000008" }, "geometry": { "type": "Point", "coordinates": [ -2.145635, 53.478959 ] } },
{ "type": "Feature", "properties": { "name": "Boundary House Medical Centre", "alias": null, "cqc_id": "1-199787466", "tel": 1619729999.0, "address": "Boundary House,, 462, Northenden Road,, Sale", "postcode": "M33 2RH", "area_name": "Trafford", "area_code": "E08000009" }, "geometry": { "type": "Point", "coordinates": [ -2.288936, 53.415635 ] } },
{ "type": "Feature", "properties": { "name": "Stonefield Street Surgery", "alias": null, "cqc_id": "1-199785863", "tel": 1706646234.0, "address": "Stonefield Street, Milnrow, Rochdale", "postcode": "OL16 4JQ", "area_name": "Rochdale", "area_code": "E08000005" }, "geometry": { "type": "Point", "coordinates": [ -2.108991, 53.608017 ] } },
{ "type": "Feature", "properties": { "name": "Dr Hendy & Rizwan", "alias": null, "cqc_id": "1-199783636", "tel": 1204523642.0, "address": "The Halliwell Surgery, Lindfield Drive, Halliwell, Bolton", "postcode": "BL1 3RG", "area_name": "Bolton", "area_code": "E08000001" }, "geometry": { "type": "Point", "coordinates": [ -2.431738, 53.588322 ] } },
{ "type": "Feature", "properties": { "name": "St Andrews Medical Centre 3", "alias": "Dr Yates & Fletcher", "cqc_id": "1-199786450", "tel": 1617075500.0, "address": "30 Russell Street, Eccles, Manchester", "postcode": "M30 0NU", "area_name": "Salford", "area_code": "E08000006" }, "geometry": { "type": "Point", "coordinates": [ -2.339619, 53.484875 ] } },
{ "type": "Feature", "properties": { "name": "The Brooke Surgery", "alias": null, "cqc_id": "1-199787051", "tel": 1613683312.0, "address": "20 Market Street, Hyde", "postcode": "SK14 1AT", "area_name": "Tameside", "area_code": "E08000008" }, "geometry": { "type": "Point", "coordinates": [ -2.081215, 53.452136 ] } },
{ "type": "Feature", "properties": { "name": "Bracondale Medical Centre", "alias": null, "cqc_id": "1-199786795", "tel": 1614269050.0, "address": "141 Buxton Road, Heaviley, Stockport", "postcode": "SK2 6EQ", "area_name": "Stockport", "area_code": "E08000007" }, "geometry": { "type": "Point", "coordinates": [ -2.147089, 53.393998 ] } },
{ "type": "Feature", "properties": { "name": "York House Surgery", "alias": null, "cqc_id": "1-199785903", "tel": 1706628628.0, "address": "19 York Street, Heywood", "postcode": "OL10 4NN", "area_name": "Rochdale", "area_code": "E08000005" }, "geometry": { "type": "Point", "coordinates": [ -2.217672, 53.593638 ] } },
{ "type": "Feature", "properties": { "name": "Chadderton Medical Practice", "alias": null, "cqc_id": "1-199785256", "tel": 1619098144.0, "address": "Chadderton Town Health Centre, Middleton Road, Chadderton, Oldham", "postcode": "OL9 0LH", "area_name": "Oldham", "area_code": "E08000004" }, "geometry": { "type": "Point", "coordinates": [ -2.142182, 53.545559 ] } },
{ "type": "Feature", "properties": { "name": "Spring Lane Surgery", "alias": null, "cqc_id": "1-199784120", "tel": 1617246938.0, "address": "15-17 Spring Lane, Radcliffe, Manchester", "postcode": "M26 2TQ", "area_name": "Bury", "area_code": "E08000002" }, "geometry": { "type": "Point", "coordinates": [ -2.32699, 53.563083 ] } },
{ "type": "Feature", "properties": { "name": "Caritas General Practice Partnership", "alias": "Dial House Medical Centre", "cqc_id": "1-199786655", "tel": 1614265775.0, "address": "Dial House Medical Centre, 131 Mile End Lane, Stockport", "postcode": "SK2 6BZ", "area_name": "Stockport", "area_code": "E08000007" }, "geometry": { "type": "Point", "coordinates": [ -2.134599, 53.395928 ] } },
{ "type": "Feature", "properties": { "name": "Lilford Park Surgery", "alias": null, "cqc_id": "1-199788035", "tel": 1942483438.0, "address": "Leigh Health Centre, The Avenue, Leigh", "postcode": "WN7 1HR", "area_name": "Wigan", "area_code": "E08000010" }, "geometry": { "type": "Point", "coordinates": [ -2.511455, 53.503236 ] } },
{ "type": "Feature", "properties": { "name": "Dr Mokashi", "alias": "Dr Mokashi & Partners  Clayton Health Centre", "cqc_id": "1-199784436", "tel": 1612238388.0, "address": "Clayton Health Centre, 89 North Road, Clayton, Manchester", "postcode": "M11 4EJ", "area_name": "Manchester", "area_code": "E08000003" }, "geometry": { "type": "Point", "coordinates": [ -2.184157, 53.484308 ] } },
{ "type": "Feature", "properties": { "name": "Bodmin Road Health Centre", "alias": "Dr PMA Simpson and Partners", "cqc_id": "1-199787495", "tel": 1619624625.0, "address": "Bodmin Road,, Sale", "postcode": "M33 5JH", "area_name": "Trafford", "area_code": "E08000009" }, "geometry": { "type": "Point", "coordinates": [ -2.351718, 53.428123 ] } },
{ "type": "Feature", "properties": { "name": "Drs Chiu, Koh and Gan", "alias": null, "cqc_id": "1-199784813", "tel": 1612741500.0, "address": "The Vallance Centre, Brunswick Street, Manchester", "postcode": "M13 9UJ", "area_name": "Manchester", "area_code": "E08000003" }, "geometry": { "type": "Point", "coordinates": [ -2.224542, 53.469786 ] } },
{ "type": "Feature", "properties": { "name": "Archwood Medical Practice", "alias": null, "cqc_id": "1-199786992", "tel": 1614265800.0, "address": "Woodley Health Centre, Hyde Road, Woodley, Stockport", "postcode": "SK6 1ND", "area_name": "Stockport", "area_code": "E08000007" }, "geometry": { "type": "Point", "coordinates": [ -2.099661, 53.426289 ] } },
{ "type": "Feature", "properties": { "name": "The Village Surgery", "alias": null, "cqc_id": "1-199786825", "tel": 1614393322.0, "address": "31 Bramhall Lane South, Bramhall, Stockport", "postcode": "SK7 2DN", "area_name": "Stockport", "area_code": "E08000007" }, "geometry": { "type": "Point", "coordinates": [ -2.165195, 53.35927 ] } },
{ "type": "Feature", "properties": { "name": "Bolton Community Practice CIC", "alias": null, "cqc_id": "1-199805187", "tel": 1204463444.0, "address": "Navigation Park, Waters Meeting Road, Bolton", "postcode": "BL1 8TT", "area_name": "Bolton", "area_code": "E08000001" }, "geometry": { "type": "Point", "coordinates": [ -2.42777, 53.590359 ] } },
{ "type": "Feature", "properties": { "name": "Mocha Parade Medical Practice", "alias": null, "cqc_id": "1-199786109", "tel": 1618392721.0, "address": "The Surgery, 4-5 Mocha Parade, Salford", "postcode": "M7 1QE", "area_name": "Salford", "area_code": "E08000006" }, "geometry": { "type": "Point", "coordinates": [ -2.260831, 53.491734 ] } },
{ "type": "Feature", "properties": { "name": "Chadsfield Medical Practice", "alias": null, "cqc_id": "1-199786695", "tel": 1614269388.0, "address": "The Romiley Health Centre, Chichester Road, Romiley, Stockport", "postcode": "SK6 4QR", "area_name": "Stockport", "area_code": "E08000007" }, "geometry": { "type": "Point", "coordinates": [ -2.08993, 53.414998 ] } },
{ "type": "Feature", "properties": { "name": "Gordon Street Medical Centre", "alias": null, "cqc_id": "1-199787131", "tel": 1613305104.0, "address": "171 Mossley Road, Ashton Under Lyne", "postcode": "OL6 6NE", "area_name": "Tameside", "area_code": "E08000008" }, "geometry": { "type": "Point", "coordinates": [ -2.078053, 53.49291 ] } },
{ "type": "Feature", "properties": { "name": "Dr Pal & Partners", "alias": "The Parks Medical Practice", "cqc_id": "1-199785276", "tel": 1613624004.0, "address": "Royton Health Wellbeing Centre, Park Street, Royton, Oldham", "postcode": "OL2 6QW", "area_name": "Oldham", "area_code": "E08000004" }, "geometry": { "type": "Point", "coordinates": [ -2.121594, 53.566109 ] } },
{ "type": "Feature", "properties": { "name": "Altrincham Medical Practice", "alias": null, "cqc_id": "1-199787398", "tel": 1619282424.0, "address": "Lloyd House, 7 Lloyd Street, Altrincham", "postcode": "WA14 2DD", "area_name": "Trafford", "area_code": "E08000009" }, "geometry": { "type": "Point", "coordinates": [ -2.351614, 53.38451 ] } },
{ "type": "Feature", "properties": { "name": "Clarendon Medical Centre", "alias": null, "cqc_id": "1-199787141", "tel": 1613685224.0, "address": "Clarendon Street, Hyde", "postcode": "SK14 2AQ", "area_name": "Tameside", "area_code": "E08000008" }, "geometry": { "type": "Point", "coordinates": [ -2.079951, 53.45264 ] } },
{ "type": "Feature", "properties": { "name": "The Borchardt Medical Centre", "alias": null, "cqc_id": "1-199784257", "tel": 1614382821.0, "address": "62 Whitchurch Road, Withington, Manchester", "postcode": "M20 1EB", "area_name": "Manchester", "area_code": "E08000003" }, "geometry": { "type": "Point", "coordinates": [ -2.237419, 53.434193 ] } },
{ "type": "Feature", "properties": { "name": "Washway Road Medical Centre", "alias": null, "cqc_id": "1-199787475", "tel": 1619624354.0, "address": "67 Washway Road, Sale", "postcode": "M33 7SS", "area_name": "Trafford", "area_code": "E08000009" }, "geometry": { "type": "Point", "coordinates": [ -2.328392, 53.4224 ] } },
{ "type": "Feature", "properties": { "name": "Deakin Norman Sutcliffe", "alias": "Minden Family Practices - Deakin Practice", "cqc_id": "1-199784044", "tel": 1614478282.0, "address": "Minden Family Practices, Moorgate Primary Care Centre, 22 Derby Way, Bury", "postcode": "BL9 0NJ", "area_name": "Bury", "area_code": "E08000002" }, "geometry": { "type": "Point", "coordinates": [ -2.288591, 53.59553 ] } },
{ "type": "Feature", "properties": { "name": "Knowsley Medical Centre", "alias": null, "cqc_id": "1-199784081", "tel": 1617641217.0, "address": "9-11 Knowsley Street, Bury", "postcode": "BL9 0ST", "area_name": "Bury", "area_code": "E08000002" }, "geometry": { "type": "Point", "coordinates": [ -2.300538, 53.588481 ] } },
{ "type": "Feature", "properties": { "name": "Surrey Lodge Group Practice", "alias": null, "cqc_id": "1-199784357", "tel": 1612242471.0, "address": "11 Anson Road, Victoria Park, Manchester", "postcode": "M14 5BY", "area_name": "Manchester", "area_code": "E08000003" }, "geometry": { "type": "Point", "coordinates": [ -2.218728, 53.458264 ] } },
{ "type": "Feature", "properties": { "name": "Unsworth Group Practice", "alias": null, "cqc_id": "1-199783588", "tel": 1942812525.0, "address": "Peter House Surgery, Captain Lees Road, Westhoughton, Bolton", "postcode": "BL5 3UB", "area_name": "Bolton", "area_code": "E08000001" }, "geometry": { "type": "Point", "coordinates": [ -2.508554, 53.550458 ] } },
{ "type": "Feature", "properties": { "name": "New Collegiate Medical Centre", "alias": null, "cqc_id": "1-199784426", "tel": 1612054364.0, "address": "407 Cheetham Hill Road, Cheetham, Manchester", "postcode": "M8 0DA", "area_name": "Manchester", "area_code": "E08000003" }, "geometry": { "type": "Point", "coordinates": [ -2.236077, 53.504378 ] } },
{ "type": "Feature", "properties": { "name": "Kearsley Medical Centre", "alias": null, "cqc_id": "1-199783509", "tel": 1204462200.0, "address": "Jackson Street, Kearsley, Bolton", "postcode": "BL4 8EP", "area_name": "Bolton", "area_code": "E08000001" }, "geometry": { "type": "Point", "coordinates": [ -2.382838, 53.543205 ] } },
{ "type": "Feature", "properties": { "name": "Kingsway Medical Practice", "alias": null, "cqc_id": "1-199784347", "tel": 3444773625.0, "address": "720 Burnage Lane, Manchester", "postcode": "M19 1UG", "area_name": "Manchester", "area_code": "E08000003" }, "geometry": { "type": "Point", "coordinates": [ -2.212694, 53.420137 ] } },
{ "type": "Feature", "properties": { "name": "Drs D'Arifat, Elislam, Wan & Saroha", "alias": null, "cqc_id": "1-199787937", "tel": 1942481900.0, "address": "Newtown Medical Practice, Pemberton Primary Care Resource Centre, Sherwood Drive, Wigan", "postcode": "WN5 9QX", "area_name": "Wigan", "area_code": "E08000010" }, "geometry": { "type": "Point", "coordinates": [ -2.669739, 53.538311 ] } },
{ "type": "Feature", "properties": { "name": "Cheadle Medical Practice", "alias": null, "cqc_id": "1-199786725", "tel": 1614269090.0, "address": "1-5 Ashfield Crescent, Cheadle", "postcode": "SK8 1BH", "area_name": "Stockport", "area_code": "E08000007" }, "geometry": { "type": "Point", "coordinates": [ -2.213539, 53.393745 ] } },
{ "type": "Feature", "properties": { "name": "Alexandra Group Medical Practice", "alias": null, "cqc_id": "1-199785363", "tel": 1616229210.0, "address": "Glodwick Primary Care Centre, 137 Glodwick Road, Oldham", "postcode": "OL4 1YN", "area_name": "Oldham", "area_code": "E08000004" }, "geometry": { "type": "Point", "coordinates": [ -2.095095, 53.537786 ] } },
{ "type": "Feature", "properties": { "name": "Bramhall Health Centre", "alias": null, "cqc_id": "1-199786675", "tel": 1614265850.0, "address": "66 Bramhall Lane South, Bramhall, Stockport", "postcode": "SK7 2DY", "area_name": "Stockport", "area_code": "E08000007" }, "geometry": { "type": "Point", "coordinates": [ -2.162929, 53.36001 ] } },
{ "type": "Feature", "properties": { "name": "Dr Tun & Partners", "alias": null, "cqc_id": "1-199787797", "tel": 1942482505.0, "address": "The Health Centre, 17 Liverpool Road, Hindley, Wigan", "postcode": "WN2 3HQ", "area_name": "Wigan", "area_code": "E08000010" }, "geometry": { "type": "Point", "coordinates": [ -2.583571, 53.532102 ] } },
{ "type": "Feature", "properties": { "name": "Littleborough Group Practice", "alias": null, "cqc_id": "1-199785835", "tel": 1706393000.0, "address": "Littleborough Health Centre, Featherstall Road, Littleborough", "postcode": "OL15 8HF", "area_name": "Rochdale", "area_code": "E08000005" }, "geometry": { "type": "Point", "coordinates": [ -2.103349, 53.642995 ] } },
{ "type": "Feature", "properties": { "name": "Spring House Surgery", "alias": null, "cqc_id": "1-199783578", "tel": 1204848411.0, "address": "555 Chorley Old Road, Bolton", "postcode": "BL1 6AF", "area_name": "Bolton", "area_code": "E08000001" }, "geometry": { "type": "Point", "coordinates": [ -2.463553, 53.588374 ] } },
{ "type": "Feature", "properties": { "name": "The Mosslands Medical Practice", "alias": null, "cqc_id": "1-199786218", "tel": 1617760737.0, "address": "Irlam Medical Centre, Macdonald Road, Irlam, Manchester", "postcode": "M44 5LH", "area_name": "Salford", "area_code": "E08000006" }, "geometry": { "type": "Point", "coordinates": [ -2.432258, 53.437925 ] } },
{ "type": "Feature", "properties": { "name": "Halliwell Surgery 3", "alias": "Dr Hunt, James & Uddin", "cqc_id": "1-199783792", "tel": 1204523716.0, "address": "The Halliwell Surgery, Lindfield Drive, Halliwell, Bolton", "postcode": "BL1 3RG", "area_name": "Bolton", "area_code": "E08000001" }, "geometry": { "type": "Point", "coordinates": [ -2.431738, 53.588322 ] } },
{ "type": "Feature", "properties": { "name": "St Johns Medical Centre", "alias": null, "cqc_id": "1-199787633", "tel": 1619285522.0, "address": "St Johns Road, Altrincham", "postcode": "WA14 2NW", "area_name": "Trafford", "area_code": "E08000009" }, "geometry": { "type": "Point", "coordinates": [ -2.353809, 53.38276 ] } },
{ "type": "Feature", "properties": { "name": "Newton Heath Medical Centre", "alias": null, "cqc_id": "1-199784763", "tel": 1616811353.0, "address": "Newton Heath Health Centre, 2 Old Church Street, Manchester", "postcode": "M40 2JF", "area_name": "Manchester", "area_code": "E08000003" }, "geometry": { "type": "Point", "coordinates": [ -2.181199, 53.500995 ] } },
{ "type": "Feature", "properties": { "name": "Park View Medical Centre", "alias": null, "cqc_id": "1-199784949", "tel": 1617955667.0, "address": "66 Delaunays Road, Crumpsall, Manchester", "postcode": "M8 4RF", "area_name": "Manchester", "area_code": "E08000003" }, "geometry": { "type": "Point", "coordinates": [ -2.233306, 53.518504 ] } },
{ "type": "Feature", "properties": { "name": "Pendleton Medical Centre", "alias": null, "cqc_id": "1-199786060", "tel": 1612117420.0, "address": "Pendleton Gateway, 1 Broadwalk, Salford", "postcode": "M6 5FX", "area_name": "Salford", "area_code": "E08000006" }, "geometry": { "type": "Point", "coordinates": [ -2.284742, 53.488361 ] } },
{ "type": "Feature", "properties": { "name": "Cornishway Group Practice", "alias": null, "cqc_id": "1-199784536", "tel": 1614902293.0, "address": "Forum Health, Simonsway, Wythenshawe, Manchester", "postcode": "M22 5RX", "area_name": "Manchester", "area_code": "E08000003" }, "geometry": { "type": "Point", "coordinates": [ -2.265017, 53.379925 ] } },
{ "type": "Feature", "properties": { "name": "St Mary's Medical Centre", "alias": null, "cqc_id": "1-199785236", "tel": 1616206667.0, "address": "Rock Street, Oldham", "postcode": "OL1 3UL", "area_name": "Oldham", "area_code": "E08000004" }, "geometry": { "type": "Point", "coordinates": [ -2.108554, 53.543625 ] } },
{ "type": "Feature", "properties": { "name": "Tregenna Group Practice", "alias": null, "cqc_id": "1-199784576", "tel": 1614993777.0, "address": "Portway, Woodhouse Park, Wythenshawe, Manchester", "postcode": "M22 0EP", "area_name": "Manchester", "area_code": "E08000003" }, "geometry": { "type": "Point", "coordinates": [ -2.256528, 53.370756 ] } },
{ "type": "Feature", "properties": { "name": "Beech Hill Medical Practice", "alias": null, "cqc_id": "1-199787847", "tel": 1942821899.0, "address": "278 Gidlow Lane, Beech Hill, Wigan", "postcode": "WN6 7PD", "area_name": "Wigan", "area_code": "E08000010" }, "geometry": { "type": "Point", "coordinates": [ -2.644352, 53.555654 ] } },
{ "type": "Feature", "properties": { "name": "The Dunstan Partnership", "alias": null, "cqc_id": "1-199783449", "tel": 1204463777.0, "address": "Breightmet Health Centre,, Breightmet Fold Lane, Breightmet,, Bolton", "postcode": "BL2 6NT", "area_name": "Bolton", "area_code": "E08000001" }, "geometry": { "type": "Point", "coordinates": [ -2.384279, 53.582354 ] } },
{ "type": "Feature", "properties": { "name": "The Lakes Medical Practice", "alias": null, "cqc_id": "1-199786129", "tel": 1617275241.0, "address": "The Lakes Medical Centre, 21 Chorley Road, Swinton, Manchester", "postcode": "M27 4AF", "area_name": "Salford", "area_code": "E08000006" }, "geometry": { "type": "Point", "coordinates": [ -2.33372, 53.509205 ] } },
{ "type": "Feature", "properties": { "name": "Marple Cottage Surgery", "alias": null, "cqc_id": "1-199786586", "tel": 1614260011.0, "address": "50 Church Street, Marple, Stockport", "postcode": "SK6 6BW", "area_name": "Stockport", "area_code": "E08000007" }, "geometry": { "type": "Point", "coordinates": [ -2.061042, 53.392725 ] } },
{ "type": "Feature", "properties": { "name": "Levenshulme Medical Practice", "alias": null, "cqc_id": "1-199784287", "tel": 1612254033.0, "address": "Levenshulme Health Centre, Dunstable Street, Levenshulme, Manchester", "postcode": "M19 3BX", "area_name": "Manchester", "area_code": "E08000003" }, "geometry": { "type": "Point", "coordinates": [ -2.188524, 53.446352 ] } },
{ "type": "Feature", "properties": { "name": "Davyhulme Medical Centre", "alias": null, "cqc_id": "1-199787437", "tel": 1617485559.0, "address": "130 Broadway, Davyhulme, Urmston, Manchester", "postcode": "M41 7WJ", "area_name": "Trafford", "area_code": "E08000009" }, "geometry": { "type": "Point", "coordinates": [ -2.366782, 53.459483 ] } },
{ "type": "Feature", "properties": { "name": "Marple Medical Practice", "alias": null, "cqc_id": "1-199786735", "tel": 1614265375.0, "address": "50 Stockport Road, Marple, Stockport", "postcode": "SK6 6AB", "area_name": "Stockport", "area_code": "E08000007" }, "geometry": { "type": "Point", "coordinates": [ -2.064638, 53.394852 ] } },
{ "type": "Feature", "properties": { "name": "Kildonan House", "alias": null, "cqc_id": "1-199783469", "tel": 1204468161.0, "address": "Ramsbottom Road, Horwich, Bolton", "postcode": "BL6 5NW", "area_name": "Bolton", "area_code": "E08000001" }, "geometry": { "type": "Point", "coordinates": [ -2.545363, 53.594788 ] } },
{ "type": "Feature", "properties": { "name": "Springfield House", "alias": null, "cqc_id": "1-199785413", "tel": 1616672480.0, "address": "275 Huddersfield Road, Oldham", "postcode": "OL4 2RJ", "area_name": "Oldham", "area_code": "E08000004" }, "geometry": { "type": "Point", "coordinates": [ -2.082714, 53.548913 ] } },
{ "type": "Feature", "properties": { "name": "Ladybarn Group Practice", "alias": null, "cqc_id": "1-199784297", "tel": 1614484500.0, "address": "54 Briarfield Road, Withington, Manchester", "postcode": "M20 4SS", "area_name": "Manchester", "area_code": "E08000003" }, "geometry": { "type": "Point", "coordinates": [ -2.213962, 53.429923 ] } },
{ "type": "Feature", "properties": { "name": "Cornerstone Medical Practice", "alias": null, "cqc_id": "1-199786344", "tel": 1612124445.0, "address": "451 Liverpool Street, Salford", "postcode": "M6 5QQ", "area_name": "Salford", "area_code": "E08000006" }, "geometry": { "type": "Point", "coordinates": [ -2.296843, 53.483785 ] } },
{ "type": "Feature", "properties": { "name": "Irlam Clinic", "alias": null, "cqc_id": "1-199786344", "tel": null, "address": "125 Liverpool Road, Irlam, Manchester", "postcode": "M44 6DP", "area_name": "Salford", "area_code": "E08000006" }, "geometry": { "type": "Point", "coordinates": [ -2.417074, 53.449107 ] } },
{ "type": "Feature", "properties": { "name": "Ordsall Health Surgery", "alias": null, "cqc_id": "1-199786178", "tel": 1612126600.0, "address": "118 Phoebe Street, Ordsall, Salford", "postcode": "M5 3PH", "area_name": "Salford", "area_code": "E08000006" }, "geometry": { "type": "Point", "coordinates": [ -2.280971, 53.473981 ] } },
{ "type": "Feature", "properties": { "name": "Manchester Medical", "alias": null, "cqc_id": "1-199784832", "tel": 1612267615.0, "address": "Moss Side Health Centre, Monton Street, Manchester", "postcode": "M14 4GP", "area_name": "Manchester", "area_code": "E08000003" }, "geometry": { "type": "Point", "coordinates": [ -2.23745, 53.45875 ] } },
{ "type": "Feature", "properties": { "name": "Harwood Medical Centre", "alias": "Dr Lancashire & Partners", "cqc_id": "1-199783598", "tel": 1204300033.0, "address": "Harwood Medical Centre, Hough Fold Way, Harwood, Bolton", "postcode": "BL2 3HQ", "area_name": "Bolton", "area_code": "E08000001" }, "geometry": { "type": "Point", "coordinates": [ -2.398153, 53.604069 ] } },
{ "type": "Feature", "properties": { "name": "Mauldeth Medical Centre", "alias": null, "cqc_id": "1-199784307", "tel": 1614346678.0, "address": "112 Mauldeth Road, Fallowfield, Manchester", "postcode": "M14 6SQ", "area_name": "Manchester", "area_code": "E08000003" }, "geometry": { "type": "Point", "coordinates": [ -2.213429, 53.434823 ] } },
{ "type": "Feature", "properties": { "name": "Dr BN Macdonald & Partners", "alias": "Barrington Medical Centre", "cqc_id": "1-199787623", "tel": 1619289621.0, "address": "68 Barrington Road, Altrincham", "postcode": "WA14 1JB", "area_name": "Trafford", "area_code": "E08000009" }, "geometry": { "type": "Point", "coordinates": [ -2.35098, 53.395191 ] } },
{ "type": "Feature", "properties": { "name": "The Dicconson Group Practice", "alias": null, "cqc_id": "1-199787788", "tel": 1942482000.0, "address": "Boston House,, Frog Lane,, Wigan", "postcode": "WN6 7LB", "area_name": "Wigan", "area_code": "E08000010" }, "geometry": { "type": "Point", "coordinates": [ -2.644891, 53.549467 ] } },
{ "type": "Feature", "properties": { "name": "Dr Hampson & Partners", "alias": "Greenmount Medical Centre", "cqc_id": "1-199784071", "tel": 1204885111.0, "address": "9 Brandlesholme Road, Greenmount, Bury", "postcode": "BL8 4DR", "area_name": "Bury", "area_code": "E08000002" }, "geometry": { "type": "Point", "coordinates": [ -2.335913, 53.623999 ] } },
{ "type": "Feature", "properties": { "name": "Stable Fold Surgery", "alias": null, "cqc_id": "1-199783489", "tel": 1942813678.0, "address": "119 Church Street, Westhoughton, Bolton", "postcode": "BL5 3SF", "area_name": "Bolton", "area_code": "E08000001" }, "geometry": { "type": "Point", "coordinates": [ -2.52343, 53.552405 ] } },
{ "type": "Feature", "properties": { "name": "Oldham Family Practice", "alias": null, "cqc_id": "1-199785286", "tel": 1616213456.0, "address": "Integrated Care Centre, New Radcliffe Street, Oldham", "postcode": "OL1 1NL", "area_name": "Oldham", "area_code": "E08000004" }, "geometry": { "type": "Point", "coordinates": [ -2.116945, 53.543824 ] } },
{ "type": "Feature", "properties": { "name": "Dr Ellis and Kreppel", "alias": null, "cqc_id": "1-199788207", "tel": 1942242350.0, "address": "Mesnes View Surgery, Mesnes Street, Wigan", "postcode": "WN1 1ST", "area_name": "Wigan", "area_code": "E08000010" }, "geometry": { "type": "Point", "coordinates": [ -2.633048, 53.550807 ] } },
{ "type": "Feature", "properties": { "name": "Yorkshire Street Surgery", "alias": null, "cqc_id": "1-199785705", "tel": 1706390243.0, "address": "188-190 Yorkshire Street, Rochdale", "postcode": "OL16 2DN", "area_name": "Rochdale", "area_code": "E08000005" }, "geometry": { "type": "Point", "coordinates": [ -2.152215, 53.620446 ] } },
{ "type": "Feature", "properties": { "name": "Five Oaks Family Practice", "alias": null, "cqc_id": "1-199784227", "tel": 8444778670.0, "address": "47 Graham Street, Beswick, Manchester", "postcode": "M11 3BB", "area_name": "Manchester", "area_code": "E08000003" }, "geometry": { "type": "Point", "coordinates": [ -2.19447, 53.47569 ] } },
{ "type": "Feature", "properties": { "name": "Brookmill Medical Centre", "alias": null, "cqc_id": "1-199787947", "tel": 1942681880.0, "address": "College Street, Leigh", "postcode": "WN7 2RB", "area_name": "Wigan", "area_code": "E08000010" }, "geometry": { "type": "Point", "coordinates": [ -2.50958, 53.496441 ] } },
{ "type": "Feature", "properties": { "name": "Grosvenor Medical Centre", "alias": null, "cqc_id": "1-199787270", "tel": 1613034313.0, "address": "62 Grosvenor Street, Stalybridge", "postcode": "SK15 1RZ", "area_name": "Tameside", "area_code": "E08000008" }, "geometry": { "type": "Point", "coordinates": [ -2.059105, 53.481452 ] } },
{ "type": "Feature", "properties": { "name": "Drs Joseph Borg-Costanzi\/Ian Gilani\/Brian Rhodes", "alias": "Monton Medical Centre", "cqc_id": "1-199786257", "tel": 8448151147.0, "address": "Monton Medical Centre, Canal Side, Monton Green, Eccles, Manchester", "postcode": "M30 8AR", "area_name": "Salford", "area_code": "E08000006" }, "geometry": { "type": "Point", "coordinates": [ -2.356978, 53.491862 ] } },
{ "type": "Feature", "properties": { "name": "Flixton Road Medical Centre", "alias": null, "cqc_id": "1-199787574", "tel": 1617482021.0, "address": "132 Flixton Road, Urmston, Manchester", "postcode": "M41 5BG", "area_name": "Trafford", "area_code": "E08000009" }, "geometry": { "type": "Point", "coordinates": [ -2.362664, 53.448267 ] } },
{ "type": "Feature", "properties": { "name": "The Royton and Crompton Family Practice", "alias": null, "cqc_id": "1-199785344", "tel": 1613624003.0, "address": "Royton Health Wellbeing Centre, Park Street, Royton, Oldham", "postcode": "OL2 6QW", "area_name": "Oldham", "area_code": "E08000004" }, "geometry": { "type": "Point", "coordinates": [ -2.121594, 53.566109 ] } },
{ "type": "Feature", "properties": { "name": "Didsbury Medical Centre", "alias": null, "cqc_id": "1-199785118", "tel": 1614453731.0, "address": "645 Wilmslow Road, Didsbury, Manchester", "postcode": "M20 6BA", "area_name": "Manchester", "area_code": "E08000003" }, "geometry": { "type": "Point", "coordinates": [ -2.231819, 53.420371 ] } },
{ "type": "Feature", "properties": { "name": "The Smithy Surgery", "alias": null, "cqc_id": "1-199787319", "tel": 1457767123.0, "address": "4 Market Street, Hollingworth, Hyde", "postcode": "SK14 8LN", "area_name": "Tameside", "area_code": "E08000008" }, "geometry": { "type": "Point", "coordinates": [ -1.994509, 53.461818 ] } },
{ "type": "Feature", "properties": { "name": "West Point Medical Centre", "alias": null, "cqc_id": "1-199784397", "tel": 1612485100.0, "address": "167 Slade Lane, Manchester", "postcode": "M19 2AF", "area_name": "Manchester", "area_code": "E08000003" }, "geometry": { "type": "Point", "coordinates": [ -2.197586, 53.445978 ] } },
{ "type": "Feature", "properties": { "name": "Saxena Bowden Saxena", "alias": "Minden Family Practices - Saxena Practice", "cqc_id": "1-199784053", "tel": 1614478283.0, "address": "Minden Family Practices, Moorgate Primary Care Centre, 22 Derby Way, Bury", "postcode": "BL9 0NJ", "area_name": "Bury", "area_code": "E08000002" }, "geometry": { "type": "Point", "coordinates": [ -2.288591, 53.59553 ] } },
{ "type": "Feature", "properties": { "name": "The Park Medical Centre", "alias": null, "cqc_id": "1-199784546", "tel": 1619985538.0, "address": "434 Altrincham Road, Baguley, Wythenshaw, Manchester", "postcode": "M23 9AB", "area_name": "Manchester", "area_code": "E08000003" }, "geometry": { "type": "Point", "coordinates": [ -2.28807, 53.40104 ] } },
{ "type": "Feature", "properties": { "name": "Edenfield Road Surgery", "alias": null, "cqc_id": "1-199785685", "tel": 1706344125.0, "address": "Cutgate Precinct, Rochdale", "postcode": "OL11 5AQ", "area_name": "Rochdale", "area_code": "E08000005" }, "geometry": { "type": "Point", "coordinates": [ -2.188671, 53.622297 ] } },
{ "type": "Feature", "properties": { "name": "Healey Surgery", "alias": null, "cqc_id": "1-199785785", "tel": 1706868468.0, "address": "Whitworth Road, Rochdale", "postcode": "OL12 0SN", "area_name": "Rochdale", "area_code": "E08000005" }, "geometry": { "type": "Point", "coordinates": [ -2.162786, 53.633087 ] } },
{ "type": "Feature", "properties": { "name": "The Avenue Medical Centre", "alias": null, "cqc_id": "1-199784586", "tel": 1617209441.0, "address": "51-53 Victoria Avenue, Blackley, Manchester", "postcode": "M9 6BA", "area_name": "Manchester", "area_code": "E08000003" }, "geometry": { "type": "Point", "coordinates": [ -2.211676, 53.533178 ] } },
{ "type": "Feature", "properties": { "name": "West Timperley Medical Centre", "alias": null, "cqc_id": "1-199787485", "tel": 1619291515.0, "address": "21 Dawson Road, West Timperley, Altrincham", "postcode": "WA14 5PF", "area_name": "Trafford", "area_code": "E08000009" }, "geometry": { "type": "Point", "coordinates": [ -2.353117, 53.402699 ] } },
{ "type": "Feature", "properties": { "name": "Pennine Medical Centre", "alias": null, "cqc_id": "1-199787091", "tel": 1457832590.0, "address": "193 Manchester Road, Mossley, Ashton Under Lyne", "postcode": "OL5 9AJ", "area_name": "Tameside", "area_code": "E08000008" }, "geometry": { "type": "Point", "coordinates": [ -2.040966, 53.515337 ] } },
{ "type": "Feature", "properties": { "name": "Fallowfield Medical Centre", "alias": null, "cqc_id": "1-199784910", "tel": 1612244503.0, "address": "75 Ladybarn Lane, Fallowfield, Manchester", "postcode": "M14 6YL", "area_name": "Manchester", "area_code": "E08000003" }, "geometry": { "type": "Point", "coordinates": [ -2.21351, 53.438823 ] } },
{ "type": "Feature", "properties": { "name": "Dr Venkatachalum Raj", "alias": null, "cqc_id": "1-199786168", "tel": 1617893029.0, "address": "37 Orient Road, Salford", "postcode": "M6 8LE", "area_name": "Salford", "area_code": "E08000006" }, "geometry": { "type": "Point", "coordinates": [ -2.325434, 53.494182 ] } },
{ "type": "Feature", "properties": { "name": "Peel GPs", "alias": null, "cqc_id": "1-199784062", "tel": 1617621515.0, "address": "Townside Primary Care Centre, Knowsley Place, 1 Knowsley Place, Knowsley Street, Bury", "postcode": "BL9 0SN", "area_name": "Bury", "area_code": "E08000002" }, "geometry": { "type": "Point", "coordinates": [ -2.29898, 53.59031 ] } },
{ "type": "Feature", "properties": { "name": "Dr AK and N Atrey", "alias": null, "cqc_id": "1-199788170", "tel": 1942481060.0, "address": "Nelson Street, Atherton, Manchester", "postcode": "M46 0LE", "area_name": "Wigan", "area_code": "E08000010" }, "geometry": { "type": "Point", "coordinates": [ -2.500811, 53.527489 ] } },
{ "type": "Feature", "properties": { "name": "Wellfield Health Centre", "alias": null, "cqc_id": "1-199785725", "tel": 1706397600.0, "address": "116 Oldham Road, Rochdale", "postcode": "OL11 1AD", "area_name": "Rochdale", "area_code": "E08000005" }, "geometry": { "type": "Point", "coordinates": [ -2.147616, 53.607039 ] } },
{ "type": "Feature", "properties": { "name": "Ramsbottom Medical Practice", "alias": null, "cqc_id": "1-199783956", "tel": 1706824413.0, "address": "Ramsbottom Health Centre, Carr Street, Ramsbottom, Bury", "postcode": "BL0 9DD", "area_name": "Bury", "area_code": "E08000002" }, "geometry": { "type": "Point", "coordinates": [ -2.319287, 53.64878 ] } },
{ "type": "Feature", "properties": { "name": "Brinnington Surgery", "alias": null, "cqc_id": "1-199786844", "tel": 1614304002.0, "address": "Brinnington Health Centre, Brinnington Road, Brinnington, Stockport", "postcode": "SK5 8BS", "area_name": "Stockport", "area_code": "E08000007" }, "geometry": { "type": "Point", "coordinates": [ -2.132367, 53.427651 ] } },
{ "type": "Feature", "properties": { "name": "Pennygate Medical Centre", "alias": null, "cqc_id": "1-199787897", "tel": 1942807500.0, "address": "109 Ladies Lane, Hindley, Wigan", "postcode": "WN2 2QG", "area_name": "Wigan", "area_code": "E08000010" }, "geometry": { "type": "Point", "coordinates": [ -2.576271, 53.540002 ] } },
{ "type": "Feature", "properties": { "name": "The Junction Alkrington Surgery", "alias": null, "cqc_id": "1-199785755", "tel": 1616557478.0, "address": "346 Grimshaw Lane, Middleton Junction, Middleton, Manchester", "postcode": "M24 2AU", "area_name": "Rochdale", "area_code": "E08000005" }, "geometry": { "type": "Point", "coordinates": [ -2.174915, 53.541857 ] } },
{ "type": "Feature", "properties": { "name": "Aspull Surgery", "alias": "Drs Van Spelde and Greiss", "cqc_id": "1-199787887", "tel": 1942831263.0, "address": "The Surgery, Haigh Road, Aspull, Wigan", "postcode": "WN2 1XH", "area_name": "Wigan", "area_code": "E08000010" }, "geometry": { "type": "Point", "coordinates": [ -2.586036, 53.569599 ] } },
{ "type": "Feature", "properties": { "name": "Sorrel Bank Medical Practice", "alias": null, "cqc_id": "1-199786208", "tel": 1617361616.0, "address": "23 Bolton Road, Salford", "postcode": "M6 7HL", "area_name": "Salford", "area_code": "E08000006" }, "geometry": { "type": "Point", "coordinates": [ -2.294815, 53.493344 ] } },
{ "type": "Feature", "properties": { "name": "Victoria Road Surgery", "alias": null, "cqc_id": "1-199786208", "tel": 161789372.0, "address": "9 Victoria Road, Salford, Lancashire", "postcode": "M6 8FZ", "area_name": "Salford", "area_code": "E08000006" }, "geometry": { "type": "Point", "coordinates": [ -2.326647, 53.491149 ] } },
{ "type": "Feature", "properties": { "name": "Tonge Fold Health Centre", "alias": null, "cqc_id": "1-199783548", "tel": 1204521574.0, "address": "Hilton Street, Tonge Fold, Bolton", "postcode": "BL2 6DY", "area_name": "Bolton", "area_code": "E08000001" }, "geometry": { "type": "Point", "coordinates": [ -2.405772, 53.579119 ] } },
{ "type": "Feature", "properties": { "name": "Dr Artatran Mohanty & Dr A Khurana", "alias": null, "cqc_id": "1-199785576", "tel": 1616822512.0, "address": "Featherstall Road South, Oldham", "postcode": "OL9 7AY", "area_name": "Oldham", "area_code": "E08000004" }, "geometry": { "type": "Point", "coordinates": [ -2.130476, 53.537321 ] } },
{ "type": "Feature", "properties": { "name": "Dr Sivakumar and Dr Gude", "alias": null, "cqc_id": "1-199787927", "tel": 1942878711.0, "address": "The Surgery, 1 Coldalhurst Lane, Astley, Tyldesley, Manchester", "postcode": "M29 7BS", "area_name": "Wigan", "area_code": "E08000010" }, "geometry": { "type": "Point", "coordinates": [ -2.455594, 53.500102 ] } },
{ "type": "Feature", "properties": { "name": "Corkland Road Medical Practice", "alias": null, "cqc_id": "1-199784988", "tel": 1618816223.0, "address": "9 Corkland Road, Chorlton-Cum-Hardy, Manchester", "postcode": "M21 8UP", "area_name": "Manchester", "area_code": "E08000003" }, "geometry": { "type": "Point", "coordinates": [ -2.273878, 53.441827 ] } },
{ "type": "Feature", "properties": { "name": "Greenbank Medical Practice", "alias": null, "cqc_id": "1-199785423", "tel": 1619098370.0, "address": "Barley Clough Medical Centre, Nugget Street, Oldham", "postcode": "OL4 1BN", "area_name": "Oldham", "area_code": "E08000004" }, "geometry": { "type": "Point", "coordinates": [ -2.096166, 53.537929 ] } },
{ "type": "Feature", "properties": { "name": "Halliwell Surgery 2", "alias": "Drs McLardy, Jeyam & Jesudas", "cqc_id": "1-199783666", "tel": 1204523813.0, "address": "The Halliwell Surgery, Lindfield Drive, Halliwell, Bolton", "postcode": "BL1 3RG", "area_name": "Bolton", "area_code": "E08000001" }, "geometry": { "type": "Point", "coordinates": [ -2.431738, 53.588322 ] } },
{ "type": "Feature", "properties": { "name": "The Range Medical Centre", "alias": null, "cqc_id": "1-199784496", "tel": 8444996977.0, "address": "121 Withington Road, Whalley Range, Manchester", "postcode": "M16 8EE", "area_name": "Manchester", "area_code": "E08000003" }, "geometry": { "type": "Point", "coordinates": [ -2.257066, 53.452309 ] } },
{ "type": "Feature", "properties": { "name": "Dr JD Seabrook and Dr H L Chambers", "alias": null, "cqc_id": "1-199787996", "tel": 1942231965.0, "address": "The Surgery, 1 Wrightington Street, Wigan", "postcode": "WN1 2AZ", "area_name": "Wigan", "area_code": "E08000010" }, "geometry": { "type": "Point", "coordinates": [ -2.632499, 53.55143 ] } },
{ "type": "Feature", "properties": { "name": "Dr Cunningham and Partners", "alias": null, "cqc_id": "1-199784476", "tel": 1612729616.0, "address": "The Vallance Centre, Brunswick Street, Manchester", "postcode": "M13 9UJ", "area_name": "Manchester", "area_code": "E08000003" }, "geometry": { "type": "Point", "coordinates": [ -2.224542, 53.469786 ] } },
{ "type": "Feature", "properties": { "name": "Drs. Liversedge, McCurdie and Wong", "alias": null, "cqc_id": "1-199783859", "tel": 1204463232.0, "address": "Egerton\/Dunscar Health Centre, Darwen Road, Bromley Cross, Bolton", "postcode": "BL7 9RG", "area_name": "Bolton", "area_code": "E08000001" }, "geometry": { "type": "Point", "coordinates": [ -2.426383, 53.617589 ] } },
{ "type": "Feature", "properties": { "name": "Bowland Medical Practice", "alias": null, "cqc_id": "1-199784367", "tel": 1619982014.0, "address": "52 Bowland Road, Baguley, Manchester", "postcode": "M23 1JX", "area_name": "Manchester", "area_code": "E08000003" }, "geometry": { "type": "Point", "coordinates": [ -2.285144, 53.393146 ] } },
{ "type": "Feature", "properties": { "name": "Drs Dickie, Pontefract & Saksena Joye", "alias": "The Family Surgery", "cqc_id": "1-199786576", "tel": 1614321235.0, "address": "306 Gorton Road, Stockport", "postcode": "SK5 6RN", "area_name": "Stockport", "area_code": "E08000007" }, "geometry": { "type": "Point", "coordinates": [ -2.157026, 53.446056 ] } },
{ "type": "Feature", "properties": { "name": "Churchgate Surgery", "alias": null, "cqc_id": "1-199787210", "tel": 1613362114.0, "address": "119 Manchester Road, Denton, Manchester", "postcode": "M34 3RA", "area_name": "Tameside", "area_code": "E08000008" }, "geometry": { "type": "Point", "coordinates": [ -2.120468, 53.456085 ] } },
{ "type": "Feature", "properties": { "name": "Gorse Hill Medical Centre", "alias": null, "cqc_id": "1-199787652", "tel": 1618642496.0, "address": "879 Chester Road, Stretford, Manchester", "postcode": "M32 0RN", "area_name": "Trafford", "area_code": "E08000009" }, "geometry": { "type": "Point", "coordinates": [ -2.296647, 53.455651 ] } },
{ "type": "Feature", "properties": { "name": "Adshall Road Medical Practice", "alias": null, "cqc_id": "1-199786665", "tel": 1614912292.0, "address": "97 Adshall Road, Cheadle", "postcode": "SK8 2JN", "area_name": "Stockport", "area_code": "E08000007" }, "geometry": { "type": "Point", "coordinates": [ -2.191072, 53.390044 ] } },
{ "type": "Feature", "properties": { "name": "Pemberton Surgery", "alias": null, "cqc_id": "1-199787917", "tel": 8444779459.0, "address": "Pemberton Pcrc, Sherwood Drive, Pemberton, Wigan", "postcode": "WN5 9QX", "area_name": "Wigan", "area_code": "E08000010" }, "geometry": { "type": "Point", "coordinates": [ -2.669739, 53.538311 ] } },
{ "type": "Feature", "properties": { "name": "Heaton Norris Health Centre 1", "alias": "Dr Marshall & Partners", "cqc_id": "1-199786636", "tel": 1614751600.0, "address": "Heaton Norris Health Centre, Cheviot Close, Heaton Norris, Stockport", "postcode": "SK4 1JX", "area_name": "Stockport", "area_code": "E08000007" }, "geometry": { "type": "Point", "coordinates": [ -2.16793, 53.416532 ] } },
{ "type": "Feature", "properties": { "name": "West End Medical Centre", "alias": null, "cqc_id": "1-199787300", "tel": 1613395488.0, "address": "98-102 Stockport Road, Ashton Under Lyne", "postcode": "OL7 0LH", "area_name": "Tameside", "area_code": "E08000008" }, "geometry": { "type": "Point", "coordinates": [ -2.107504, 53.480771 ] } },
{ "type": "Feature", "properties": { "name": "Kapur Family Care", "alias": null, "cqc_id": "1-199785596", "tel": 1614841414.0, "address": "Werneth Primary Care Centre, Featherstall Road South, Oldham", "postcode": "OL9 7AY", "area_name": "Oldham", "area_code": "E08000004" }, "geometry": { "type": "Point", "coordinates": [ -2.130476, 53.537321 ] } },
{ "type": "Feature", "properties": { "name": "Irlam Medical Practice 2", "alias": "Drs Koria and White", "cqc_id": "1-199786198", "tel": 1617752760.0, "address": "Irlam Medical Centre, Macdonald Road, Irlam, Manchester", "postcode": "M44 5LH", "area_name": "Salford", "area_code": "E08000006" }, "geometry": { "type": "Point", "coordinates": [ -2.432258, 53.437925 ] } },
{ "type": "Feature", "properties": { "name": "Chapel Street Medical Centre", "alias": null, "cqc_id": "1-199787190", "tel": 1613399292.0, "address": "Chapel Street, Ashton Under Lyne", "postcode": "OL6 6EW", "area_name": "Tameside", "area_code": "E08000008" }, "geometry": { "type": "Point", "coordinates": [ -2.088807, 53.489505 ] } },
{ "type": "Feature", "properties": { "name": "Heaton Norris Health Centre 2", "alias": null, "cqc_id": "1-199786626", "tel": 1614802366.0, "address": "Heaton Norris Health Centre, Cheviot Close, Heaton Norris, Stockport", "postcode": "SK4 1JX", "area_name": "Stockport", "area_code": "E08000007" }, "geometry": { "type": "Point", "coordinates": [ -2.16793, 53.416532 ] } },
{ "type": "Feature", "properties": { "name": "Dr Rubina Shahmalak, Dr Asif Javid and Dr Pirzada Anwer", "alias": "Dickenson Road Medical Centre", "cqc_id": "1-199784387", "tel": 161225537.0, "address": "357-359 Dickenson Road, Longsight, Manchester", "postcode": "M13 0WQ", "area_name": "Manchester", "area_code": "E08000003" }, "geometry": { "type": "Point", "coordinates": [ -2.200961, 53.455985 ] } },
{ "type": "Feature", "properties": { "name": "Dr Abid Hamid", "alias": "Dr Hamid's Practice", "cqc_id": "1-199785943", "tel": 1706261888.0, "address": "2nd Floor Nye Bevan House, Maclure Road, Rochdale", "postcode": "OL11 1DN", "area_name": "Rochdale", "area_code": "E08000005" }, "geometry": { "type": "Point", "coordinates": [ -2.154239, 53.611617 ] } },
{ "type": "Feature", "properties": { "name": "Parkside Medical Centre", "alias": null, "cqc_id": "1-199784939", "tel": 1612573338.0, "address": "187 Northmoor Road, Longsight, Manchester", "postcode": "M12 5RU", "area_name": "Manchester", "area_code": "E08000003" }, "geometry": { "type": "Point", "coordinates": [ -2.190843, 53.453189 ] } },
{ "type": "Feature", "properties": { "name": "Pike View Medical Centre", "alias": null, "cqc_id": "1-199783499", "tel": 8443879793.0, "address": "Albert Street, Horwich, Bolton", "postcode": "BL6 7AN", "area_name": "Bolton", "area_code": "E08000001" }, "geometry": { "type": "Point", "coordinates": [ -2.550853, 53.602151 ] } },
{ "type": "Feature", "properties": { "name": "Benchill Medical Practice", "alias": null, "cqc_id": "1-199784417", "tel": 1614939101.0, "address": "171 Brownley Road, Manchester", "postcode": "M22 9UH", "area_name": "Manchester", "area_code": "E08000003" }, "geometry": { "type": "Point", "coordinates": [ -2.255632, 53.386597 ] } },
{ "type": "Feature", "properties": { "name": "Hopwood House Medical Practice", "alias": null, "cqc_id": "1-199785353", "tel": 1616283628.0, "address": "Hopwood House, The Vineyard, Lees Road, Oldham", "postcode": "OL4 1JN", "area_name": "Oldham", "area_code": "E08000004" }, "geometry": { "type": "Point", "coordinates": [ -2.095467, 53.542109 ] } },
{ "type": "Feature", "properties": { "name": "Blackfriars Medical Practice", "alias": null, "cqc_id": "1-199809290", "tel": 1618194790.0, "address": "Fresh Towers, 138 Chapel Street, Salford, Manchester", "postcode": "M3 6AF", "area_name": "Salford", "area_code": "E08000006" }, "geometry": { "type": "Point", "coordinates": [ -2.254244, 53.484135 ] } },
{ "type": "Feature", "properties": { "name": "Cornbrook Medical Practice", "alias": null, "cqc_id": "1-199785068", "tel": 1612279785.0, "address": "204 City Road, Hulme, Manchester", "postcode": "M15 4EA", "area_name": "Manchester", "area_code": "E08000003" }, "geometry": { "type": "Point", "coordinates": [ -2.259873, 53.468141 ] } },
{ "type": "Feature", "properties": { "name": "Dr D T Brazier & Dr D York", "alias": "Trinity Medical Centre", "cqc_id": "1-199785991", "tel": 1706378476.0, "address": "22 Winton Street, Littleborough", "postcode": "OL15 8AR", "area_name": "Rochdale", "area_code": "E08000005" }, "geometry": { "type": "Point", "coordinates": [ -2.0994, 53.642442 ] } },
{ "type": "Feature", "properties": { "name": "Little Lever Health Centre 1", "alias": null, "cqc_id": "1-199783617", "tel": 1204462640.0, "address": "Mytham Road, Little Lever, Bolton", "postcode": "BL3 1JF", "area_name": "Bolton", "area_code": "E08000001" }, "geometry": { "type": "Point", "coordinates": [ -2.370624, 53.559818 ] } },
{ "type": "Feature", "properties": { "name": "The Alexandra Practice", "alias": null, "cqc_id": "1-199784969", "tel": 1618604400.0, "address": "365 Wilbraham Road, Manchester", "postcode": "M16 8NG", "area_name": "Manchester", "area_code": "E08000003" }, "geometry": { "type": "Point", "coordinates": [ -2.255745, 53.443126 ] } },
{ "type": "Feature", "properties": { "name": "Dr Counsell and Partners", "alias": null, "cqc_id": "1-199783459", "tel": 1204463636.0, "address": "The Pikes Lane Centre, Deane Road, Bolton", "postcode": "BL3 5HP", "area_name": "Bolton", "area_code": "E08000001" }, "geometry": { "type": "Point", "coordinates": [ -2.446348, 53.572728 ] } },
{ "type": "Feature", "properties": { "name": "Dr Bernard Newgrosh", "alias": "Great Lever One", "cqc_id": "1-199783830", "tel": 1204526955.0, "address": "Great Lever Health Centre, Rupert Street, Great Lever, Bolton", "postcode": "BL3 6RN", "area_name": "Bolton", "area_code": "E08000001" }, "geometry": { "type": "Point", "coordinates": [ -2.432443, 53.565624 ] } },
{ "type": "Feature", "properties": { "name": "The Alastair Ross Medical Practice", "alias": null, "cqc_id": "1-199783608", "tel": 1204463800.0, "address": "Breightmet Health Centre,, Breightmet Fold Lane, Breightmet,, Bolton", "postcode": "BL2 6NT", "area_name": "Bolton", "area_code": "E08000001" }, "geometry": { "type": "Point", "coordinates": [ -2.384279, 53.582354 ] } },
{ "type": "Feature", "properties": { "name": "Tottington Medical Practice", "alias": null, "cqc_id": "1-199784016", "tel": 1204885106.0, "address": "16 Market Street, Tottington, Bury", "postcode": "BL8 4AD", "area_name": "Bury", "area_code": "E08000002" }, "geometry": { "type": "Point", "coordinates": [ -2.341432, 53.614725 ] } },
{ "type": "Feature", "properties": { "name": "Heady Hill Surgery", "alias": null, "cqc_id": "1-199785893", "tel": 1706622600.0, "address": "114 Bury New Road, Heywood", "postcode": "OL10 4RG", "area_name": "Rochdale", "area_code": "E08000005" }, "geometry": { "type": "Point", "coordinates": [ -2.241622, 53.593657 ] } },
{ "type": "Feature", "properties": { "name": "Lostock Medical Centre", "alias": null, "cqc_id": "1-199787701", "tel": 1618651100.0, "address": "431 Barton Road, Stretford, Manchester", "postcode": "M32 9PA", "area_name": "Trafford", "area_code": "E08000009" }, "geometry": { "type": "Point", "coordinates": [ -2.328128, 53.45458 ] } },
{ "type": "Feature", "properties": { "name": "Windmill Medical Practice", "alias": null, "cqc_id": "1-199787171", "tel": 1613203131.0, "address": "Ann Street Health Centre, Ann Street, Denton, Manchester", "postcode": "M34 2AJ", "area_name": "Tameside", "area_code": "E08000008" }, "geometry": { "type": "Point", "coordinates": [ -2.118464, 53.455602 ] } },
{ "type": "Feature", "properties": { "name": "Heaton Medical Centre", "alias": null, "cqc_id": "1-199783685", "tel": 1204843677.0, "address": "2 Lucy Street, Bolton", "postcode": "BL1 5PU", "area_name": "Bolton", "area_code": "E08000001" }, "geometry": { "type": "Point", "coordinates": [ -2.46832, 53.587976 ] } },
{ "type": "Feature", "properties": { "name": "North Trafford Group Practice", "alias": null, "cqc_id": "1-199787711", "tel": 1618655556.0, "address": "864 866 Chester Road, Stretford, Manchester", "postcode": "M32 0PA", "area_name": "Trafford", "area_code": "E08000009" }, "geometry": { "type": "Point", "coordinates": [ -2.299481, 53.453882 ] } },
{ "type": "Feature", "properties": { "name": "The Olive Family Practice Ltd", "alias": null, "cqc_id": "1-285793532", "tel": 1204462299.0, "address": "The Pikes Lane Centre, Deane Road, Bolton", "postcode": "BL3 5HP", "area_name": "Bolton", "area_code": "E08000001" }, "geometry": { "type": "Point", "coordinates": [ -2.446348, 53.572728 ] } },
{ "type": "Feature", "properties": { "name": "Dr Karim & Dr James-Authe", "alias": null, "cqc_id": "1-199783840", "tel": 1204494133.0, "address": "46 Wyresdale Road, Bolton", "postcode": "BL1 4DN", "area_name": "Bolton", "area_code": "E08000001" }, "geometry": { "type": "Point", "coordinates": [ -2.452196, 53.581577 ] } },
{ "type": "Feature", "properties": { "name": "Dr Esa Surgery Limited", "alias": null, "cqc_id": "1-199788113", "tel": 1942483488.0, "address": "Leigh Health Centre, The Avenue, Leigh", "postcode": "WN7 1HR", "area_name": "Wigan", "area_code": "E08000010" }, "geometry": { "type": "Point", "coordinates": [ -2.511455, 53.503236 ] } },
{ "type": "Feature", "properties": { "name": "The Doc's Surgery", "alias": "The Docs", "cqc_id": "1-199785147", "tel": 1612379490.0, "address": "55-59 Bloom Street, Manchester", "postcode": "M1 3LY", "area_name": "Manchester", "area_code": "E08000003" }, "geometry": { "type": "Point", "coordinates": [ -2.238064, 53.476932 ] } },
{ "type": "Feature", "properties": { "name": "Dr Robert Mathewson", "alias": null, "cqc_id": "1-199786972", "tel": 1663762222.0, "address": "The Village Green, High Lane, Stockport", "postcode": "SK6 8DR", "area_name": "Stockport", "area_code": "E08000007" }, "geometry": { "type": "Point", "coordinates": [ -2.075293, 53.364978 ] } },
{ "type": "Feature", "properties": { "name": "Hill Top Surgery", "alias": null, "cqc_id": "1-199810820", "tel": 1616222760.0, "address": "Fitton Hill Neighbourhood Centre, Fircroft Road, Oldham", "postcode": "OL8 2QD", "area_name": "Oldham", "area_code": "E08000004" }, "geometry": { "type": "Point", "coordinates": [ -2.100756, 53.52011 ] } },
{ "type": "Feature", "properties": { "name": "The Poplars Medical Centre", "alias": null, "cqc_id": "1-755026631", "tel": 1617946237.0, "address": "202 Partington Lane, Swinton, Manchester", "postcode": "M27 0NA", "area_name": "Salford", "area_code": "E08000006" }, "geometry": { "type": "Point", "coordinates": [ -2.34171, 53.510603 ] } }
]
}
