{
"type": "FeatureCollection",
"crs": { "type": "name", "properties": { "name": "urn:ogc:def:crs:OGC:1.3:CRS84" } },
"features": [
{ "type": "Feature", "properties": { "Name": "Urmston Group Practice", "Service type": "Doctors\/GPs|Doctors\/GPs", "Address": "6 Woodsend Crescent Road, Urmston, Manchester", "Postcode": "M41 8AA", "Telephone": 1617559870.0, "Website": "http:\/\/www.urmstongrouppractice.co.uk", "Area name": "Trafford", "Area code": "E0800009", "marker-color": "#fc6721", "marker-size": "medium" }, "geometry": { "type": "Point", "coordinates": [ -2.394066, 53.452491 ] } },
{ "type": "Feature", "properties": { "Name": "Diagnostic Healthcare Limited", "Service type": "Doctors\/GPs|Diagnosis\/screening|Diagnosis\/screening|Doctors\/GPs", "Address": "Mansion House, 3 Bridgewater Embankment, Altrincham", "Postcode": "WA14 4RW", "Telephone": null, "Website": null, "Area name": "Trafford", "Area code": "E0800009", "marker-color": "#fc6721", "marker-size": "medium" }, "geometry": { "type": "Point", "coordinates": [ -2.353017, 53.397872 ] } },
{ "type": "Feature", "properties": { "Name": "Primrose Surgery", "Service type": "Doctors\/GPs|Doctors\/GPs", "Address": "59 Old Crofts Bank, Urmston, Manchester", "Postcode": "M41 7AB", "Telephone": 1617472424.0, "Website": "http:\/\/www.primroseavenue.co.uk", "Area name": "Trafford", "Area code": "E0800009", "marker-color": "#fc6721", "marker-size": "medium" }, "geometry": { "type": "Point", "coordinates": [ -2.357311, 53.456159 ] } },
{ "type": "Feature", "properties": { "Name": "Direct Medicare UK Limited", "Service type": "Doctors\/GPs|Doctors\/GPs", "Address": "Bodmin Road Health Centre, Bodmin Road, Sale", "Postcode": "M33 5JH", "Telephone": 16119624625.0, "Website": null, "Area name": "Trafford", "Area code": "E0800009", "marker-color": "#fc6721", "marker-size": "medium" }, "geometry": { "type": "Point", "coordinates": [ -2.351718, 53.428123 ] } },
{ "type": "Feature", "properties": { "Name": "Trafford Health Centre", "Service type": "Doctors\/GPs|Doctors\/GPs|Mobile doctors|Phone\/online advice|Urgent care centres", "Address": "Moorside Road, Davyhulme, Manchester", "Postcode": "M41 5SL", "Telephone": 1617474978.0, "Website": "http:\/\/www.mastercall.org.uk", "Area name": "Trafford", "Area code": "E0800009", "marker-color": "#fc6721", "marker-size": "medium" }, "geometry": { "type": "Point", "coordinates": [ -2.370681, 53.45406 ] } },
{ "type": "Feature", "properties": { "Name": "Limelight Health and Well-being Hub", "Service type": "Doctors\/GPs|Doctors\/GPs", "Address": "Limelight, 1-3 St Brides Way, Manchester", "Postcode": "M16 9NW", "Telephone": 1612267777.0, "Website": null, "Area name": "Trafford", "Area code": "E0800009", "marker-color": "#fc6721", "marker-size": "medium" }, "geometry": { "type": "Point", "coordinates": [ -2.261969, 53.461412 ] } },
{ "type": "Feature", "properties": { "Name": "Skinny Revolution Ltd", "Service type": "Doctors\/GPs|Doctors\/GPs", "Address": "307 Hale Road, Hale Barns, Altrincham", "Postcode": "WA15 8SS", "Telephone": 1619804237.0, "Website": "http:\/\/www.skinnyrevolution.co.uk", "Area name": "Trafford", "Area code": "E0800009", "marker-color": "#fc6721", "marker-size": "medium" }, "geometry": { "type": "Point", "coordinates": [ -2.313707, 53.369479 ] } },
{ "type": "Feature", "properties": { "Name": "Dr Richard Clare", "Service type": "Doctors\/GPs|Doctors\/GPs", "Address": "The Surgery, 12 Derbyshire Road South, Sale", "Postcode": "M33 3JP", "Telephone": 1619733499.0, "Website": "http:\/\/www.drclaresurgery.co.uk", "Area name": "Trafford", "Area code": "E0800009", "marker-color": "#fc6721", "marker-size": "medium" }, "geometry": { "type": "Point", "coordinates": [ -2.310144, 53.416957 ] } },
{ "type": "Feature", "properties": { "Name": "Dr Sally Johnston", "Service type": "Doctors\/GPs|Doctors\/GPs", "Address": "34 Riddings Road, Timperley, Altrincham", "Postcode": "WA15 6BP", "Telephone": 1619629662.0, "Website": null, "Area name": "Trafford", "Area code": "E0800009", "marker-color": "#fc6721", "marker-size": "medium" }, "geometry": { "type": "Point", "coordinates": [ -2.331291, 53.404424 ] } },
{ "type": "Feature", "properties": { "Name": "Dr Salam J Farhan", "Service type": "Doctors\/GPs|Doctors\/GPs", "Address": "Partington Health Centre, Central Road, Partington, Manchester", "Postcode": "M31 4FY", "Telephone": 1617757032.0, "Website": null, "Area name": "Trafford", "Area code": "E0800009", "marker-color": "#fc6721", "marker-size": "medium" }, "geometry": { "type": "Point", "coordinates": [ -2.425413, 53.417204 ] } },
{ "type": "Feature", "properties": { "Name": "Gloucester House Medical Centre", "Service type": "Doctors\/GPs|Doctors\/GPs", "Address": "17 Station Road, Urmston, Manchester", "Postcode": "M41 9JS", "Telephone": 1617487115.0, "Website": "http:\/\/www.ghmc.co.uk", "Area name": "Trafford", "Area code": "E0800009", "marker-color": "#fc6721", "marker-size": "medium" }, "geometry": { "type": "Point", "coordinates": [ -2.352599, 53.447337 ] } },
{ "type": "Feature", "properties": { "Name": "Dr Anoop Sahal", "Service type": "Doctors\/GPs|Doctors\/GPs", "Address": "94 Navigation Road, Altrincham", "Postcode": "WA14 1LL", "Telephone": 1619299300.0, "Website": null, "Area name": "Trafford", "Area code": "E0800009", "marker-color": "#fc6721", "marker-size": "medium" }, "geometry": { "type": "Point", "coordinates": [ -2.346055, 53.396194 ] } },
{ "type": "Feature", "properties": { "Name": "Dr Masud Prodhan", "Service type": "Doctors\/GPs|Doctors\/GPs", "Address": "Seymour Grove Health Centre, Manchester", "Postcode": "M16 0LW", "Telephone": 1618487563.0, "Website": "http:\/\/www.oldtraffordsurgery.co.uk", "Area name": "Trafford", "Area code": "E0800009", "marker-color": "#fc6721", "marker-size": "medium" }, "geometry": { "type": "Point", "coordinates": [ -2.275745, 53.458074 ] } },
{ "type": "Feature", "properties": { "Name": "Dr Mahendra Patel", "Service type": "Doctors\/GPs|Doctors\/GPs", "Address": "Shay Lane, Hale Barns, Altrincham", "Postcode": "WA15 8NZ", "Telephone": 1619802656.0, "Website": "http:\/\/www.shaylanemedical.com", "Area name": "Trafford", "Area code": "E0800009", "marker-color": "#fc6721", "marker-size": "medium" }, "geometry": { "type": "Point", "coordinates": [ -2.31556, 53.372189 ] } },
{ "type": "Feature", "properties": { "Name": "Dr Devang Shah", "Service type": "Doctors\/GPs|Doctors\/GPs", "Address": "169 Grove Lane, Timperley, Altrincham", "Postcode": "WA15 6PH", "Telephone": 1619039302.0, "Website": "http:\/\/www.grovemed.co.uk", "Area name": "Trafford", "Area code": "E0800009", "marker-color": "#fc6721", "marker-size": "medium" }, "geometry": { "type": "Point", "coordinates": [ -2.323566, 53.397228 ] } },
{ "type": "Feature", "properties": { "Name": "Timperley Health Centre - Westwood", "Service type": "Doctors\/GPs|Doctors\/GPs", "Address": "169 Grove Lane, Timperley, Altrincham", "Postcode": "WA15 6PH", "Telephone": 1619803751.0, "Website": null, "Area name": "Trafford", "Area code": "E0800009", "marker-color": "#fc6721", "marker-size": "medium" }, "geometry": { "type": "Point", "coordinates": [ -2.323566, 53.397228 ] } },
{ "type": "Feature", "properties": { "Name": "The Village Surgery", "Service type": "Doctors\/GPs|Doctors\/GPs", "Address": "169 Grove Lane, Timperley, Altrincham", "Postcode": "WA15 6PH", "Telephone": 1619039010.0, "Website": null, "Area name": "Trafford", "Area code": "E0800009", "marker-color": "#fc6721", "marker-size": "medium" }, "geometry": { "type": "Point", "coordinates": [ -2.323566, 53.397228 ] } },
{ "type": "Feature", "properties": { "Name": "Shay Lane Medical Centre - Kelman", "Service type": "Doctors\/GPs|Doctors\/GPs", "Address": "Shay Lane, Hale Barns, Altrincham", "Postcode": "WA15 8NZ", "Telephone": 1619803835.0, "Website": "http:\/\/www.shaylane.org", "Area name": "Trafford", "Area code": "E0800009", "marker-color": "#fc6721", "marker-size": "medium" }, "geometry": { "type": "Point", "coordinates": [ -2.31556, 53.372189 ] } },
{ "type": "Feature", "properties": { "Name": "Park Medical Practice", "Service type": "Doctors\/GPs|Doctors\/GPs", "Address": "119 Park Road, Timperley, Altrincham", "Postcode": "WA15 6QQ", "Telephone": 1619733485.0, "Website": null, "Area name": "Trafford", "Area code": "E0800009", "marker-color": "#fc6721", "marker-size": "medium" }, "geometry": { "type": "Point", "coordinates": [ -2.327843, 53.401899 ] } },
{ "type": "Feature", "properties": { "Name": "Delamere Medical Practice", "Service type": "Doctors\/GPs|Doctors\/GPs", "Address": "Delamere Avenue, Stretford, Manchester", "Postcode": "M32 0DF", "Telephone": 1618640200.0, "Website": "http:\/\/www.delameremedicalcentre.co.uk", "Area name": "Trafford", "Area code": "E0800009", "marker-color": "#fc6721", "marker-size": "medium" }, "geometry": { "type": "Point", "coordinates": [ -2.307365, 53.450887 ] } },
{ "type": "Feature", "properties": { "Name": "Conway Road Medical Practice", "Service type": "Doctors\/GPs|Doctors\/GPs", "Address": "Conway Road Health Centre, 80a Conway Road, Sale", "Postcode": "M33 2TB", "Telephone": 1619731151.0, "Website": "http:\/\/www.conwayroadsurgery.co.uk", "Area name": "Trafford", "Area code": "E0800009", "marker-color": "#fc6721", "marker-size": "medium" }, "geometry": { "type": "Point", "coordinates": [ -2.303561, 53.417873 ] } },
{ "type": "Feature", "properties": { "Name": "Partington Family Practice", "Service type": "Doctors\/GPs|Doctors\/GPs", "Address": "Partington Health Centre, Central Road, Partington, Manchester", "Postcode": "M31 4FY", "Telephone": 1617757033.0, "Website": "http:\/\/www.drdeweeverandpartners.co.uk", "Area name": "Trafford", "Area code": "E0800009", "marker-color": "#fc6721", "marker-size": "medium" }, "geometry": { "type": "Point", "coordinates": [ -2.425413, 53.417204 ] } },
{ "type": "Feature", "properties": { "Name": "Firsway Health Centre", "Service type": "Doctors\/GPs|Doctors\/GPs", "Address": "121 Firsway, Sale", "Postcode": "M33 4BR", "Telephone": 1619050310.0, "Website": "http:\/\/www.firswayhealthcentre.co.uk", "Area name": "Trafford", "Area code": "E0800009", "marker-color": "#fc6721", "marker-size": "medium" }, "geometry": { "type": "Point", "coordinates": [ -2.355468, 53.421289 ] } },
{ "type": "Feature", "properties": { "Name": "Boundary House Medical Centre", "Service type": "Doctors\/GPs|Doctors\/GPs", "Address": "Boundary House,, 462, Northenden Road,, Sale", "Postcode": "M33 2RH", "Telephone": 1619729999.0, "Website": null, "Area name": "Trafford", "Area code": "E0800009", "marker-color": "#fc6721", "marker-size": "medium" }, "geometry": { "type": "Point", "coordinates": [ -2.288936, 53.415635 ] } },
{ "type": "Feature", "properties": { "Name": "Bodmin Road Health Centre", "Service type": "Doctors\/GPs|Doctors\/GPs", "Address": "Bodmin Road,, Sale", "Postcode": "M33 5JH", "Telephone": 1619624625.0, "Website": "http:\/\/www.bodminroadhealthcentre.co.uk", "Area name": "Trafford", "Area code": "E0800009", "marker-color": "#fc6721", "marker-size": "medium" }, "geometry": { "type": "Point", "coordinates": [ -2.351718, 53.428123 ] } },
{ "type": "Feature", "properties": { "Name": "Altrincham Medical Practice", "Service type": "Doctors\/GPs|Doctors\/GPs", "Address": "Lloyd House, 7 Lloyd Street, Altrincham", "Postcode": "WA14 2DD", "Telephone": 1619282424.0, "Website": "http:\/\/www.altrinchammedicalpractice.co.uk", "Area name": "Trafford", "Area code": "E0800009", "marker-color": "#fc6721", "marker-size": "medium" }, "geometry": { "type": "Point", "coordinates": [ -2.351614, 53.38451 ] } },
{ "type": "Feature", "properties": { "Name": "Washway Road Medical Centre", "Service type": "Doctors\/GPs|Doctors\/GPs", "Address": "67 Washway Road, Sale", "Postcode": "M33 7SS", "Telephone": 1619624354.0, "Website": "http:\/\/www.wrmc.org.uk", "Area name": "Trafford", "Area code": "E0800009", "marker-color": "#fc6721", "marker-size": "medium" }, "geometry": { "type": "Point", "coordinates": [ -2.328392, 53.4224 ] } },
{ "type": "Feature", "properties": { "Name": "St Johns Medical Centre", "Service type": "Doctors\/GPs|Doctors\/GPs", "Address": "St Johns Road, Altrincham", "Postcode": "WA14 2NW", "Telephone": 1619285522.0, "Website": "http:\/\/www.stjohnsmedicalcentre.co.uk", "Area name": "Trafford", "Area code": "E0800009", "marker-color": "#fc6721", "marker-size": "medium" }, "geometry": { "type": "Point", "coordinates": [ -2.353809, 53.38276 ] } },
{ "type": "Feature", "properties": { "Name": "Davyhulme Medical Centre", "Service type": "Doctors\/GPs|Doctors\/GPs", "Address": "130 Broadway, Davyhulme, Urmston, Manchester", "Postcode": "M41 7WJ", "Telephone": 1617485559.0, "Website": "http:\/\/www.davyhulmemedicalcentre.co.uk", "Area name": "Trafford", "Area code": "E0800009", "marker-color": "#fc6721", "marker-size": "medium" }, "geometry": { "type": "Point", "coordinates": [ -2.366782, 53.459483 ] } },
{ "type": "Feature", "properties": { "Name": "Dr BN Macdonald & Partners", "Service type": "Doctors\/GPs|Doctors\/GPs", "Address": "68 Barrington Road, Altrincham", "Postcode": "WA14 1JB", "Telephone": 1619289621.0, "Website": null, "Area name": "Trafford", "Area code": "E0800009", "marker-color": "#fc6721", "marker-size": "medium" }, "geometry": { "type": "Point", "coordinates": [ -2.35098, 53.395191 ] } },
{ "type": "Feature", "properties": { "Name": "Flixton Road Medical Centre", "Service type": "Doctors\/GPs|Doctors\/GPs", "Address": "132 Flixton Road, Urmston, Manchester", "Postcode": "M41 5BG", "Telephone": 1617482021.0, "Website": null, "Area name": "Trafford", "Area code": "E0800009", "marker-color": "#fc6721", "marker-size": "medium" }, "geometry": { "type": "Point", "coordinates": [ -2.362664, 53.448267 ] } },
{ "type": "Feature", "properties": { "Name": "West Timperley Medical Centre", "Service type": "Doctors\/GPs|Doctors\/GPs", "Address": "21 Dawson Road, West Timperley, Altrincham", "Postcode": "WA14 5PF", "Telephone": 1619291515.0, "Website": "http:\/\/www.westtimperleymedicalcentre.co.uk", "Area name": "Trafford", "Area code": "E0800009", "marker-color": "#fc6721", "marker-size": "medium" }, "geometry": { "type": "Point", "coordinates": [ -2.353117, 53.402699 ] } },
{ "type": "Feature", "properties": { "Name": "Gorse Hill Medical Centre", "Service type": "Doctors\/GPs|Doctors\/GPs", "Address": "879 Chester Road, Stretford, Manchester", "Postcode": "M32 0RN", "Telephone": 1618642496.0, "Website": "http:\/\/www.ghmcars.co.uk", "Area name": "Trafford", "Area code": "E0800009", "marker-color": "#fc6721", "marker-size": "medium" }, "geometry": { "type": "Point", "coordinates": [ -2.296647, 53.455651 ] } },
{ "type": "Feature", "properties": { "Name": "Lostock Medical Centre", "Service type": "Doctors\/GPs|Doctors\/GPs", "Address": "431 Barton Road, Stretford, Manchester", "Postcode": "M32 9PA", "Telephone": 1618651100.0, "Website": null, "Area name": "Trafford", "Area code": "E0800009", "marker-color": "#fc6721", "marker-size": "medium" }, "geometry": { "type": "Point", "coordinates": [ -2.328128, 53.45458 ] } },
{ "type": "Feature", "properties": { "Name": "North Trafford Group Practice", "Service type": "Doctors\/GPs|Doctors\/GPs", "Address": "864 866 Chester Road, Stretford, Manchester", "Postcode": "M32 0PA", "Telephone": 1618655556.0, "Website": "http:\/\/www.chesterroadsurgery.co.uk", "Area name": "Trafford", "Area code": "E0800009", "marker-color": "#fc6721", "marker-size": "medium" }, "geometry": { "type": "Point", "coordinates": [ -2.299481, 53.453882 ] } }
]
}
