{
"type": "FeatureCollection",
"crs": { "type": "name", "properties": { "name": "urn:ogc:def:crs:OGC:1.3:CRS84" } },
"features": [
{ "type": "Feature", "properties": { "name": "Urmston Group Practice", "alias": null, "cqc_id": "1-199787408", "tel": 1617559870.0, "address": "6 Woodsend Crescent Road, Urmston, Manchester", "postcode": "M41 8AA", "area_name": "Trafford", "area_code": "E08000009", "marker-color": "#fc6721", "marker-size": "medium" }, "geometry": { "type": "Point", "coordinates": [ -2.394066, 53.452491 ] } },
{ "type": "Feature", "properties": { "name": "Primrose Surgery", "alias": null, "cqc_id": "1-199787456", "tel": 1617472424.0, "address": "59 Old Crofts Bank, Urmston, Manchester", "postcode": "M41 7AB", "area_name": "Trafford", "area_code": "E08000009", "marker-color": "#fc6721", "marker-size": "medium" }, "geometry": { "type": "Point", "coordinates": [ -2.357311, 53.456159 ] } },
{ "type": "Feature", "properties": { "name": "Direct Medicare UK Limited", "alias": null, "cqc_id": "1-2464425273", "tel": 16119624625.0, "address": "Bodmin Road Health Centre, Bodmin Road, Sale", "postcode": "M33 5JH", "area_name": "Trafford", "area_code": "E08000009", "marker-color": "#fc6721", "marker-size": "medium" }, "geometry": { "type": "Point", "coordinates": [ -2.351718, 53.428123 ] } },
{ "type": "Feature", "properties": { "name": "Limelight Health and Well-being Hub", "alias": "Brooks Bar Medical Centre", "cqc_id": "1-3769470093", "tel": 1612267777.0, "address": "Limelight, 1-3 St Brides Way, Manchester", "postcode": "M16 9NW", "area_name": "Trafford", "area_code": "E08000009", "marker-color": "#fc6721", "marker-size": "medium" }, "geometry": { "type": "Point", "coordinates": [ -2.261969, 53.461412 ] } },
{ "type": "Feature", "properties": { "name": "Dr Richard Clare", "alias": "Dr Richard George Clare", "cqc_id": "1-199787594", "tel": 1619733499.0, "address": "The Surgery, 12 Derbyshire Road South, Sale", "postcode": "M33 3JP", "area_name": "Trafford", "area_code": "E08000009", "marker-color": "#fc6721", "marker-size": "medium" }, "geometry": { "type": "Point", "coordinates": [ -2.310144, 53.416957 ] } },
{ "type": "Feature", "properties": { "name": "Dr Sally Johnston", "alias": null, "cqc_id": "1-199787730", "tel": 1619629662.0, "address": "34 Riddings Road, Timperley, Altrincham", "postcode": "WA15 6BP", "area_name": "Trafford", "area_code": "E08000009", "marker-color": "#fc6721", "marker-size": "medium" }, "geometry": { "type": "Point", "coordinates": [ -2.331291, 53.404424 ] } },
{ "type": "Feature", "properties": { "name": "Dr Salam J Farhan", "alias": "Partington Central Surgery", "cqc_id": "1-199787515", "tel": 1617757032.0, "address": "Partington Health Centre, Central Road, Partington, Manchester", "postcode": "M31 4FY", "area_name": "Trafford", "area_code": "E08000009", "marker-color": "#fc6721", "marker-size": "medium" }, "geometry": { "type": "Point", "coordinates": [ -2.425413, 53.417204 ] } },
{ "type": "Feature", "properties": { "name": "Gloucester House Medical Centre", "alias": null, "cqc_id": "1-199787691", "tel": 1617487115.0, "address": "17 Station Road, Urmston, Manchester", "postcode": "M41 9JS", "area_name": "Trafford", "area_code": "E08000009", "marker-color": "#fc6721", "marker-size": "medium" }, "geometry": { "type": "Point", "coordinates": [ -2.352599, 53.447337 ] } },
{ "type": "Feature", "properties": { "name": "Dr Anoop Sahal", "alias": "The Family surgery", "cqc_id": "1-199787662", "tel": 1619299300.0, "address": "94 Navigation Road, Altrincham", "postcode": "WA14 1LL", "area_name": "Trafford", "area_code": "E08000009", "marker-color": "#fc6721", "marker-size": "medium" }, "geometry": { "type": "Point", "coordinates": [ -2.346055, 53.396194 ] } },
{ "type": "Feature", "properties": { "name": "Dr Masud Prodhan", "alias": "Old Trafford Medical Practice", "cqc_id": "1-199787672", "tel": 1618487563.0, "address": "Seymour Grove Health Centre, Manchester", "postcode": "M16 0LW", "area_name": "Trafford", "area_code": "E08000009", "marker-color": "#fc6721", "marker-size": "medium" }, "geometry": { "type": "Point", "coordinates": [ -2.275745, 53.458074 ] } },
{ "type": "Feature", "properties": { "name": "Dr Mahendra Patel", "alias": null, "cqc_id": "1-199787447", "tel": 1619802656.0, "address": "Shay Lane, Hale Barns, Altrincham", "postcode": "WA15 8NZ", "area_name": "Trafford", "area_code": "E08000009", "marker-color": "#fc6721", "marker-size": "medium" }, "geometry": { "type": "Point", "coordinates": [ -2.31556, 53.372189 ] } },
{ "type": "Feature", "properties": { "name": "Dr Devang Shah", "alias": "Grove Medical Practice", "cqc_id": "1-199787750", "tel": 1619039302.0, "address": "169 Grove Lane, Timperley, Altrincham", "postcode": "WA15 6PH", "area_name": "Trafford", "area_code": "E08000009", "marker-color": "#fc6721", "marker-size": "medium" }, "geometry": { "type": "Point", "coordinates": [ -2.323566, 53.397228 ] } },
{ "type": "Feature", "properties": { "name": "Timperley Health Centre - Westwood", "alias": null, "cqc_id": "1-199787418", "tel": 1619803751.0, "address": "169 Grove Lane, Timperley, Altrincham", "postcode": "WA15 6PH", "area_name": "Trafford", "area_code": "E08000009", "marker-color": "#fc6721", "marker-size": "medium" }, "geometry": { "type": "Point", "coordinates": [ -2.323566, 53.397228 ] } },
{ "type": "Feature", "properties": { "name": "The Village Surgery", "alias": null, "cqc_id": "1-199787681", "tel": 1619039010.0, "address": "169 Grove Lane, Timperley, Altrincham", "postcode": "WA15 6PH", "area_name": "Trafford", "area_code": "E08000009", "marker-color": "#fc6721", "marker-size": "medium" }, "geometry": { "type": "Point", "coordinates": [ -2.323566, 53.397228 ] } },
{ "type": "Feature", "properties": { "name": "Shay Lane Medical Centre - Kelman", "alias": "Drs Kelman,Cranston&Naylor", "cqc_id": "1-199787428", "tel": 1619803835.0, "address": "Shay Lane, Hale Barns, Altrincham", "postcode": "WA15 8NZ", "area_name": "Trafford", "area_code": "E08000009", "marker-color": "#fc6721", "marker-size": "medium" }, "geometry": { "type": "Point", "coordinates": [ -2.31556, 53.372189 ] } },
{ "type": "Feature", "properties": { "name": "Park Medical Practice", "alias": null, "cqc_id": "1-199787388", "tel": 1619733485.0, "address": "119 Park Road, Timperley, Altrincham", "postcode": "WA15 6QQ", "area_name": "Trafford", "area_code": "E08000009", "marker-color": "#fc6721", "marker-size": "medium" }, "geometry": { "type": "Point", "coordinates": [ -2.327843, 53.401899 ] } },
{ "type": "Feature", "properties": { "name": "Delamere Medical Practice", "alias": null, "cqc_id": "1-199787505", "tel": 1618640200.0, "address": "Delamere Avenue, Stretford, Manchester", "postcode": "M32 0DF", "area_name": "Trafford", "area_code": "E08000009", "marker-color": "#fc6721", "marker-size": "medium" }, "geometry": { "type": "Point", "coordinates": [ -2.307365, 53.450887 ] } },
{ "type": "Feature", "properties": { "name": "Conway Road Medical Practice", "alias": null, "cqc_id": "1-199787604", "tel": 1619731151.0, "address": "Conway Road Health Centre, 80a Conway Road, Sale", "postcode": "M33 2TB", "area_name": "Trafford", "area_code": "E08000009", "marker-color": "#fc6721", "marker-size": "medium" }, "geometry": { "type": "Point", "coordinates": [ -2.303561, 53.417873 ] } },
{ "type": "Feature", "properties": { "name": "Partington Family Practice", "alias": null, "cqc_id": "1-199787555", "tel": 1617757033.0, "address": "Partington Health Centre, Central Road, Partington, Manchester", "postcode": "M31 4FY", "area_name": "Trafford", "area_code": "E08000009", "marker-color": "#fc6721", "marker-size": "medium" }, "geometry": { "type": "Point", "coordinates": [ -2.425413, 53.417204 ] } },
{ "type": "Feature", "properties": { "name": "Firsway Health Centre", "alias": null, "cqc_id": "1-199787535", "tel": 1619050310.0, "address": "121 Firsway, Sale", "postcode": "M33 4BR", "area_name": "Trafford", "area_code": "E08000009", "marker-color": "#fc6721", "marker-size": "medium" }, "geometry": { "type": "Point", "coordinates": [ -2.355468, 53.421289 ] } },
{ "type": "Feature", "properties": { "name": "Boundary House Medical Centre", "alias": null, "cqc_id": "1-199787466", "tel": 1619729999.0, "address": "Boundary House,, 462, Northenden Road,, Sale", "postcode": "M33 2RH", "area_name": "Trafford", "area_code": "E08000009", "marker-color": "#fc6721", "marker-size": "medium" }, "geometry": { "type": "Point", "coordinates": [ -2.288936, 53.415635 ] } },
{ "type": "Feature", "properties": { "name": "Bodmin Road Health Centre", "alias": "Dr PMA Simpson and Partners", "cqc_id": "1-199787495", "tel": 1619624625.0, "address": "Bodmin Road,, Sale", "postcode": "M33 5JH", "area_name": "Trafford", "area_code": "E08000009", "marker-color": "#fc6721", "marker-size": "medium" }, "geometry": { "type": "Point", "coordinates": [ -2.351718, 53.428123 ] } },
{ "type": "Feature", "properties": { "name": "Altrincham Medical Practice", "alias": null, "cqc_id": "1-199787398", "tel": 1619282424.0, "address": "Lloyd House, 7 Lloyd Street, Altrincham", "postcode": "WA14 2DD", "area_name": "Trafford", "area_code": "E08000009", "marker-color": "#fc6721", "marker-size": "medium" }, "geometry": { "type": "Point", "coordinates": [ -2.351614, 53.38451 ] } },
{ "type": "Feature", "properties": { "name": "Washway Road Medical Centre", "alias": null, "cqc_id": "1-199787475", "tel": 1619624354.0, "address": "67 Washway Road, Sale", "postcode": "M33 7SS", "area_name": "Trafford", "area_code": "E08000009", "marker-color": "#fc6721", "marker-size": "medium" }, "geometry": { "type": "Point", "coordinates": [ -2.328392, 53.4224 ] } },
{ "type": "Feature", "properties": { "name": "St Johns Medical Centre", "alias": null, "cqc_id": "1-199787633", "tel": 1619285522.0, "address": "St Johns Road, Altrincham", "postcode": "WA14 2NW", "area_name": "Trafford", "area_code": "E08000009", "marker-color": "#fc6721", "marker-size": "medium" }, "geometry": { "type": "Point", "coordinates": [ -2.353809, 53.38276 ] } },
{ "type": "Feature", "properties": { "name": "Davyhulme Medical Centre", "alias": null, "cqc_id": "1-199787437", "tel": 1617485559.0, "address": "130 Broadway, Davyhulme, Urmston, Manchester", "postcode": "M41 7WJ", "area_name": "Trafford", "area_code": "E08000009", "marker-color": "#fc6721", "marker-size": "medium" }, "geometry": { "type": "Point", "coordinates": [ -2.366782, 53.459483 ] } },
{ "type": "Feature", "properties": { "name": "Dr BN Macdonald & Partners", "alias": "Barrington Medical Centre", "cqc_id": "1-199787623", "tel": 1619289621.0, "address": "68 Barrington Road, Altrincham", "postcode": "WA14 1JB", "area_name": "Trafford", "area_code": "E08000009", "marker-color": "#fc6721", "marker-size": "medium" }, "geometry": { "type": "Point", "coordinates": [ -2.35098, 53.395191 ] } },
{ "type": "Feature", "properties": { "name": "Flixton Road Medical Centre", "alias": null, "cqc_id": "1-199787574", "tel": 1617482021.0, "address": "132 Flixton Road, Urmston, Manchester", "postcode": "M41 5BG", "area_name": "Trafford", "area_code": "E08000009", "marker-color": "#fc6721", "marker-size": "medium" }, "geometry": { "type": "Point", "coordinates": [ -2.362664, 53.448267 ] } },
{ "type": "Feature", "properties": { "name": "West Timperley Medical Centre", "alias": null, "cqc_id": "1-199787485", "tel": 1619291515.0, "address": "21 Dawson Road, West Timperley, Altrincham", "postcode": "WA14 5PF", "area_name": "Trafford", "area_code": "E08000009", "marker-color": "#fc6721", "marker-size": "medium" }, "geometry": { "type": "Point", "coordinates": [ -2.353117, 53.402699 ] } },
{ "type": "Feature", "properties": { "name": "Gorse Hill Medical Centre", "alias": null, "cqc_id": "1-199787652", "tel": 1618642496.0, "address": "879 Chester Road, Stretford, Manchester", "postcode": "M32 0RN", "area_name": "Trafford", "area_code": "E08000009", "marker-color": "#fc6721", "marker-size": "medium" }, "geometry": { "type": "Point", "coordinates": [ -2.296647, 53.455651 ] } },
{ "type": "Feature", "properties": { "name": "Lostock Medical Centre", "alias": null, "cqc_id": "1-199787701", "tel": 1618651100.0, "address": "431 Barton Road, Stretford, Manchester", "postcode": "M32 9PA", "area_name": "Trafford", "area_code": "E08000009", "marker-color": "#fc6721", "marker-size": "medium" }, "geometry": { "type": "Point", "coordinates": [ -2.328128, 53.45458 ] } },
{ "type": "Feature", "properties": { "name": "North Trafford Group Practice", "alias": null, "cqc_id": "1-199787711", "tel": 1618655556.0, "address": "864 866 Chester Road, Stretford, Manchester", "postcode": "M32 0PA", "area_name": "Trafford", "area_code": "E08000009", "marker-color": "#fc6721", "marker-size": "medium" }, "geometry": { "type": "Point", "coordinates": [ -2.299481, 53.453882 ] } }
]
}
