{
"type": "FeatureCollection",
"crs": { "type": "name", "properties": { "name": "urn:ogc:def:crs:OGC:1.3:CRS84" } },
"features": [
{ "type": "Feature", "properties": { "name": "Bickham House", "type": "Residential homes", "address": "Green Walk, Bowdon, Altrincham", "postcode": "WA14 2SN", "telephone": 1619282514.0, "website": null, "area_name": "Trafford", "area_code": "E0800009" }, "geometry": { "type": "Point", "coordinates": [ -2.371445, 53.381196 ] } },
{ "type": "Feature", "properties": { "name": "Order of The Sisters of St Joseph of The Apparition", "type": "Nursing homes", "address": "Lady of the Vale Nursing Home, Grange Road, Bowdon, Altrincham", "postcode": "WA14 3HA", "telephone": 1619282567.0, "website": "http:\/\/www.ladyofthevale.co.uk", "area_name": "Trafford", "area_code": "E0800009" }, "geometry": { "type": "Point", "coordinates": [ -2.35257, 53.371033 ] } },
{ "type": "Feature", "properties": { "name": "Lime Tree House", "type": "Residential homes", "address": "264 Washway Road, Sale", "postcode": "M33 4RZ", "telephone": 1619737956.0, "website": "http:\/\/www.limetreehouse.org.uk", "area_name": "Trafford", "area_code": "E0800009" }, "geometry": { "type": "Point", "coordinates": [ -2.335899, 53.416537 ] } },
{ "type": "Feature", "properties": { "name": "Headonhey", "type": "Residential homes", "address": "34 Harboro Road, Sale", "postcode": "M33 5AH", "telephone": 1619693527.0, "website": "http:\/\/www.stockdales.org.uk", "area_name": "Trafford", "area_code": "E0800009" }, "geometry": { "type": "Point", "coordinates": [ -2.337812, 53.422473 ] } },
{ "type": "Feature", "properties": { "name": "Hayling Road", "type": "Residential homes", "address": "34 Hayling Road, Sale", "postcode": "M33 6GW", "telephone": 1619734306.0, "website": "http:\/\/www.stockdales.org.uk", "area_name": "Trafford", "area_code": "E0800009" }, "geometry": { "type": "Point", "coordinates": [ -2.341116, 53.425394 ] } },
{ "type": "Feature", "properties": { "name": "Ashton Lane", "type": "Residential homes", "address": "47 Ashton Lane, Sale", "postcode": "M33 5PA", "telephone": 1619620978.0, "website": "http:\/\/www.stockdales.org.uk", "area_name": "Trafford", "area_code": "E0800009" }, "geometry": { "type": "Point", "coordinates": [ -2.332693, 53.425957 ] } },
{ "type": "Feature", "properties": { "name": "Wyncourt Nursing Home", "type": "Nursing homes", "address": "162 Park Road, Timperley, Altrincham", "postcode": "WA15 6QH", "telephone": 1619621290.0, "website": "http:\/\/www.wyncourtnursinghome.co.uk", "area_name": "Trafford", "area_code": "E0800009" }, "geometry": { "type": "Point", "coordinates": [ -2.331149, 53.401593 ] } },
{ "type": "Feature", "properties": { "name": "Heathside Retirement Home", "type": "Residential homes", "address": "74 Barrington Road, Altrincham", "postcode": "WA14 1JB", "telephone": 1619413622.0, "website": null, "area_name": "Trafford", "area_code": "E0800009" }, "geometry": { "type": "Point", "coordinates": [ -2.35098, 53.395191 ] } },
{ "type": "Feature", "properties": { "name": "Handsworth", "type": "Residential homes", "address": "West Road, Bowdon, Altrincham", "postcode": "WA14 2LA", "telephone": 1619285314.0, "website": "http:\/\/www.mha.org.uk\/ch15.aspx", "area_name": "Trafford", "area_code": "E0800009" }, "geometry": { "type": "Point", "coordinates": [ -2.360602, 53.377131 ] } },
{ "type": "Feature", "properties": { "name": "SignHealth Bowfell Road", "type": "Residential homes", "address": "SignHealth, 100 Bowfell Road, Urmston, Manchester", "postcode": "M41 5RR", "telephone": 1617478156.0, "website": "http:\/\/www.signhealth.org.uk", "area_name": "Trafford", "area_code": "E0800009" }, "geometry": { "type": "Point", "coordinates": [ -2.370201, 53.451021 ] } },
{ "type": "Feature", "properties": { "name": "Bange Nursing Homes Limited t\/a Bradley House Nursing Home", "type": "Nursing homes", "address": "2 Brooklands Crescent, Sale", "postcode": "M33 3NB", "telephone": 1619732580.0, "website": "http:\/\/www.bangenursinghomes.com", "area_name": "Trafford", "area_code": "E0800009" }, "geometry": { "type": "Point", "coordinates": [ -2.322919, 53.417047 ] } },
{ "type": "Feature", "properties": { "name": "Shawe House", "type": "Nursing homes", "address": "Pennybridge Lane, Flixton, Manchester", "postcode": "M41 5DX", "telephone": 1617487867.0, "website": null, "area_name": "Trafford", "area_code": "E0800009" }, "geometry": { "type": "Point", "coordinates": [ -2.373763, 53.446768 ] } },
{ "type": "Feature", "properties": { "name": "The Coppice", "type": "Residential homes", "address": "51 Wellington Road, Altrincham", "postcode": "WA15 7RQ", "telephone": 1619294178.0, "website": "http:\/\/www.efitzroy.org.uk", "area_name": "Trafford", "area_code": "E0800009" }, "geometry": { "type": "Point", "coordinates": [ -2.336017, 53.39518 ] } },
{ "type": "Feature", "properties": { "name": "Prema Court", "type": "Nursing homes", "address": "Clifton Court, Ayres Road, Manchester", "postcode": "M16 7NX", "telephone": 1612267698.0, "website": "http:\/\/www.deepdenecare.org", "area_name": "Trafford", "area_code": "E0800009" }, "geometry": { "type": "Point", "coordinates": [ -2.258786, 53.460422 ] } },
{ "type": "Feature", "properties": { "name": "Norton Street", "type": "Residential homes", "address": "28 Norton Street, Old Trafford, Manchester", "postcode": "M16 7GQ", "telephone": 1612262979.0, "website": "http:\/\/www.deepdenecare.org", "area_name": "Trafford", "area_code": "E0800009" }, "geometry": { "type": "Point", "coordinates": [ -2.263454, 53.457733 ] } },
{ "type": "Feature", "properties": { "name": "Beverley Park Nursing Home", "type": "Nursing homes", "address": "22 Sandy Lane, Stretford, Manchester", "postcode": "M32 9DA", "telephone": 1618651883.0, "website": null, "area_name": "Trafford", "area_code": "E0800009" }, "geometry": { "type": "Point", "coordinates": [ -2.319437, 53.44433 ] } },
{ "type": "Feature", "properties": { "name": "The Knoll", "type": "Residential homes", "address": "109 Church Road, Urmston, Manchester", "postcode": "M41 9FJ", "telephone": 1617553818.0, "website": null, "area_name": "Trafford", "area_code": "E0800009" }, "geometry": { "type": "Point", "coordinates": [ -2.361556, 53.445324 ] } },
{ "type": "Feature", "properties": { "name": "The Fairways", "type": "Residential homes", "address": "269 Church Road, Urmston, Manchester", "postcode": "M41 6EP", "telephone": 1617468160.0, "website": "http:\/\/www.knollcarepartnership.co.uk\/the-fairways", "area_name": "Trafford", "area_code": "E0800009" }, "geometry": { "type": "Point", "coordinates": [ -2.375405, 53.441659 ] } },
{ "type": "Feature", "properties": { "name": "The Cedars Rest Home Limited", "type": "Residential homes", "address": "23 Langham Road, Bowdon, Altrincham", "postcode": "WA14 2HX", "telephone": 1619284361.0, "website": "http:\/\/www.caringuk.com", "area_name": "Trafford", "area_code": "E0800009" }, "geometry": { "type": "Point", "coordinates": [ -2.355688, 53.375572 ] } },
{ "type": "Feature", "properties": { "name": "Kara House Residential Care Home", "type": "Residential homes", "address": "29 Harboro Road, Sale", "postcode": "M33 5AN", "telephone": 1619693393.0, "website": null, "area_name": "Trafford", "area_code": "E0800009" }, "geometry": { "type": "Point", "coordinates": [ -2.338593, 53.422228 ] } },
{ "type": "Feature", "properties": { "name": "Lynwood Lodge Residential Care Home", "type": "Residential homes", "address": "20-22 Broad Road, Sale", "postcode": "M33 2AL", "telephone": 1619737210.0, "website": "http:\/\/www.excelsiacare.co.uk", "area_name": "Trafford", "area_code": "E0800009" }, "geometry": { "type": "Point", "coordinates": [ -2.315949, 53.424654 ] } },
{ "type": "Feature", "properties": { "name": "Ann Challis", "type": "Residential homes", "address": "128 Stretford Road, Urmston, Manchester", "postcode": "M41 9LT", "telephone": 1617483597.0, "website": "http:\/\/www.jemcareltd.co.uk", "area_name": "Trafford", "area_code": "E0800009" }, "geometry": { "type": "Point", "coordinates": [ -2.342776, 53.446521 ] } },
{ "type": "Feature", "properties": { "name": "Woodend Care Home", "type": "Nursing homes", "address": "Bradgate Road, Altrincham", "postcode": "WA14 4QU", "telephone": 1619295127.0, "website": null, "area_name": "Trafford", "area_code": "E0800009" }, "geometry": { "type": "Point", "coordinates": [ -2.373015, 53.388832 ] } },
{ "type": "Feature", "properties": { "name": "Beckdale House", "type": "Residential homes", "address": "3 Beaufort Road, Sale", "postcode": "M33 3WR", "telephone": 1619739393.0, "website": "http:\/\/www.milewood.co.uk", "area_name": "Trafford", "area_code": "E0800009" }, "geometry": { "type": "Point", "coordinates": [ -2.315423, 53.416629 ] } },
{ "type": "Feature", "properties": { "name": "Syrian House", "type": "Residential homes", "address": "Sandiway Road, Ashton-on-Mersey, Sale", "postcode": "M33 5AL", "telephone": 1925571680.0, "website": "http:\/\/www.makingspace.co.uk", "area_name": "Trafford", "area_code": "E0800009" }, "geometry": { "type": "Point", "coordinates": [ -2.337394, 53.422933 ] } },
{ "type": "Feature", "properties": { "name": "Faversham House Nursing Home", "type": "Nursing homes", "address": "59 Church Road, Urmston, Manchester", "postcode": "M41 9EJ", "telephone": 1617485998.0, "website": null, "area_name": "Trafford", "area_code": "E0800009" }, "geometry": { "type": "Point", "coordinates": [ -2.358775, 53.445818 ] } },
{ "type": "Feature", "properties": { "name": "Springfield House", "type": "Residential homes", "address": "57 Warburton Lane, Partington, Manchester", "postcode": "M31 4NL", "telephone": 1617761757.0, "website": "http:\/\/www.fairfieldresidential.co.uk", "area_name": "Trafford", "area_code": "E0800009" }, "geometry": { "type": "Point", "coordinates": [ -2.430075, 53.417053 ] } },
{ "type": "Feature", "properties": { "name": "De Brook Lodge", "type": "Residential homes", "address": "110 Irlam Road, Flixton, Manchester", "postcode": "M41 6NA", "telephone": 1617485403.0, "website": "http:\/\/www.idealcarehomes.co.uk", "area_name": "Trafford", "area_code": "E0800009" }, "geometry": { "type": "Point", "coordinates": [ -2.393185, 53.448253 ] } },
{ "type": "Feature", "properties": { "name": "Haylands Residential Home for Gentlemen", "type": "Residential homes", "address": "93 Crofts Bank Road, Urmston, Manchester", "postcode": "M41 0US", "telephone": 1617498887.0, "website": "http:\/\/www.jemcareltd.co.uk", "area_name": "Trafford", "area_code": "E0800009" }, "geometry": { "type": "Point", "coordinates": [ -2.355098, 53.452669 ] } },
{ "type": "Feature", "properties": { "name": "Norwood Drive", "type": "Residential homes", "address": "2 Norwood Drive, Timperley, Altrincham", "postcode": "WA15 7LD", "telephone": 1619049228.0, "website": null, "area_name": "Trafford", "area_code": "E0800009" }, "geometry": { "type": "Point", "coordinates": [ -2.306023, 53.389975 ] } },
{ "type": "Feature", "properties": { "name": "Manorhey Care Centre", "type": "Nursing homes", "address": "130 Stretford Road, Urmston, Manchester", "postcode": "M41 9LT", "telephone": 1617476888.0, "website": null, "area_name": "Trafford", "area_code": "E0800009" }, "geometry": { "type": "Point", "coordinates": [ -2.342776, 53.446521 ] } },
{ "type": "Feature", "properties": { "name": "Allingham House Care Centre", "type": "Nursing homes", "address": "Deansgate Lane, Timperley, Altrincham", "postcode": "WA15 6SQ", "telephone": 1619291783.0, "website": null, "area_name": "Trafford", "area_code": "E0800009" }, "geometry": { "type": "Point", "coordinates": [ -2.341537, 53.399099 ] } },
{ "type": "Feature", "properties": { "name": "Yew Tree", "type": "Residential homes", "address": "Fairy Lane, Sale, Trafford", "postcode": "M33 2JT", "telephone": 1619739616.0, "website": null, "area_name": "Trafford", "area_code": "E0800009" }, "geometry": { "type": "Point", "coordinates": [ -2.285748, 53.420443 ] } },
{ "type": "Feature", "properties": { "name": "York Lodge Residential Home", "type": "Residential homes", "address": "54-56 Crofts Bank Road, Urmston, Manchester", "postcode": "M41 0UH", "telephone": 1617482315.0, "website": null, "area_name": "Trafford", "area_code": "E0800009" }, "geometry": { "type": "Point", "coordinates": [ -2.353157, 53.451048 ] } },
{ "type": "Feature", "properties": { "name": "Ascot House", "type": "Residential homes", "address": "Ascot Ave, Sale, Manchester", "postcode": "M33 4GT", "telephone": 1619620996.0, "website": null, "area_name": "Trafford", "area_code": "E0800009" }, "geometry": { "type": "Point", "coordinates": [ -2.355164, 53.417245 ] } },
{ "type": "Feature", "properties": { "name": "Cheshire House", "type": "Nursing homes", "address": "22 St Marys Road, Sale", "postcode": "M33 6SA", "telephone": 1619051228.0, "website": "http:\/\/www.consensussupport.com", "area_name": "Trafford", "area_code": "E0800009" }, "geometry": { "type": "Point", "coordinates": [ -2.332335, 53.424403 ] } },
{ "type": "Feature", "properties": { "name": "Mayfield Care Home", "type": "Residential homes", "address": "Beaufort Road, Sale", "postcode": "M33 3WR", "telephone": 1619732371.0, "website": null, "area_name": "Trafford", "area_code": "E0800009" }, "geometry": { "type": "Point", "coordinates": [ -2.315423, 53.416629 ] } },
{ "type": "Feature", "properties": { "name": "Sunrise of Hale Barns", "type": "Residential homes", "address": "295 Hale Road, Hale Barns, Altrincham", "postcode": "WA15 8SN", "telephone": 1619809500.0, "website": "http:\/\/www.sunrise-care.co.uk", "area_name": "Trafford", "area_code": "E0800009" }, "geometry": { "type": "Point", "coordinates": [ -2.316703, 53.37249 ] } },
{ "type": "Feature", "properties": { "name": "Four Oaks Care Home", "type": "Nursing homes", "address": "28 Wood Lane, Partington, Manchester", "postcode": "M31 4LX", "telephone": 1613593983.0, "website": null, "area_name": "Trafford", "area_code": "E0800009" }, "geometry": { "type": "Point", "coordinates": [ -2.432407, 53.415534 ] } },
{ "type": "Feature", "properties": { "name": "EAM House", "type": "Nursing homes", "address": "Manchester Road, Partington, Manchester", "postcode": "M31 4DJ", "telephone": 1617778511.0, "website": "http:\/\/www.eamcaregroup.co.uk", "area_name": "Trafford", "area_code": "E0800009" }, "geometry": { "type": "Point", "coordinates": [ -2.421986, 53.420801 ] } },
{ "type": "Feature", "properties": { "name": "EAM Lodge (Trafford)", "type": "Nursing homes", "address": "46 Manchester Road, Partington, Manchester", "postcode": "M31 4DJ", "telephone": 1617778511.0, "website": "http:\/\/www.eamcaregroup.co.uk", "area_name": "Trafford", "area_code": "E0800009" }, "geometry": { "type": "Point", "coordinates": [ -2.421986, 53.420801 ] } },
{ "type": "Feature", "properties": { "name": "Ferrol Lodge", "type": "Residential homes", "address": "49 Northenden Road, Sale", "postcode": "M33 2DL", "telephone": 1619624056.0, "website": null, "area_name": "Trafford", "area_code": "E0800009" }, "geometry": { "type": "Point", "coordinates": [ -2.313983, 53.423392 ] } },
{ "type": "Feature", "properties": { "name": "Flixton Manor", "type": "Nursing homes", "address": "2-8 Delamere Road, Urmston, Manchester", "postcode": "M41 5QL", "telephone": 1617467175.0, "website": "http:\/\/www.flixtonmanor.com", "area_name": "Trafford", "area_code": "E0800009" }, "geometry": { "type": "Point", "coordinates": [ -2.378333, 53.449209 ] } },
{ "type": "Feature", "properties": { "name": "Timperley Care Home", "type": "Nursing homes", "address": "53d Mainwood Road, Timperley, Altrincham", "postcode": "WA15 7JW", "telephone": 1619808001.0, "website": null, "area_name": "Trafford", "area_code": "E0800009" }, "geometry": { "type": "Point", "coordinates": [ -2.312943, 53.392375 ] } },
{ "type": "Feature", "properties": { "name": "Cliffemount Community Care", "type": "Residential homes", "address": "411 Hale Road, Hale Barns, Altrincham", "postcode": "WA15 8XU", "telephone": null, "website": null, "area_name": "Trafford", "area_code": "E0800009" }, "geometry": { "type": "Point", "coordinates": [ -2.299064, 53.364742 ] } },
{ "type": "Feature", "properties": { "name": "Ashlands manor Care Centre", "type": "Nursing homes|Residential homes", "address": "2 Ashlands, Sale", "postcode": "M33 5PD", "telephone": 1619050760.0, "website": "http:\/\/www.newcarehomes.com", "area_name": "Trafford", "area_code": "E0800009" }, "geometry": { "type": "Point", "coordinates": [ -2.331857, 53.424863 ] } },
{ "type": "Feature", "properties": { "name": "Sunrise of Hale Barns", "type": "Residential homes", "address": "295 Hale Road, Hale Barns, Altrincham", "postcode": "WA15 8SN", "telephone": 1619809500.0, "website": "http:\/\/www.sunrise.care.co.uk", "area_name": "Trafford", "area_code": "E0800009" }, "geometry": { "type": "Point", "coordinates": [ -2.316703, 53.37249 ] } },
{ "type": "Feature", "properties": { "name": "Oldfield Bank Residential Care Home", "type": "Residential homes", "address": "5 Highgate Road, Altrincham", "postcode": "WA14 4QZ", "telephone": 1619280658.0, "website": null, "area_name": "Trafford", "area_code": "E0800009" }, "geometry": { "type": "Point", "coordinates": [ -2.364967, 53.388317 ] } },
{ "type": "Feature", "properties": { "name": "Serendipity Home", "type": "Nursing homes", "address": "Greenfield Avenue, Urmston, Manchester", "postcode": "M41 0XN", "telephone": 1617473738.0, "website": null, "area_name": "Trafford", "area_code": "E0800009" }, "geometry": { "type": "Point", "coordinates": [ -2.351358, 53.450235 ] } },
{ "type": "Feature", "properties": { "name": "Claremont Care Home", "type": "Residential homes", "address": "254-256 Washway Road, Sale", "postcode": "M33 4RZ", "telephone": 1619737130.0, "website": null, "area_name": "Trafford", "area_code": "E0800009" }, "geometry": { "type": "Point", "coordinates": [ -2.335899, 53.416537 ] } },
{ "type": "Feature", "properties": { "name": "Meade Close", "type": "Residential homes", "address": "1-2 Meade Close, Urmston, Manchester", "postcode": "M41 5BL", "telephone": 1617468313.0, "website": "http:\/\/www.salutemhealthcareltd.com", "area_name": "Trafford", "area_code": "E0800009" }, "geometry": { "type": "Point", "coordinates": [ -2.362477, 53.447434 ] } },
{ "type": "Feature", "properties": { "name": "10 Spennithorne Road", "type": "Residential homes", "address": "10 Spennithorne Road, Urmston, Manchester", "postcode": "M41 5BU", "telephone": 1617486414.0, "website": null, "area_name": "Trafford", "area_code": "E0800009" }, "geometry": { "type": "Point", "coordinates": [ -2.365264, 53.447614 ] } },
{ "type": "Feature", "properties": { "name": "Creative Support - Trafford Respite Service", "type": "Residential homes", "address": "10 Shawe Road, Flixton, Trafford", "postcode": "M41 5DL", "telephone": 1617483562.0, "website": "http:\/\/www.creativesupport.co.uk", "area_name": "Trafford", "area_code": "E0800009" }, "geometry": { "type": "Point", "coordinates": [ -2.371364, 53.44782 ] } },
{ "type": "Feature", "properties": { "name": "Northenden House", "type": "Nursing homes", "address": "448 Northenden Road, Sale", "postcode": "M33 2RB", "telephone": 1619626660.0, "website": null, "area_name": "Trafford", "area_code": "E0800009" }, "geometry": { "type": "Point", "coordinates": [ -2.289269, 53.415913 ] } },
{ "type": "Feature", "properties": { "name": "Urmston Manor", "type": "Residential homes", "address": "61-63, Church Road, Urmston, Manchester", "postcode": "M41 9EJ", "telephone": 7429340652.0, "website": null, "area_name": "Trafford", "area_code": "E0800009" }, "geometry": { "type": "Point", "coordinates": [ -2.358775, 53.445818 ] } },
{ "type": "Feature", "properties": { "name": "Brookfield Nursing Home", "type": "Nursing homes", "address": "71 Crofts Bank Road, Urmston, Manchester", "postcode": "M41 0UB", "telephone": 1617475365.0, "website": "http:\/\/www.brookfieldnursinghome.com", "area_name": "Trafford", "area_code": "E0800009" }, "geometry": { "type": "Point", "coordinates": [ -2.354257, 53.451126 ] } },
{ "type": "Feature", "properties": { "name": "Harboro", "type": "Residential homes", "address": "34 Harboro Road, Sale", "postcode": "M33 5AH", "telephone": 1619732296.0, "website": "http:\/\/www.stockdales.org.uk", "area_name": "Trafford", "area_code": "E0800009" }, "geometry": { "type": "Point", "coordinates": [ -2.337812, 53.422473 ] } }
]
}
