{
"type": "FeatureCollection",
"crs": { "type": "name", "properties": { "name": "urn:ogc:def:crs:OGC:1.3:CRS84" } },
"features": [
{ "type": "Feature", "properties": { "name": "Baguley SureStart Centre", "address": "Ackworth Drive, Baguley, Manchester", "postcode": "M23 1LB", "contact": "0161 227 3477 \/ baguley.sscc@manchester.gov.uk", "website": "https:\/\/hsm.manchester.gov.uk\/kb5\/manchester\/directory\/service.page?id=cym_FYfIik8&directorychannel=1-2-4", "referral_method": "For families with young children", "opening_times": "Monday - Friday 8am - 4pm. Please ring.", "precision": "Address and postcode" }, "geometry": { "type": "Point", "coordinates": [ -2.2847374, 53.3939608 ] } },
{ "type": "Feature", "properties": { "name": "Boaz Trust", "address": "First Floor, 110 Oldham Road, Manchester", "postcode": "M4 6AG", "contact": "info@boaztrust.org.uk", "website": "www.boaztrust.org.uk", "referral_method": "Food parcel or £10\/week", "opening_times": "Not known", "precision": "Address and postcode" }, "geometry": { "type": "Point", "coordinates": [ -2.251148, 53.460488 ] } },
{ "type": "Feature", "properties": { "name": "Booth Centre", "address": "Edward Holt House, Pimblett Street, Manchester", "postcode": "M3 1FU", "contact": "admin@boothcentre.org.uk", "website": "http:\/\/www.boothcentre.org.uk\/", "referral_method": "Meals only", "opening_times": "Food served daily 9am - 1:30pm", "precision": "Address and postcode" }, "geometry": { "type": "Point", "coordinates": [ -2.2437818, 53.490533199999987 ] } },
{ "type": "Feature", "properties": { "name": "Brooklands SureStart Children's Centre", "address": "Sandilands School, Wendover Road, Brooklands, Manchester", "postcode": "M23 9JX", "contact": "nikki.somerville@barnardos.org.uk", "website": "https:\/\/hsm.manchester.gov.uk\/kb5\/manchester\/directory\/service.page?id=ZvxLzyU_ihk", "referral_method": "First come first served", "opening_times": "Not known", "precision": "Address and postcode" }, "geometry": { "type": "Point", "coordinates": [ -2.3077914, 53.4031145 ] } },
{ "type": "Feature", "properties": { "name": "Caritas Diocese of Salford", "address": "104b Denmark Road, Manchester", "postcode": "M15 6JS", "contact": "Not known", "website": "http:\/\/www.cornerstonecds.org.uk\/", "referral_method": "Food & drink available", "opening_times": "Monday - Friday 10:30am - 4pm", "precision": "Address and postcode" }, "geometry": { "type": "Point", "coordinates": [ -2.2409265, 53.460924899999988 ] } },
{ "type": "Feature", "properties": { "name": "Lalley Centre, part of Caritas Diocese of Salford", "address": "Lalley Centre, Basement of St Malachy's RC Primary School, Eggington Street, Collyhurst, Manchester", "postcode": "M40 7RG", "contact": "lalleycentre@caritassalford.org.uk", "website": "http:\/\/www.caritassalford.org.uk\/community-resource-centres\/lalley-community-centre\n", "referral_method": "Self referral for food bank (assessment of circumstances will be made)\nReferral by agencies for emergency food parcels\n", "opening_times": "Food Bank – Wednesdays 10am – 12 noon\nEmergency Food Parcels – most days via phone when staff are available.", "precision": "Address and postcode" }, "geometry": { "type": "Point", "coordinates": [ -2.2225119, 53.4981419 ] } },
{ "type": "Feature", "properties": { "name": "Chadderton Community Church", "address": "Garforth Street, Chadderton", "postcode": "OL9 6RW", "contact": "07842 207 498", "website": "http:\/\/www.chaddertoncommunity.org.uk\/fare-share\/", "referral_method": "Free refreshment & food parcel", "opening_times": "Tuesdays 11am - 1pm", "precision": "Address and postcode" }, "geometry": { "type": "Point", "coordinates": [ -2.1354819, 53.546933499999987 ] } },
{ "type": "Feature", "properties": { "name": "Chelwood Foodbank Plus", "address": "Rev320 Charity Shop, 22 St Petersgate, Stockport", "postcode": "SK1 1HD", "contact": "Not known", "website": "http:\/\/www.chelwoodfoodbankplus.org\/opening-times\/", "referral_method": "Not known", "opening_times": "Friday 2pm - 4.30pm", "precision": "Address and postcode" }, "geometry": { "type": "Point", "coordinates": [ -2.1786537, 53.386962 ] } },
{ "type": "Feature", "properties": { "name": "Chelwood Foodbank Plus", "address": "Brinnington Community Church, Northumberland Road, Brinnington, Stockport", "postcode": "SK5 8LS", "contact": "info@chelwoodfoodbankplus.org", "website": "http:\/\/www.chelwoodfoodbankplus.org\/opening-times\/", "referral_method": "Not known", "opening_times": "Wed 1pm - 3pm", "precision": "Address and postcode" }, "geometry": { "type": "Point", "coordinates": [ -2.1381984, 53.430633 ] } },
{ "type": "Feature", "properties": { "name": "Chelwood Foodbank Plus", "address": "Chelwood Baptist Church, Adswood Road, Cheadle Hulme, Stockport", "postcode": "SK8 5QA", "contact": "info@chelwoodfoodbankplus.org", "website": "http:\/\/www.chelwoodfoodbankplus.org\/opening-times\/", "referral_method": "Not known", "opening_times": "Tues\/Weds 10am - 12pm. Thurs 10am - 2pm", "precision": "Address and postcode" }, "geometry": { "type": "Point", "coordinates": [ -2.1786537, 53.386962 ] } },
{ "type": "Feature", "properties": { "name": "Christ the Vine Ministries", "address": "Park View, Harpurhey Road, Rochdale Manchester", "postcode": "M9 5TF", "contact": "0790 383 3949", "website": "http:\/\/christthevine.weebly.com\/about.html", "referral_method": "Not known", "opening_times": "Weds 12-2pm", "precision": "Address and postcode" }, "geometry": { "type": "Point", "coordinates": [ -2.2184251, 53.5033901 ] } },
{ "type": "Feature", "properties": { "name": "Christchurch Church Hall", "address": "Block Lane, Chadderton", "postcode": "OL9 7QB", "contact": "Not known", "website": "http:\/\/streetskitchen.co.uk\/?page_id=1072", "referral_method": "Not known", "opening_times": "Food Store is open Monday - Friday 10am - 12pm.", "precision": "Address and postcode" }, "geometry": { "type": "Point", "coordinates": [ -2.1392299, 53.533259 ] } },
{ "type": "Feature", "properties": { "name": "Christian Restoration Manchester", "address": "125-133 Pollard Street, Ancoats, Manchester", "postcode": "M4 7JB", "contact": "crm.manchester@gmail.com", "website": "http:\/\/crm-manchester.org\/", "referral_method": "Not known", "opening_times": "Tuesday 6pm - 8pm and Sunday 3pm - 5pm", "precision": "Address and postcode" }, "geometry": { "type": "Point", "coordinates": [ -2.2157519, 53.4832037 ] } },
{ "type": "Feature", "properties": { "name": "East Oldham Methodist Church", "address": "Collett Street, Off Ripponden Road, Oldham", "postcode": "OL1 4HP", "contact": "Not known", "website": "http:\/\/eastoldhamchurch.weebly.com\/community-involvement.html", "referral_method": "Local families", "opening_times": "Contact for details", "precision": "Address and postcode" }, "geometry": { "type": "Point", "coordinates": [ -2.0878016, 53.5500222 ] } },
{ "type": "Feature", "properties": { "name": "Emmeline's Pantry Parlour", "address": "The Pankhurst Centre, 60 - 62 Nelson Street, Manchester", "postcode": "M13 9WP", "contact": "0161 273 5673", "website": "https:\/\/www.facebook.com\/Emellines\/", "referral_method": "Referral", "opening_times": "Wednesday 11am - 1pm", "precision": "Address and postcode" }, "geometry": { "type": "Point", "coordinates": [ -2.2273636, 53.4631644 ] } },
{ "type": "Feature", "properties": { "name": "FoodCycle Manchester", "address": "The Roby, 307 Dickenson Road, Longsight, Manchester", "postcode": "M13 0NG", "contact": "manchester@foodcycle.org.uk", "website": "http:\/\/foodcycle.org.uk\/location\/manchester\/", "referral_method": "Cooked meal only", "opening_times": "Wednesday 7:30pm", "precision": "Address and postcode" }, "geometry": { "type": "Point", "coordinates": [ -2.205912, 53.4552679 ] } },
{ "type": "Feature", "properties": { "name": "George House Trust", "address": "75 - 77 Ardwick Green North, Manchester", "postcode": "M12 6FX", "contact": "info@ght.org.uk", "website": "http:\/\/www.ght.org.uk\/food-parcel-scheme", "referral_method": "Food & supplies to knowns only", "opening_times": "N\/A", "precision": "Address and postcode" }, "geometry": { "type": "Point", "coordinates": [ -2.2222147, 53.471336099999988 ] } },
{ "type": "Feature", "properties": { "name": "Harpurhey Community Church", "address": "Christ Church, Harpurhey, Manchester", "postcode": "M9 5BG", "contact": "info@christchurchharpurhey.org", "website": "http:\/\/christchurchharpurhey.org\/  http:\/\/hcconline.org.uk\/theopendoor", "referral_method": "Open door", "opening_times": "Tuesday from 11am", "precision": "Address and postcode" }, "geometry": { "type": "Point", "coordinates": [ -2.2136561, 53.5115651 ] } },
{ "type": "Feature", "properties": { "name": "Heywood ST Vincent de Paul Society Food Bank", "address": "6 Bethel Street, Heywood", "postcode": "OL10 1HU", "contact": "O1706 369 777", "website": "http:\/\/svp.org.uk", "referral_method": "Assessment", "opening_times": "Appointment", "precision": "Address and postcode" }, "geometry": { "type": "Point", "coordinates": [ -121.187972, 45.603308 ] } },
{ "type": "Feature", "properties": { "name": "Hyde & District Fellowship of Churches", "address": "The Central Methodist Church, Crook Street, Hyde", "postcode": "SK14 1NQ", "contact": "O1613681392", "website": "https:\/\/www.facebook.com\/hdfc.foodbank.sk14\/", "referral_method": "Referral", "opening_times": "Mon 1-2pm Thurs 10-11am Sat 12- 1pm", "precision": "Address and postcode" }, "geometry": { "type": "Point", "coordinates": [ -97.2799967, 37.6889223 ] } },
{ "type": "Feature", "properties": { "name": "L'Chaim-Chabad", "address": "42 Singleton Road, Salford", "postcode": "M7 4LN", "contact": "foodbank@lchaim.org.uk", "website": "http:\/\/lchaimfoodbank.co.uk\/", "referral_method": "Not known", "opening_times": "Not known", "precision": "Address and postcode" }, "geometry": { "type": "Point", "coordinates": [ -2.2629755, 53.5158054 ] } },
{ "type": "Feature", "properties": { "name": "Manchester Buddhist Centre", "address": "16-20 Turner Street, Manchester", "postcode": "M4 1DZ", "contact": "mcrengagedbuddhists@yahoo.co.uk", "website": "http:\/\/www.manchesterbuddhistcentre.org.uk\/sangha\/events\/engaged-buddhists-food-bank-collection-starts.html", "referral_method": "Not known", "opening_times": "Not known", "precision": "Address and postcode" }, "geometry": { "type": "Point", "coordinates": [ -2.237737, 53.483695 ] } },
{ "type": "Feature", "properties": { "name": "MERCi", "address": "Bridge 5 Mill, 22a Beswick Street, Ancoats, Manchester", "postcode": "M4 7HR", "contact": "hello@herbie.org.uk", "website": "http:\/\/www.herbie.org.uk\/", "referral_method": "Not known", "opening_times": "Timetabled Route", "precision": "Address and postcode" }, "geometry": { "type": "Point", "coordinates": [ -2.2157354, 53.4837566 ] } },
{ "type": "Feature", "properties": { "name": "Mustard Tree", "address": "110 Oldham Road, Ancoats, Manchester", "postcode": "M4 6AG", "contact": "referrals@mustardtree.org.uk", "website": "http:\/\/www.mustardtree.org.uk\/", "referral_method": "Referral", "opening_times": "Weekdays and Saturdays 10am-4pm, except Thursdays 10am-12.30pm.\n\nFood Club membership: £2 for 10 items \/ Family food club membership £5 for 20 items - for people on pension or benefits.\n‘Approaching Crisis’ should be signposted to our Food Club and advised to bring proof of pension\/benefit status.\n‘In Crisis’ - Full referral for a food parcel via our website - www.mustardtree.org.uk - a hard copy given to the client plus emailed to us.\n.", "precision": "Address and postcode" }, "geometry": { "type": "Point", "coordinates": [ -2.2280649, 53.4863441 ] } },
{ "type": "Feature", "properties": { "name": "New Covenant Church", "address": "1 Matthews Lane, Ardwick, Manchester", "postcode": "M12 4WQ", "contact": "info@manchesterncc.org", "website": "http:\/\/manchesterncc.org\/", "referral_method": "Open door", "opening_times": "Tuesday 11am - 5pm", "precision": "Address and postcode" }, "geometry": { "type": "Point", "coordinates": [ -2.191128, 53.449344 ] } },
{ "type": "Feature", "properties": { "name": "New Longsight Housing Co-op", "address": "Studio 7 Longsight Business Park, Hamilton Road, Longsight, Manchester", "postcode": "M13 0PD", "contact": "0161 256 4226", "website": "https:\/\/nlhc.wordpress.com\/", "referral_method": "By appointment", "opening_times": "By appointment", "precision": "Address and postcode" }, "geometry": { "type": "Point", "coordinates": [ -2.2012279, 53.455470899999987 ] } },
{ "type": "Feature", "properties": { "name": "North Manchester Black Health Forum", "address": "Woodville Children's Centre, Shirley Road, Cheetham, Manchester", "postcode": "M8 0NE", "contact": "0161 720 9974", "website": "https:\/\/sites.google.com\/site\/nmblackhealth\/home", "referral_method": "Assessment", "opening_times": "Monday - Wednesday 12 - 2pm", "precision": "Address and postcode" }, "geometry": { "type": "Point", "coordinates": [ -2.2382592, 53.5089847 ] } },
{ "type": "Feature", "properties": { "name": "Northenden Sure Start Children's Centre", "address": "Sale Road, Northenden, Manchester", "postcode": "M23 0JX", "contact": "northenden.sscc@manchester.gov.uk", "website": "https:\/\/hsm.manchester.gov.uk\/kb5\/manchester\/directory\/service.page?id=eVvTdqxYgos&directorychannel=1-2-4", "referral_method": "Referral", "opening_times": "Not known", "precision": "Address and postcode" }, "geometry": { "type": "Point", "coordinates": [ -2.2789061, 53.4118838 ] } },
{ "type": "Feature", "properties": { "name": "Rainbow Christian Centre", "address": "29 Bronte Street, Hulme, Manchester", "postcode": "M15 6QL", "contact": "0161 865 2488", "website": "http:\/\/opencharities.org\/charities\/1043339", "referral_method": "Proof of circumstances", "opening_times": "Friday from 6pm", "precision": "Address and postcode" }, "geometry": { "type": "Point", "coordinates": [ -2.240232, 53.463247499999987 ] } },
{ "type": "Feature", "properties": { "name": "Rainbow Haven", "address": "St Paul & St John, 113 Abbey Hey Lane, Gorton, Manchester", "postcode": "M18 8TJ", "contact": "finance.rainbowhaven@yahoo.co.uk", "website": "http:\/\/www.rainbowhaven.org.uk", "referral_method": "Referral or self-refer", "opening_times": "Tuesday & Thursday 10am - 2pm", "precision": "Address and postcode" }, "geometry": { "type": "Point", "coordinates": [ -93.2125782, 45.0943868 ] } },
{ "type": "Feature", "properties": { "name": "Revive187", "address": "St Brigid's Parish Hall, Greymare Lane, Beswick, Manchester", "postcode": "M11 3ND", "contact": "info@revive-uk.org", "website": "http:\/\/www.revive-uk.org\/", "referral_method": "Open door", "opening_times": "Tuesday 11:30am - 4pm", "precision": "Address and postcode" }, "geometry": { "type": "Point", "coordinates": [ -2.1953547, 53.4780126 ] } },
{ "type": "Feature", "properties": { "name": "Salvation Army Atherton", "address": "George Street, Atherton, Manchester", "postcode": "M46 0EL", "contact": "mark.cotterill@salvationarmy.org.uk", "website": "http:\/\/www.salvationarmy.org.uk\/Atherton", "referral_method": "Not known", "opening_times": "Monday 12:30pm - 2pm", "precision": "Address and postcode" }, "geometry": { "type": "Point", "coordinates": [ -2.4905188, 53.5248129 ] } },
{ "type": "Feature", "properties": { "name": "Salvation Army Bolton Citadel", "address": "102 St George's Road, Bolton", "postcode": "BL1 2BZ", "contact": "bolton.citadel@salvationarmy.org.uk", "website": "http:\/\/www.salvationarmy.org.uk\/Bolton-Citadel", "referral_method": "Not known", "opening_times": "Wednesday 9:30am - 12noon", "precision": "Address and postcode" }, "geometry": { "type": "Point", "coordinates": [ -2.4336817, 53.5816503 ] } },
{ "type": "Feature", "properties": { "name": "Salvation Army Bury", "address": "18 Brookshaw Street, Bury", "postcode": "BL9 6EB", "contact": "bury@salvationarmy.org.uk", "website": "http:\/\/www.salvationarmy.org.uk\/Bury", "referral_method": "Not known", "opening_times": "Sunday 3pm - 6:30pm", "precision": "Address and postcode" }, "geometry": { "type": "Point", "coordinates": [ -2.2884282, 53.6009061 ] } },
{ "type": "Feature", "properties": { "name": "The Brick Food Bank", "address": "10 Arcade Street, Wigan", "postcode": "WN1 1LU", "contact": "enquiries@thebrick.org.uk", "website": "http:\/\/thebrick.org.uk\/", "referral_method": "Referral", "opening_times": "Appointment", "precision": "Address and postcode" }, "geometry": { "type": "Point", "coordinates": [ -2.631175, 53.544827 ] } },
{ "type": "Feature", "properties": { "name": "The Chatterbox Project & Joy Community Church", "address": "70 Booth Hall Road, Charlestown, Blackley, Manchester", "postcode": "M9 7BL", "contact": "info@chatterboxproject.org.uk", "website": "http:\/\/chatterboxproject.org.uk\/helping-hands\/", "referral_method": "Proof  of benefits required", "opening_times": "Mondays 1:30pm - 2:30pm + Bread Tues - Fri 2.30 - 3pm Local school term time only", "precision": "Address and postcode" }, "geometry": { "type": "Point", "coordinates": [ -2.192614, 53.5244236 ] } },
{ "type": "Feature", "properties": { "name": "The Oasis Centre", "address": "Collier House, Wellington Street, Gorton, Manchester", "postcode": "M18 8TX", "contact": "dushy.caldera@oasisgorton.org\n", "website": "http:\/\/oasisgorton.org\/needhelp\/", "referral_method": "Open door", "opening_times": "Monday - Thursdays 10am -2pm", "precision": "Address and postcode" }, "geometry": { "type": "Point", "coordinates": [ -2.1722614, 53.4644726 ] } },
{ "type": "Feature", "properties": { "name": "The River, Manchester", "address": "1300 Ashton Old Road, Openshaw, Manchester", "postcode": "M11 1JG", "contact": "referrals.therivermanchester@gmail.com", "website": "http:\/\/www.therivermanchester.org.uk\/food-parcels", "referral_method": "Referral or assessment", "opening_times": "Monday - Friday 12noon - 3pm", "precision": "Address and postcode" }, "geometry": { "type": "Point", "coordinates": [ -2.1630638, 53.4728526 ] } },
{ "type": "Feature", "properties": { "name": "The Welcome Project", "address": "Oldham Baptist Church, Chaucer Street, Oldham", "postcode": "OL1 1BA", "contact": "0161 624 1214", "website": "http:\/\/streetskitchen.co.uk\/?page_id=1072", "referral_method": "Evidence of asylum seeking", "opening_times": "Thursday 1pm - 3pm", "precision": "Address and postcode" }, "geometry": { "type": "Point", "coordinates": [ -2.1153154, 53.5385066 ] } },
{ "type": "Feature", "properties": { "name": "The Wellspring", "address": "Harvey Street, Stockport", "postcode": "SK1 1YD", "contact": "thewellspring@btconnect.com", "website": "http:\/\/www.thewellspring.btck.co.uk\/", "referral_method": "Not known", "opening_times": "Monday - Thursday 11:30am - 2pm and Monday - Thursday 5pm - 8pm", "precision": "Address and postcode" }, "geometry": { "type": "Point", "coordinates": [ -2.1548438, 53.4103638 ] } },
{ "type": "Feature", "properties": { "name": "Trussell Trust", "address": "Our Lady of Lourdes Parish Centre, 275 Plodder Lane, Farnworth, Bolton", "postcode": "BL4 0BR", "contact": "info@farnworthkearsley.foodbank.org.uk", "website": "http:\/\/farnworthkearsley.foodbank.org.uk\/", "referral_method": "Foodbank Voucher", "opening_times": "Monday 12noon - 2pm", "precision": "Address and postcode" }, "geometry": { "type": "Point", "coordinates": [ -2.3964103, 53.5513845 ] } },
{ "type": "Feature", "properties": { "name": "Trussell Trust", "address": "Manchester Universities' Catholic Chaplaincy, Avila House 335-337 Oxford Road, Manchester", "postcode": "M13 9PG", "contact": "info@manchestercentral.foodbank.org.uk", "website": "http:\/\/manchestercentral.foodbank.org.uk\/", "referral_method": "Foodbank Voucher", "opening_times": "Tuesday, Wednesday & Friday 10am - 12noon.", "precision": "Address and postcode" }, "geometry": { "type": "Point", "coordinates": [ -2.2315281, 53.4646759 ] } },
{ "type": "Feature", "properties": { "name": "Trussell Trust & Community Grocer", "address": "The Place M14, Platt Lane, Fallowfield, Manchester", "postcode": "M14 7FB", "contact": "info@fallowfieldwithington.foodbank.org.uk  https:\/\/www.facebook.com\/ThePlaceFallowfield\/", "website": "http:\/\/fallowfieldwithington.foodbank.org.uk  www.healthymehealthycommunities.co.uk\n", "referral_method": "Foodbank Voucher + Grocer providing £12 groceries for £2.50 membership for those within 15 minutes walking distance", "opening_times": "Foodbank: Wednesday 5 - 6.30pm  Grocer Friday 9.30am - 12 noon", "precision": "Address and postcode" }, "geometry": { "type": "Point", "coordinates": [ -1.8768419, 50.8810006 ] } },
{ "type": "Feature", "properties": { "name": "Trussell Trust", "address": "St Edmund's, Alexandra Road South, Whalley Range, Manchester", "postcode": "M16 8EZ", "contact": "info@manchestersouthcentral.foodbank.org.uk", "website": "http:\/\/manchestersouthcentral.foodbank.org.uk\/", "referral_method": "Foodbank Voucher", "opening_times": "Wednesday 1pm - 3pm", "precision": "Address and postcode" }, "geometry": { "type": "Point", "coordinates": [ -2.251874, 53.446782 ] } },
{ "type": "Feature", "properties": { "name": "Trussell Trust", "address": "St Bernard's Church Hall, Burnage Lane, Burnage, Manchester", "postcode": "M19 1DR", "contact": "info@burnage.foodbank.org.uk", "website": "http:\/\/burnage.foodbank.org.uk\/", "referral_method": "Foodbank Voucher", "opening_times": "Friday 3pm - 5pm", "precision": "Address and postcode" }, "geometry": { "type": "Point", "coordinates": [ -2.2006634, 53.43221 ] } },
{ "type": "Feature", "properties": { "name": "Trussell Trust", "address": "Christ Church Hall, Darley Avenue, West Didsbury, Manchester", "postcode": "M20 2ZD", "contact": "info@chorltondidsbury.foodbank.org.uk", "website": "http:\/\/chorltondidsbury.foodbank.org.uk\/", "referral_method": "Foodbank Voucher", "opening_times": "Wednesday 11am - 1pm", "precision": "Address and postcode" }, "geometry": { "type": "Point", "coordinates": [ -2.2566613, 53.423479699999987 ] } },
{ "type": "Feature", "properties": { "name": "Trussell Trust", "address": "St Cuthbert's Hall, 3 Palatine Road, Withington, Manchester", "postcode": "M20 3LH", "contact": "info@fallowfieldwithington.foodbank.org.uk", "website": "http:\/\/fallowfieldwithington.foodbank.org.uk\/", "referral_method": "Foodbank Voucher", "opening_times": "Tuesday 12noon - 2pm", "precision": "Address and postcode" }, "geometry": { "type": "Point", "coordinates": [ -2.2362155, 53.426105 ] } },
{ "type": "Feature", "properties": { "name": "Trussell Trust", "address": "St Barnabus, Hurstville Road, off Hardy Lane, Chorlton, Manchester", "postcode": "M21 8DH", "contact": "info@chorltondidsbury.foodbank.org.uk", "website": "http:\/\/chorltondidsbury.foodbank.org.uk\/", "referral_method": "Foodbank Voucher", "opening_times": "Friday 11am - 1pm", "precision": "Address and postcode" }, "geometry": { "type": "Point", "coordinates": [ -2.2379888, 53.4769804 ] } },
{ "type": "Feature", "properties": { "name": "Trussell Trust", "address": "Dandelion Community Centre, Oatlands Road, Wythenshawe, Manchester", "postcode": "M22 1AH", "contact": "info@wythenshawe.foodbank.org.uk", "website": "http:\/\/wythenshawe.foodbank.org.uk", "referral_method": "Foodbank Voucher", "opening_times": "Wed 11am - 2pm", "precision": "Address and postcode" }, "geometry": { "type": "Point", "coordinates": [ -2.2687994, 53.374799499999988 ] } },
{ "type": "Feature", "properties": { "name": "Trussell Trust", "address": "Food for Thought, St Luke's Church, Brownley Road, Benchill, Wythenshawe, Manchester", "postcode": "M22 4PT", "contact": "info@wythenshawe.foodbank.org.uk", "website": "http:\/\/wythenshawe.foodbank.org.uk", "referral_method": "Foodbank Voucher", "opening_times": "Fri 4.30 - 5.30pm Sat 10 - 11am", "precision": "Address and postcode" }, "geometry": { "type": "Point", "coordinates": [ -2.2557274, 53.3894729 ] } },
{ "type": "Feature", "properties": { "name": "Trussell Trust", "address": "Royal Oak Community Centre, Brookcot Road, Baguley, Wythenshawe, Manchester", "postcode": "M23 1DU", "contact": "info@wythenshawe.foodbank.org.uk", "website": "http:\/\/wythenshawe.foodbank.org.uk", "referral_method": "Foodbank Voucher", "opening_times": "Mon - Thu 10am - 3pm", "precision": "Address and postcode" }, "geometry": { "type": "Point", "coordinates": [ -2.3518881, 53.4024722 ] } },
{ "type": "Feature", "properties": { "name": "Trussell Trust", "address": "C-Saw, St Aidens' Centre, Wythenshawe Road, Wythenshawe, Manchester", "postcode": "M23 9DE", "contact": "info@wythenshawe.foodbank.org.uk", "website": "http:\/\/wythenshawe.foodbank.org.uk", "referral_method": "Foodbank Voucher", "opening_times": "Wed 12 - 3pm", "precision": "Address and postcode" }, "geometry": { "type": "Point", "coordinates": [ -2.2979645, 53.4066765 ] } },
{ "type": "Feature", "properties": { "name": "Trussell Trust", "address": "Unit S6b\/c Middleton Shopping Centre, Limetrees Road, Middleton", "postcode": "M24 4EL", "contact": "info@middletoncentral.foodbank.org.uk", "website": "http:\/\/middletoncentral.foodbank.org.uk\/", "referral_method": "Foodbank Voucher", "opening_times": "Monday and Thursday 11am - 1pm", "precision": "Address and postcode" }, "geometry": { "type": "Point", "coordinates": [ -2.201735, 53.548664 ] } },
{ "type": "Feature", "properties": { "name": "Trussell Trust", "address": "The Fuse ROC Centre, Warburton Lane, Partington, Manchester", "postcode": "M31 4BU", "contact": "info@traffordsouth.foodbank.org.uk", "website": "http:\/\/traffordsouth.foodbank.org.uk\/", "referral_method": "Foodbank Voucher", "opening_times": "Thursday 10:30am - 12:30pm", "precision": "Address and postcode" }, "geometry": { "type": "Point", "coordinates": [ -2.3518881, 53.4024722 ] } },
{ "type": "Feature", "properties": { "name": "Trussell Trust", "address": "St Francis Church, Budworth Road, Sale Moor, Manchester", "postcode": "M33 2RP", "contact": "info@traffordsouth.foodbank.org.uk", "website": "http:\/\/traffordsouth.foodbank.org.uk\/", "referral_method": "Foodbank Voucher", "opening_times": "Monday 12noon - 2pm", "precision": "Address and postcode" }, "geometry": { "type": "Point", "coordinates": [ -2.2971436, 53.415110299999988 ] } },
{ "type": "Feature", "properties": { "name": "Trussell Trust", "address": "St Mary's Church, Church Street, Droylesden, Manchester", "postcode": "M43 7BR", "contact": "info@droylsdendistrict.foodbank.org.uk", "website": "http:\/\/droylsdendistrict.foodbank.org.uk\/", "referral_method": "Foodbank Voucher", "opening_times": "Friday 12pm - 2pm", "precision": "Address and postcode" }, "geometry": { "type": "Point", "coordinates": [ -2.1435582, 53.4799417 ] } },
{ "type": "Feature", "properties": { "name": "Trussell Trust", "address": "Atherton Parish Church, St John the Baptist, Market Street, Atherton, Manchester", "postcode": "M46 0DD", "contact": "info@athertonleigh.foodbank.org.uk", "website": "http:\/\/athertonleigh.foodbank.org.uk\/", "referral_method": "Foodbank Voucher", "opening_times": "Wednesdays & Friday 1pm - 3pm", "precision": "Address and postcode" }, "geometry": { "type": "Point", "coordinates": [ -2.490125, 53.5238909 ] } },
{ "type": "Feature", "properties": { "name": "Trussell Trust", "address": "Mocha Parade Centre, Christ Central, Salford", "postcode": "M7 1QE", "contact": "info@salfordcentral.foodbank.org.uk", "website": "http:\/\/salfordcentral.foodbank.org.uk\/", "referral_method": "Foodbank Voucher", "opening_times": "Tuesdays & Fridays 1pm - 3pm", "precision": "Address and postcode" }, "geometry": { "type": "Point", "coordinates": [ -2.2606719, 53.4917119 ] } },
{ "type": "Feature", "properties": { "name": "Trussell Trust", "address": "Salvation Army. Shaw, Oldham", "postcode": "OL2 8QY", "contact": "andrew@oldham.foodbank.org.uk", "website": "http:\/\/oldham.foodbank.org.uk\/", "referral_method": "Foodbank Voucher", "opening_times": "Monday 11am - 2pm", "precision": "Address and postcode" }, "geometry": { "type": "Point", "coordinates": [ -2.1076775, 53.572099599999987 ] } },
{ "type": "Feature", "properties": { "name": "Trussell Trust", "address": "New Life Church, St James Street, Ashton-under-Lyne", "postcode": "OL6 6SF", "contact": "info@tamesideeast.foodbank.org.uk", "website": "http:\/\/tamesideeast.foodbank.org.uk\/", "referral_method": "Foodbank Voucher", "opening_times": "Thursday 1pm - 3pm", "precision": "Address and postcode" }, "geometry": { "type": "Point", "coordinates": [ -2.076105, 53.4860875 ] } },
{ "type": "Feature", "properties": { "name": "Trussell Trust", "address": "St Mary's Church, Market Street, Hollingworth", "postcode": "SK14 8NE", "contact": "info@tamesidesouthlongdendale.foodbank.org.uk", "website": "http:\/\/tamesidesouthlongdendale.foodbank.org.uk\/", "referral_method": "Foodbank Voucher", "opening_times": "Mon 11am - 12noon", "precision": "Address and postcode" }, "geometry": { "type": "Point", "coordinates": [ -1.9950361, 53.4610985 ] } },
{ "type": "Feature", "properties": { "name": "Trussell Trust", "address": "St Matthews, Dean Street, Stalybridge", "postcode": "SK15 2DJ", "contact": "info@tamesideeast.foodbank.org.uk", "website": "http:\/\/tamesideeast.foodbank.org.uk\/", "referral_method": "Foodbank Voucher", "opening_times": "Monday & Tuesday 11am - 1pm", "precision": "Address and postcode" }, "geometry": { "type": "Point", "coordinates": [ -2.0551906, 53.483196 ] } },
{ "type": "Feature", "properties": { "name": "Trussell Trust", "address": "St Johns, Vicarage Drive, Dukinfield", "postcode": "SK16 5HZ", "contact": "info@tamesideeast.foodbank.org.uk", "website": "http:\/\/tamesideeast.foodbank.org.uk\/", "referral_method": "Foodbank Voucher", "opening_times": "Friday 12noon - 2pm and Saturday 10am - 12noon", "precision": "Address and postcode" }, "geometry": { "type": "Point", "coordinates": [ -2.0724902, 53.4771394 ] } },
{ "type": "Feature", "properties": { "name": "Trussell Trust", "address": "Turn into Rupert St opposite Morrisons, Bairstow Centre is then set back on your right, Rupert Street, Reddish, Stockport", "postcode": "SK5 7AP", "contact": "foodbank@stockportfoodbank.org.uk", "website": "http:\/\/re-dish.org\/projects\/food-action\/", "referral_method": "Foodbank Voucher", "opening_times": "Thursdays & Saturdays 10:30am - 12:30pm", "precision": "Address and postcode" }, "geometry": { "type": "Point", "coordinates": [ -2.1622512, 53.4362982 ] } },
{ "type": "Feature", "properties": { "name": "Trussell Trust", "address": "St Mark's Church, Redhouse Lane, Stockport", "postcode": "SK6 1BX", "contact": "foodbank@stockportfoodbank.org.uk", "website": "http:\/\/stockport.foodbank.org.uk\/", "referral_method": "Foodbank Voucher", "opening_times": "Tuesday 12:30pm - 2:30pm", "precision": "Address and postcode" }, "geometry": { "type": "Point", "coordinates": [ -2.1052787, 53.4236599 ] } },
{ "type": "Feature", "properties": { "name": "Trussell Trust", "address": "Hazel Grove Baptist Church, Station Street, Hazel Grove, Stockport", "postcode": "SK7 4EX", "contact": "foodbank@stockportfoodbank.org.uk", "website": "http:\/\/stockport.foodbank.org.uk\/", "referral_method": "Foodbank Voucher", "opening_times": "Mon 12:30pm - 2:30pm, Wed 11am - 1pm and Fri 11:30am - 2:30pm", "precision": "Address and postcode" }, "geometry": { "type": "Point", "coordinates": [ -2.1216787, 53.378124199999988 ] } },
{ "type": "Feature", "properties": { "name": "Trussell Trust", "address": "Timperley Methodist Church, Stockport Road, Timperley", "postcode": "WA15 7UG", "contact": "info@traffordsouth.foodbank.org.uk", "website": "http:\/\/traffordsouth.foodbank.org.uk\/", "referral_method": "Foodbank Voucher", "opening_times": "Friday 10am - 12noon", "precision": "Address and postcode" }, "geometry": { "type": "Point", "coordinates": [ -2.3518881, 53.4024722 ] } },
{ "type": "Feature", "properties": { "name": "Trussell Trust", "address": "Kingsleigh Methodist Church, King Street, Leigh", "postcode": "WN7 4LR", "contact": "info@athertonleigh.foodbank.org.uk", "website": "http:\/\/athertonleigh.foodbank.org.uk\/", "referral_method": "Foodbank Voucher", "opening_times": "Monday & Tuesday 10am - 12noon", "precision": "Address and postcode" }, "geometry": { "type": "Point", "coordinates": [ -2.5198898, 53.4956869 ] } },
{ "type": "Feature", "properties": { "name": "Urban Outreach", "address": "Environ House, Salop Street, Bolton", "postcode": "BL2 1DZ", "contact": "01204 385 848", "website": "http:\/\/www.urbanoutreach.co.uk\/ \n", "referral_method": "Referral", "opening_times": "One morning per week", "precision": "Address and postcode" }, "geometry": { "type": "Point", "coordinates": [ -2.4231634, 53.5767803 ] } },
{ "type": "Feature", "properties": { "name": "Lifeshare Ltd", "address": "First Floor 27 Houldsworth Street", "postcode": "M1 1EB", "contact": "office@lifeshare.org.uk\n", "website": "http:\/\/www.lifeshare.org.uk\/\n", "referral_method": "Self referrals for 16-25 year olds wanting to engage further with our service.\nIf it is for food parcels only then it has to be agency referral. The parcel must be collected by a support\/agency worker if the recipient is over 25", "opening_times": "Mon-Fri 10am-4pm Food parcels", "precision": "Address and postcode" }, "geometry": { "type": "Point", "coordinates": [ -2.2316313, 53.4835765 ] } },
{ "type": "Feature", "properties": { "name": "Mottram St Pantry", "address": "Mottram Towers, Mottram Fold, Stockport", "postcode": "SK1 3NY", "contact": "pantry@stockporthomes.org", "website": "http:\/\/www.yourlocalpantry.co.uk\/\n", "referral_method": "Become a member: further information here http:\/\/your-local-pantry.beta.stockporthomes.org\/join-us\/become-a-member\/", "opening_times": "Thursday 3.30 - 5.30pm, Friday 10am - 12noon", "precision": "Address and postcode" }, "geometry": { "type": "Point", "coordinates": [ -2.1561039, 53.4056603 ] } },
{ "type": "Feature", "properties": { "name": "Penny Lane Pantry", "address": "Honover Towers, Lancashire Hill, Penny Lane, Stockport", "postcode": "SK5 7RJ", "contact": "pantry@stockporthomes.org", "website": "http:\/\/www.yourlocalpantry.co.uk\/\n", "referral_method": "Become a member: further information here http:\/\/your-local-pantry.beta.stockporthomes.org\/join-us\/become-a-member\/", "opening_times": "Tuesday 3.30 - 5.30pm Wednesday 10am - 12noon", "precision": "Address and postcode" }, "geometry": { "type": "Point", "coordinates": [ -2.1590183, 53.4160692 ] } },
{ "type": "Feature", "properties": { "name": "Pantry at No5", "address": "5 Cuddington Crescent, Bridgehall, Stockport", "postcode": "SK3 8LX", "contact": "pantry@stockporthomes.org", "website": "http:\/\/www.yourlocalpantry.co.uk\/\n", "referral_method": "Become a member - information here http:\/\/your-local-pantry.beta.stockporthomes.org\/join-us\/become-a-member\/\n", "opening_times": "Thursday 3.30 - 5.30pm Friday 10am - 12noon", "precision": "Address and postcode" }, "geometry": { "type": "Point", "coordinates": [ -2.1711033, 53.394742 ] } },
{ "type": "Feature", "properties": { "name": "The Globe: Old Trafford Pantry", "address": "79 Cornbrook Street Old Trafford Manchester", "postcode": "M16 7QB", "contact": "urchoice1@outlook.com", "website": "https:\/\/118aglobe.wordpress.com\/", "referral_method": "Not known", "opening_times": "Friday 2 - 4.30pm", "precision": "Address and postcode" }, "geometry": { "type": "Point", "coordinates": [ -2.260594, 53.462967799999987 ] } },
{ "type": "Feature", "properties": { "name": "Christian Restoration Manchester", "address": "451 Victoria Avenue, Blackley, Manchester, M9 8PJ  Please note the building is just inside the cemetary using the Victoria Road entrance not on the road as the postcode indicates.", "postcode": "M9 8PJ", "contact": "crm.manchester@gmail.com", "website": "www.crm-manchester.org", "referral_method": "Proof of benefits or referral from other organisations", "opening_times": "Tuesday 6:30pm to 8:30pm, Thursday 12pm to 3pm, Friday 7pm to 8pm. On Sunday @12pm to 3pm they offer tea, snacks  There are many other services available. Check out their website.", "precision": "Address and postcode" }, "geometry": { "type": "Point", "coordinates": [ -2.2260623, 53.5331753 ] } },
{ "type": "Feature", "properties": { "name": "Salford Unemployed & Community Resource Centre", "address": "84 - 86 Liverpool Road, Eccles", "postcode": "M30 0WZ", "contact": "secretary_stuc@hotmail.co.uk 0161 789 2999", "website": "http:\/\/www.salforducrc.co.uk\/index", "referral_method": "Not known", "opening_times": "Not known", "precision": "Address and postcode" }, "geometry": { "type": "Point", "coordinates": [ -2.3479098, 53.4833691 ] } },
{ "type": "Feature", "properties": { "name": "Ardwick & Longsight Food Bank", "address": "Transformation Community Resource Centre, 11 Richmond Grove, Longsight", "postcode": "M13 0LN", "contact": "0161 273 3977 (during opening hours)", "website": "www.ardwickandlongsightfoodbank.org.uk", "referral_method": "Proof of need and ID and referrals", "opening_times": "Open Monday 1-3pm, Thursday 2-4pm \nNot open on Bank Holidays", "precision": "Address and postcode" }, "geometry": { "type": "Point", "coordinates": [ -2.213649, 53.474967 ] } },
{ "type": "Feature", "properties": { "name": "Myriad Foundation", "address": "Weybrook Road, Levenshulme", "postcode": "M19 2QD", "contact": "info@myriadfoundation.org 07584634997", "website": "http:\/\/www.myriadfoundation.org\/", "referral_method": "Evidence of need", "opening_times": "Wednesday 7 - 9pm Saturday 12 - 3pm", "precision": "Address and postcode" }, "geometry": { "type": "Point", "coordinates": [ -2.1822076, 53.4342742 ] } },
{ "type": "Feature", "properties": { "name": "Reach out to the Community", "address": "Elliotts Fruit & Veg, Chorlton Precinct, Wilbraham Road, Chorlton", "postcode": "M21 9AQ", "contact": "07516161655\nreachoutcommunity@yahoo.com", "website": "not known", "referral_method": "For rough sleepers and local families", "opening_times": "Monday - Saturday 7.30am = 4.30pm", "precision": "Address and postcode" }, "geometry": { "type": "Point", "coordinates": [ -2.2790975, 53.4427678 ] } },
{ "type": "Feature", "properties": { "name": "Fountain Gate Chapel", "address": "Kingdom Mandate Centre, Chichester Road, Hulme", "postcode": "M15 5EU", "contact": "fgckmc@yahoo.com 0161 222 3032", "website": "Not known", "referral_method": "Call to refer a client", "opening_times": "Monday - Friday 11.30am - 2.30pm", "precision": "Address and postcode" }, "geometry": { "type": "Point", "coordinates": [ -2.2495156, 53.4640995 ] } },
{ "type": "Feature", "properties": { "name": "Befrienders", "address": "Methodist Central Hall, Oldham Street, Manchester", "postcode": "M1 1JQ", "contact": "admin@methodistcentralbuildings.org.uk 0161 236 1185", "website": "http:\/\/www.methodistcentralbuildings.org.uk\/", "referral_method": "Foodbank voucher", "opening_times": "Monday & Wednesday 2 - 4pm", "precision": "Address and postcode" }, "geometry": { "type": "Point", "coordinates": [ -2.235832, 53.4823192 ] } },
{ "type": "Feature", "properties": { "name": "Feed the 5000", "address": "Faith Life Centre, 5 Mary Street, Manchester", "postcode": "M3 1NH", "contact": "info@manchesterlifecentre.co.uk 0161 298 5123", "website": "http:\/\/manchesterlifecentre.co.uk\/cms\/", "referral_method": "People in crisis, once every 2 weeks", "opening_times": "Thursday 4 - 6pm Job Club Monday 1 - 2pm", "precision": "Address and postcode" }, "geometry": { "type": "Point", "coordinates": [ -2.2481744, 53.4887041 ] } },
{ "type": "Feature", "properties": { "name": "Wellspring Community Church", "address": "Brendon Avenue, Moston, Manchester", "postcode": "M40 9DN", "contact": "office@wellspringcommunitychurch.org  0161 219 1284", "website": "http:\/\/wellspringcommunitychurch.org\/", "referral_method": "Foodbank voucher", "opening_times": "Thursday 1.30 - 2.30pm", "precision": "Address and postcode" }, "geometry": { "type": "Point", "coordinates": [ -2.194194, 53.509273099999987 ] } },
{ "type": "Feature", "properties": { "name": "Ashton Churches Together (ACT)", "address": "Ashton Town Centre & 31 Satinwood Close", "postcode": "WN4 9NL", "contact": "01942 273721 actfoodbank@aol.co.uk", "website": "http:\/\/www.stthomasstluke.org.uk\/ourtown\/actfoodbank\/", "referral_method": "For people who live in the Ashton, North Ashton, Garswood, Bryn and Golborne area", "opening_times": "Contact for details", "precision": "Address and postcode" }, "geometry": { "type": "Point", "coordinates": [ -2.099397, 53.488216 ] } },
{ "type": "Feature", "properties": { "name": "Chelwood Food Bank", "address": "The Olive Branch, 2c Castle Street Edgeley", "postcode": "SK3 9AB", "contact": "info@chelwoodfoodbankplus.org", "website": "http:\/\/www.chelwoodfoodbankplus.org\/welcome\/", "referral_method": "Not known", "opening_times": "Wednesday 10 - 12", "precision": "Address and postcode" }, "geometry": { "type": "Point", "coordinates": [ -2.1634684, 53.4026869 ] } },
{ "type": "Feature", "properties": { "name": "Southway Housing Merseybank Quids In Food Club", "address": "42 Merseybank Avenue, Chorlton", "postcode": "M21 7NN", "contact": "connect2southway@southwayhousing.co.uk 0161 448 4200", "website": "http:\/\/www.southwayhousing.co.uk\/quidsin", "referral_method": "£2 weekly membership for any household in the postcode area of the club", "opening_times": "Friday 10.30am - 2pm", "precision": "Address and postcode" }, "geometry": { "type": "Point", "coordinates": [ -2.225801, 53.4109918 ] } },
{ "type": "Feature", "properties": { "name": "Southway Housing Burnage East Quids In Food Cub", "address": "Burnage Community Centre\nBurnage Lane", "postcode": "M19 1ER", "contact": "connect2southway@southwayhousing.co.uk   0161 448 4200", "website": "http:\/\/www.southwayhousing.co.uk\/quidsin", "referral_method": "£2 membership to any household in the postcode area", "opening_times": "Wednesday 9.30am - 2pm", "precision": "Address and postcode" }, "geometry": { "type": "Point", "coordinates": [ -2.225801, 53.4109918 ] } },
{ "type": "Feature", "properties": { "name": "Southway Housing Burnage West Quids In Food Club ", "address": "Westcroft Community Centre, Westcroft Road", "postcode": "M20 6EF", "contact": "connect2southway@southwayhousing.co.uk 0161 448 4200", "website": "http:\/\/www.southwayhousing.co.uk\/quidsin", "referral_method": "£2 membership for any household in the postcode area", "opening_times": "Wednesday 10.30am - 2pm", "precision": "Address and postcode" }, "geometry": { "type": "Point", "coordinates": [ -2.225801, 53.4109918 ] } },
{ "type": "Feature", "properties": { "name": "Southway Housing Old Moat Quids IN Food Club", "address": "Old Moat Children’s Centre\nOld Moat Lane,", "postcode": "M20 1DE", "contact": "connect2southway@southwayhousing.co.uk 0161 448 4200", "website": "http:\/\/www.southwayhousing.co.uk\/quidsin", "referral_method": "£2 membership for any household in the postcode area", "opening_times": "Friday 11am - 2.30pm", "precision": "Address and postcode" }, "geometry": { "type": "Point", "coordinates": [ -2.225801, 53.4109918 ] } },
{ "type": "Feature", "properties": { "name": "Southway Housing Chorlton Quids In Food Club", "address": "Brookfield House - the white house just inside Chorlton Park on the opposite side of the road to this map pin - the building does not have a  postcode", "postcode": "M21 7RL", "contact": "connect2southway@southwayhousing.co.uk 0161 448 4200", "website": "http:\/\/www.southwayhousing.co.uk\/quidsin", "referral_method": "£2 membership for any household in the postcode area", "opening_times": "Thursday 11am - 2.30pm", "precision": "Address and postcode" }, "geometry": { "type": "Point", "coordinates": [ -2.2657238, 53.435401 ] } },
{ "type": "Feature", "properties": { "name": "Coverdale & Newbank Community Food Membership Scheme", "address": "Cornbrook House, 217 Stockport Road", "postcode": "M12 4DY", "contact": "info@coverdaleandnewbank.com 0161 \n274 2186", "website": "http:\/\/www.coverdaleandnewbank.com\n\/community-projects\n", "referral_method": "Membership for people within walking distance, £2.50 fee per week", "opening_times": "Thursday 11am - 2pm", "precision": "Address and postcode" }, "geometry": { "type": "Point", "coordinates": [ -75.638743, 39.8098923 ] } },
{ "type": "Feature", "properties": { "name": "Trussel Trust Oldham", "address": "The Three Crowns Centre, 1-3 Manchester Street, Oldham", "postcode": "OL1 1LE", "contact": "andrew@oldham.foodbank.org.uk 0161 622 1061", "website": "https:\/\/www.trusselltrust.org\/get-help\/find-a-foodbank\/oldham\/", "referral_method": "Foodbank Voucher", "opening_times": "Tuesday, Wednesday and Thursday 11am - 2pm, Friday 11am - 4pm", "precision": "Address and postcode" }, "geometry": { "type": "Point", "coordinates": [ -2.1163109, 53.5416175 ] } },
{ "type": "Feature", "properties": { "name": "Real Junk Food Manchester", "address": "85 Oxford Street, Manchester", "postcode": "M1 6ET", "contact": "07912 509665", "website": "https:\/\/www.facebook.com\/pg\/realjunkfoodmcr\n", "referral_method": "Pay-as-you-feel restaurant", "opening_times": "Check opening times - currently planning to be open for breakfast, lunch and dinner", "precision": "Address and postcode" }, "geometry": { "type": "Point", "coordinates": [ -2.2416539, 53.4754095 ] } },
{ "type": "Feature", "properties": { "name": "Miles Platting Community Grocer", "address": "Queensbury Court, Wardle Street, Miles Platting", "postcode": "M40 7DD", "contact": "07913 540680", "website": "none", "referral_method": "Membership for people who live within 15 minutes walk. £2.50 for £12 worth of groceries", "opening_times": "Thursday 9.30am - 12.30pm", "precision": "Address and postcode" }, "geometry": { "type": "Point", "coordinates": [ -2.2119666, 53.4883915 ] } },
{ "type": "Feature", "properties": { "name": "Anson Community Shop", "address": "38 Meldon Road, Manchester", "postcode": "M13 0TR", "contact": "richbrowning@healthymehealthycommunities.co.uk 07913 540680", "website": "https:\/\/www.onemanchester.co.uk\/support-opportunities\/money-benefits-advice\/saving-money\/food-cooperatives", "referral_method": "Membership for people living within 15 minutes walk, £2.50 for £12 of groceries plus toiletries and household essentials", "opening_times": "Tuesdays and Thursdays 9.30am - 12.30pm", "precision": "Address and postcode" }, "geometry": { "type": "Point", "coordinates": [ -2.205283, 53.450523399999987 ] } },
{ "type": "Feature", "properties": { "name": "Bury Baptist Church", "address": "114 Manchester Road, Bury", "postcode": "BL9 0TH", "contact": "tim.cheprasov...tim@burybaptist.org", "website": "https:\/\/www.burybaptist.org\/", "referral_method": "Self-referral", "opening_times": "In addition to emergency food visitors can get free meals and a listening ear Monday 6-7pm, Tuesday 12-1pm, Wednesday 2=3pm and 6-7pm, Thursday 1-3pm", "precision": "Address and postcode" }, "geometry": { "type": "Point", "coordinates": [ -2.3010523, 53.5866266 ] } },
{ "type": "Feature", "properties": { "name": "Ashton Central Mosque", "address": "Hillgate Street, Ashton-under-Lyne", "postcode": "OL6 9JA", "contact": "Not known", "website": "http:\/\/ashtoncentralmosque.com\/index.php\/services\/tameside-food-bank\/", "referral_method": "Not known", "opening_times": "Not known", "precision": "Address and postcode" }, "geometry": { "type": "Point", "coordinates": [ -2.0873724, 53.4927325 ] } },
{ "type": "Feature", "properties": { "name": "Barnabus", "address": "45 Bloom Street, Manchester", "postcode": "M1 3LY", "contact": "admin@barnabusmanchester.co.uk", "website": "http:\/\/www.barnabus-manchester.org.uk\/what_we_do.html", "referral_method": "Not known", "opening_times": "5 days and 5 evenings per week", "precision": "Address and postcode" }, "geometry": { "type": "Point", "coordinates": [ -2.2379826, 53.4769722 ] } },
{ "type": "Feature", "properties": { "name": "BRASS Bolton", "address": "The Lodge, Green Lane, Bolton", "postcode": "BL3 2HP", "contact": "admin@brass-bolton.org.uk", "website": "http:\/\/brassbolton.org\/index.php\/en\/", "referral_method": "Not known", "opening_times": "Wednesday 10am - 4pm", "precision": "Address and postcode" }, "geometry": { "type": "Point", "coordinates": [ -2.4204388, 53.5593497 ] } },
{ "type": "Feature", "properties": { "name": "Compassion Prison Ministries", "address": "Church of God of Prophecy, 300 Moss Lane East, Moss Side, Manchester", "postcode": "M14 4SS", "contact": "admin@compassionfoodbank.co.uk", "website": "http:\/\/www.compassionfoodbank.co.uk\/", "referral_method": "Referral\/assessment", "opening_times": "Tuesdays & Fridays 12pm - 3pm; 1st Saturday of month 10am - 12noon", "precision": "Address and postcode" }, "geometry": { "type": "Point", "coordinates": [ -2.2407422, 53.4575184 ] } },
{ "type": "Feature", "properties": { "name": "Elim Foursquare Church", "address": "182 Greenacres Road, Oldham", "postcode": "OL4 2AB", "contact": "Not known", "website": "http:\/\/www.elim4sq.org.uk\/hope-food-bank\/", "referral_method": "Café", "opening_times": "Monday - Friday via referral and Saturdays 10am -2pm", "precision": "Address and postcode" }, "geometry": { "type": "Point", "coordinates": [ -2.0864793, 53.5447504 ] } },
{ "type": "Feature", "properties": { "name": "Justlife Health & Enterprise Centre", "address": "1479-1489 Ashton Old Road, Manchester", "postcode": "M11 1HH", "contact": "Not known", "website": "http:\/\/justlife.org.uk\/projects\/justlife-manchester\/", "referral_method": "Hot meal only", "opening_times": "Monday & Friday 12noon", "precision": "Address and postcode" }, "geometry": { "type": "Point", "coordinates": [ -2.154643, 53.4728766 ] } },
{ "type": "Feature", "properties": { "name": "Lifeshare", "address": "Charter Street Ragged School, 142 Dantiz Street, Manchester", "postcode": "M4 4DN", "contact": "office@lifeshare.org.uk", "website": "http:\/\/www.lifeshare.org.uk\/", "referral_method": "self-referral", "opening_times": "Saturday & Sunday 7am - 9am.", "precision": "Address and postcode" }, "geometry": { "type": "Point", "coordinates": [ -2.2459015, 53.4910175 ] } },
{ "type": "Feature", "properties": { "name": "Mossley Food Bank", "address": "Micklehurst Youth Base, The Rowans, Mossley", "postcode": "OL5 9DR", "contact": "Not known", "website": "https:\/\/mtc530.wordpress.com\/2016\/11\/17\/mossley-food-bank\/", "referral_method": "Not known", "opening_times": "Very limited supplies", "precision": "Address and postcode" }, "geometry": { "type": "Point", "coordinates": [ -2.0318017, 53.5160802 ] } },
{ "type": "Feature", "properties": { "name": "Mustard Tree", "address": "15 Southway, Eccles, Salford", "postcode": "M30 0LJ", "contact": "Salford.referrals@mustardtree.org.uk", "website": "www.mustardtree.org.uk\n", "referral_method": "Food Club", "opening_times": "Weekdays 10am-4pm and Saturdays 10am-2pm Food Club £2 for 10 items for people on pension\/benefits \n‘Approaching Crisis’ should be signposted to our Food Club and advised to bring proof of pension\/benefit status.  Families in “in work poverty” can be referred to Food Club via the CAB drop-in at Eccles Gateway\n\n‘In Crisis’ - Full referral for a food parcel via our website - www.mustardtree.org.uk - a hard copy given to the client plus emailed to us.", "precision": "Address and postcode" }, "geometry": { "type": "Point", "coordinates": [ -2.3380867, 53.483576199999987 ] } },
{ "type": "Feature", "properties": { "name": "Porch Boxes", "address": "14 Kenmor Avenue, Bury", "postcode": "BL8 2DY", "contact": "0161 761 5908 or 07724113035", "website": "http:\/\/www.porchboxes.org.uk\/", "referral_method": "We deliver to agencies \/workers who ask for food for their service users\/clients but will always try and help in special cases", "opening_times": "Not relevant", "precision": "Address and postcode" }, "geometry": { "type": "Point", "coordinates": [ -2.326377, 53.58648 ] } },
{ "type": "Feature", "properties": { "name": "Rainbow Haven", "address": "The Emmanuel Centre, 174 Langworthy Road, Salford", "postcode": "M6 5PN", "contact": "finance.rainbowhaven@yahoo.co.uk", "website": "http:\/\/www.rainbowhaven.org.uk", "referral_method": "Meals Only", "opening_times": "Wednesday 10am - 3pm", "precision": "Address and postcode" }, "geometry": { "type": "Point", "coordinates": [ -2.2944321, 53.485963299999987 ] } },
{ "type": "Feature", "properties": { "name": "Restore Food Bank Arise & Shine Christian Ministries", "address": "582 Hyde Road Gorton, Manchester,", "postcode": "M18 7EE", "contact": "O7872611770", "website": "https:\/\/www.facebook.com\/AriseShineChristianMinistries\/", "referral_method": "Proof of benefits", "opening_times": "Tuesday 3 - 5pm", "precision": "Address and postcode" }, "geometry": { "type": "Point", "coordinates": [ -2.1752775, 53.4613945 ] } },
{ "type": "Feature", "properties": { "name": "Salvation Army Failsworth", "address": "572 Oldham Road, Failsworth, Manchester", "postcode": "M35 9DQ", "contact": "failsworth@salvationarmy.org.uk", "website": "http:\/\/www.salvationarmy.org.uk\/failsworth", "referral_method": "Not known", "opening_times": "Monday 1:30pm - 2:30pm", "precision": "Address and postcode" }, "geometry": { "type": "Point", "coordinates": [ -2.1526402, 53.513523799999987 ] } },
{ "type": "Feature", "properties": { "name": "Salvation Army Manchester City Centre", "address": "71 Grosvenor Street, Manchester", "postcode": "M13 9UB", "contact": "7464036317", "website": "www.hopeisthekey.org.uk  \n", "referral_method": "£2 a week membership", "opening_times": "Saturday 10am - 12noon", "precision": "Address and postcode" }, "geometry": { "type": "Point", "coordinates": [ -2.2329013, 53.471382899999988 ] } },
{ "type": "Feature", "properties": { "name": "Salvation Army Openshaw", "address": "Lime Square Shopping Centre (Opposite Morrisons)", "postcode": "M11 1DA", "contact": "openshaw@salvationarmy.org.uk", "website": "http:\/\/www.salvationarmy.org.uk\/Openshaw", "referral_method": "Referral", "opening_times": "Mon - Fri by appointment", "precision": "Address and postcode" }, "geometry": { "type": "Point", "coordinates": [ -2.1651981, 53.4741071 ] } },
{ "type": "Feature", "properties": { "name": "Salvation Army Shaw", "address": "Farrow Street, Shaw, Oldham", "postcode": "OL2 8QY", "contact": "shaw@salvationarmy.org.uk", "website": "http:\/\/www.salvationarmy.org.uk\/Shaw", "referral_method": "Not known", "opening_times": "Wednesday & Thursday 10am - 2pm", "precision": "Address and postcode" }, "geometry": { "type": "Point", "coordinates": [ -2.0956949, 53.576273099999987 ] } },
{ "type": "Feature", "properties": { "name": "Sharston Sure Start Children's Centre", "address": "Pundswick Children's Centre, Poundswick Lane, Sharston, Manchester", "postcode": "M22 9TA", "contact": "sharston.sscc@manchester.gov.uk", "website": "https:\/\/hsm.manchester.gov.uk\/kb5\/manchester\/directory\/service.page?id=1RYFhjYFnHY&directorychannel=1-2-4", "referral_method": "Referral\/first come first served", "opening_times": "Not known", "precision": "Address and postcode" }, "geometry": { "type": "Point", "coordinates": [ -2.2625324, 53.3813112 ] } },
{ "type": "Feature", "properties": { "name": "Shout TMO", "address": "50 Kilnside Drive, Harpurhey, Manchester", "postcode": "M9 5QP", "contact": "0161 202 6482", "website": "http:\/\/www.shouttmo.co.uk\/", "referral_method": "Proof of low income & financial difficulties", "opening_times": "Thur 1-3pm", "precision": "Address and postcode" }, "geometry": { "type": "Point", "coordinates": [ -2.2147218, 53.5059823 ] } },
{ "type": "Feature", "properties": { "name": "The Children's Society", "address": "Zion Community Resource Centre, 339 Stretford Road, Hulme, Manchester", "postcode": "M15 4ZY", "contact": "0161 868 0382", "website": "http:\/\/www.zioncentre.co.uk\/", "referral_method": "Support for young asylum seekers", "opening_times": "Not known", "precision": "Address and postcode" }, "geometry": { "type": "Point", "coordinates": [ -2.2531619, 53.466521699999987 ] } },
{ "type": "Feature", "properties": { "name": "Trussell Trust", "address": "Sale West Credit Unit Rooms, Newbury Avenue, Sale, Manchester", "postcode": "M33 4QW", "contact": "info@traffordsouth.foodbank.org.uk", "website": "http:\/\/traffordsouth.foodbank.org.uk\/", "referral_method": "Foodbank Voucher", "opening_times": "Tuesday 11am - 1pm", "precision": "Address and postcode" }, "geometry": { "type": "Point", "coordinates": [ -2.3582172, 53.419999399999988 ] } },
{ "type": "Feature", "properties": { "name": "Trussell Trust", "address": "Wharton & Clegg's Lane Church & Community Centre, Clegg's Lane, Little Hulton, Salford", "postcode": "M38 9RW", "contact": "info@farnworthkearsley.foodbank.org.uk", "website": "http:\/\/farnworthkearsley.foodbank.org.uk\/", "referral_method": "Foodbank Voucher", "opening_times": "Tuesday 10:30am - 1pm", "precision": "Address and postcode" }, "geometry": { "type": "Point", "coordinates": [ -96.1027371, 29.3116366 ] } },
{ "type": "Feature", "properties": { "name": "Trussell Trust", "address": "The Sanctuary Centre, Dallas Court, Salford Quays", "postcode": "M50 2GF", "contact": "info@salfordcentral.foodbank.org.uk", "website": "http:\/\/salfordcentral.foodbank.org.uk\/", "referral_method": "Foodbank Voucher", "opening_times": "Mondays & Wednesdays 1pm - 3pm", "precision": "Address and postcode" }, "geometry": { "type": "Point", "coordinates": [ -2.29678, 53.476523 ] } },
{ "type": "Feature", "properties": { "name": "Trussell Trust", "address": "8 South Parade, Rochdale", "postcode": "OL16 1LR", "contact": "info@rochdale.foodbank.org.uk", "website": "http:\/\/rochdale.foodbank.org.uk\/", "referral_method": "Foodbank Voucher", "opening_times": "Monday - Friday 11am - 12:45pm", "precision": "Address and postcode" }, "geometry": { "type": "Point", "coordinates": [ -2.1571942, 53.616692099999987 ] } },
{ "type": "Feature", "properties": { "name": "Trussell Trust", "address": "South Chadderton Methodist Church, Thompson Lane, Chadderton", "postcode": "OL9 8LX", "contact": "andrew@oldham.foodbank.org.uk", "website": "http:\/\/oldham.foodbank.org.uk\/", "referral_method": "Foodbank Voucher", "opening_times": "Monday 11am - 2pm", "precision": "Address and postcode" }, "geometry": { "type": "Point", "coordinates": [ -2.1465643, 53.5308344 ] } },
{ "type": "Feature", "properties": { "name": "Trussell Trust", "address": "Hattersley Baptist Church, Melandra Crescent, Hattersley", "postcode": "SK14 3RB", "contact": "info@tamesidesouthlongdendale.foodbank.org.uk", "website": "http:\/\/tamesidesouthlongdendale.foodbank.org.uk\/", "referral_method": "Foodbank Voucher", "opening_times": "Tues 12noon - 1pm. Fri 2pm - 3pm", "precision": "Address and postcode" }, "geometry": { "type": "Point", "coordinates": [ -2.0248679, 53.4499941 ] } },
{ "type": "Feature", "properties": { "name": "Trussell Trust", "address": "Drop-in centre at GLO Church, Hexham Close, Offerton", "postcode": "SK2 5PR", "contact": "foodbank@stockportfoodbank.org.uk", "website": "http:\/\/stockport.foodbank.org.uk\/", "referral_method": "Foodbank Voucher", "opening_times": "Closed during August 2017. Please go to the Hazel Grove distribution centre. Mon- Thursday 10 - 12noon (term-time only)", "precision": "Address and postcode" }, "geometry": { "type": "Point", "coordinates": [ -2.1211781, 53.3911972 ] } },
{ "type": "Feature", "properties": { "name": "Trussell Trust", "address": "St Martin's Church, 112 Crescent Park, Norris Bank, Stockport", "postcode": "SK4 2JE", "contact": "foodbank@stockportfoodbank.org.uk", "website": "http:\/\/stockport.foodbank.org.uk\/", "referral_method": "Foodbank Voucher", "opening_times": "Mon & Thur 1-3pm (except bank holidays)", "precision": "Address and postcode" }, "geometry": { "type": "Point", "coordinates": [ -2.1813291, 53.4109842 ] } },
{ "type": "Feature", "properties": { "name": "Trussell Trust", "address": "Trinity Church, Massie Street, Cheadle, Stockport", "postcode": "SK8 1DU", "contact": "foodbank@stockportfoodbank.org.uk", "website": "http:\/\/stockport.foodbank.org.uk\/", "referral_method": "Foodbank Voucher", "opening_times": "Friday 10 - 11.30am", "precision": "Address and postcode" }, "geometry": { "type": "Point", "coordinates": [ -2.215314, 53.3931651 ] } },
{ "type": "Feature", "properties": { "name": "Trussell Trust", "address": "St Albans Church Hall, Lindsell Road, Altrincham", "postcode": "WA14 5NX", "contact": "info@traffordsouth.foodbank.org.uk", "website": "http:\/\/traffordsouth.foodbank.org.uk\/", "referral_method": "Foodbank Voucher", "opening_times": "Wednesday 10:30am - 12:30pm", "precision": "Address and postcode" }, "geometry": { "type": "Point", "coordinates": [ -2.3519647, 53.4024644 ] } },
{ "type": "Feature", "properties": { "name": "Trussell Trust", "address": "Olympic House, Platt Street, Platt Bridge, Wigan", "postcode": "WN2 5DA", "contact": "info@athertonleigh.foodbank.org.uk", "website": "http:\/\/athertonleigh.foodbank.org.uk\/", "referral_method": "Foodbank Voucher", "opening_times": "Tuesday 1 - 3pm", "precision": "Address and postcode" }, "geometry": { "type": "Point", "coordinates": [ -2.5983474, 53.5192956 ] } },
{ "type": "Feature", "properties": { "name": "Wai Yin Society", "address": "18-32 Brentfield Avenue, Cheetham Hill, Manchester", "postcode": "M8 0TW", "contact": "info@waiyin.org.uk", "website": "http:\/\/www.waiyin.org.uk", "referral_method": "Referral only", "opening_times": "Mondays, Tuesdays, Thursdays and Fridays 10am - 3pm  2.\tWe also provide a hot meal for 50p each lunchtime (Halal)- free to those with no money", "precision": "Address and postcode" }, "geometry": { "type": "Point", "coordinates": [ -2.2414811, 53.503928599999988 ] } },
{ "type": "Feature", "properties": { "name": "Young People's Support Foundation (YPSF)", "address": "St Andrew's Hall, Brownley Road, Wythenshawe, Manchester", "postcode": "M22 0DW", "contact": "info@ypsf.co.uk", "website": "http:\/\/www.ypsf.co.uk\/", "referral_method": "Meals only", "opening_times": "Tuesdays and Thursdays 10am- 12noon", "precision": "Address and postcode" }, "geometry": { "type": "Point", "coordinates": [ -2.258971, 53.377839 ] } },
{ "type": "Feature", "properties": { "name": "Young People's Support Foundation (YPSF)", "address": "52 Oldham Street, Northern Quarter, Manchester", "postcode": "M4 1LE", "contact": "info@ypsf.co.uk", "website": "http:\/\/www.ypsf.co.uk\/", "referral_method": "Meals only", "opening_times": "Monday, Wednesday, Friday 10am -12noon", "precision": "Address and postcode" }, "geometry": { "type": "Point", "coordinates": [ -2.2339685, 53.4833685 ] } },
{ "type": "Feature", "properties": { "name": "4CT Limited", "address": "CSTAR Stirling Centre, Scotland Hall Road, Newton Heath, Manchester\n", "postcode": "M40 2AZ", "contact": "v.keelan.4ct@btconnect.com", "website": "http:\/\/www.4ct.org.uk\/index.php\/Section76.html", "referral_method": "Referral", "opening_times": "Wednesday 2pm - 4pm", "precision": "Address and postcode" }, "geometry": { "type": "Point", "coordinates": [ -2.1801823, 53.4932331 ] } },
{ "type": "Feature", "properties": { "name": "Trussell Trust", "address": "Tree of Life, Greenbrow Road, Newall Green, Wythenshawe, Manchester\n", "postcode": "M23 2UE", "contact": "info@wythenshawe.foodbank.org.uk\n", "website": "http:\/\/wythenshawe.foodbank.org.uk\n", "referral_method": "Foodbank Voucher", "opening_times": "Mon, Tues, Thu 11am - 2.30pm", "precision": "Address and postcode" }, "geometry": { "type": "Point", "coordinates": [ -2.287711, 53.37991 ] } },
{ "type": "Feature", "properties": { "name": "Wood Street Mission", "address": "26 Wood Street Manchester", "postcode": "M3 3EF", "contact": "info@woodstreetmission.org.uk\n0161 834 3140", "website": "http:\/\/www.woodstreetmission.org.uk", "referral_method": "Referral only", "opening_times": "Monday-Friday 8.30-4.30 (Office) Tuesday-Thursday 10am-1pm (community Shop)", "precision": "Address and postcode" }, "geometry": { "type": "Point", "coordinates": [ -2.2497024, 53.4807217 ] } },
{ "type": "Feature", "properties": { "name": "St Cross Church", "address": "The Rectory, 54 Clayton Hall Road, Clayton", "postcode": "M11 4WH", "contact": "0161 223 0766", "website": "not known", "referral_method": "St Cross Voucher & OM PA Assessment sheet", "opening_times": "Thursday morning, tinned food and dry goods only", "precision": "Address and postcode" }, "geometry": { "type": "Point", "coordinates": [ -2.1794205, 53.4837854 ] } },
{ "type": "Feature", "properties": { "name": "Brinnington Pantry", "address": "First House, 367 Brinnington Road, Brinnington, Stockport", "postcode": "SK5 8EN", "contact": "pantry@stockporthomes.org", "website": "http:\/\/www.yourlocalpantry.co.uk\/\n", "referral_method": "Become a member: further information here http:\/\/your-local-pantry.beta.stockporthomes.org\/join-us\/become-a-member\/", "opening_times": "Thursday 3.30 - 5.30pm Friday 10am - 12 noon", "precision": "Address and postcode" }, "geometry": { "type": "Point", "coordinates": [ -2.1330463, 53.426576399999988 ] } },
{ "type": "Feature", "properties": { "name": "Dukinfield Pantry", "address": "1 Wellington Parade Central Estate Dukinfield", "postcode": "SK16 4LE", "contact": "Not known", "website": "Not known", "referral_method": "Not known", "opening_times": "Tuesday and Thursday 9:30am – 12:30pm", "precision": "Address and postcode" }, "geometry": { "type": "Point", "coordinates": [ -2.0927409, 53.4808391 ] } },
{ "type": "Feature", "properties": { "name": "Audacious A Teams", "address": "Audacious Church, Trinity Way, Manchester", "postcode": "M3 7BB", "contact": "info@audaciouschurch.com 0161 830 7000", "website": "https:\/\/audaciouschurch.com\/a-teams\/", "referral_method": "Food & support for homeless & sex workers", "opening_times": "Monday - Friday 10am - 4pm Free hot meal on Tuesday evening, 7.30 - 9.30pm", "precision": "Address and postcode" }, "geometry": { "type": "Point", "coordinates": [ -2.2545286, 53.4853491 ] } },
{ "type": "Feature", "properties": { "name": "Emmaus Salford, Lucie's Pantry", "address": "Emmaus House, 101 Fitzwarren Street, Salford", "postcode": "M6 5RQ", "contact": "0161 737 8279 or email simonlocke.emmaussalford@gmail.com", "website": "https:\/\/www.emmaus.org.uk\/salford\/luciespantry\n", "referral_method": "Membership £2.50 per week for £15 worth of groceries based on need and geography also available is a regular CAB Surgery", "opening_times": "No opening times are advertised.  Please check with Emmaus Salford", "precision": "Address and postcode" }, "geometry": { "type": "Point", "coordinates": [ -2.289721, 53.487027 ] } },
{ "type": "Feature", "properties": { "name": "Barakah Food Aid", "address": "Please note the pin does not represent a base for this organisation.  It operates in the Chorlton\/Whalley Range area.  Please call using the phone number shown below or contact them via Facebook.", "postcode": "M21 8AU", "contact": "07506 527523", "website": "https:\/\/www.facebook.com\/BarakahFoodAid\/", "referral_method": "Self-refer, food parcels delivered on Sundays, emergency parcels during the week", "opening_times": "See above", "precision": "Address and postcode" }, "geometry": { "type": "Point", "coordinates": [ -2.2739479, 53.436254299999987 ] } },
{ "type": "Feature", "properties": { "name": "Coffee4Craig Food Bank", "address": "The Woolpack. Belvedere Road, Salford Pendleton", "postcode": "M6 5HE", "contact": "hendrix@coffee4craig.co.uk \/ dee.lowry@coffee4craig.co.uk \/ 07543590330", "website": "www.coffee4craig.co.uk", "referral_method": "No evidence needed", "opening_times": "24\/7 upon request (need to arrange for one of our team to meet you there)", "precision": "Address and postcode" }, "geometry": { "type": "Point", "coordinates": [ -2.2827689, 53.4896237 ] } },
{ "type": "Feature", "properties": { "name": "Trussell Trust Eccles", "address": "Connect Church, Mather Avenue Entrance", "postcode": "M30 0UG", "contact": "info@salfordcentral.foodbank.org.uk", "website": "http:\/\/salford.foodbank.org.uk", "referral_method": "Foodbank Voucher", "opening_times": "Friday 11am - 1pm", "precision": "Address and postcode" }, "geometry": { "type": "Point", "coordinates": [ -2.345177, 53.4860686 ] } },
{ "type": "Feature", "properties": { "name": "The Trussell Trust: Irlam & Cadishead", "address": "Boundary Road Methodist Church, Boundary Road, Irlam", "postcode": "M44 6HD", "contact": "info@irlamcadishead.foodbank.org.uk", "website": "https:\/\/irlamcadishead.foodbank.org.uk", "referral_method": "Foodbank vouchers", "opening_times": "New foodbank, opening times TBC", "precision": "Address and postcode" }, "geometry": { "type": "Point", "coordinates": [ -2.408604, 53.455494599999987 ] } },
{ "type": "Feature", "properties": { "name": "For Tameside South & Longdendale Trussell Trust Foodbank", "address": "The Hub, Stockport Road", "postcode": "SK14 6AF", "contact": "info@tamesidesouthlongdendale.foodbank.org.uk\n", "website": "http:\/\/tamesidesouthlongdendale.foodbank.org.uk\/\n", "referral_method": "Foodbank vouchers", "opening_times": "9 - 4 Monday - Friday.  Emergency food parcels are held here as they are open longer hours.", "precision": "Address and postcode" }, "geometry": { "type": "Point", "coordinates": [ -2.0713393, 53.436623399999988 ] } },
{ "type": "Feature", "properties": { "name": "Salford Food Parcel Project", "address": "Lifecentre Salford, 219 Langworthy Road, Salford", "postcode": "M6 5PW", "contact": "lifecentreonline@gmail.com", "website": "http:\/\/lifecentre.org.uk\/food-parcel-project", "referral_method": "In partnership with the Red Cross, Salford Food Parcels provides a food parcel to destitute asylum seeking people in the local area. ", "opening_times": "Wednesday 10am - 12noon.  (Make Lunch runs during the school holidays: a two course hot meal and fun in the afternoon to children who are in receipt of Free School Meals 11-1pm, please call us on 0161 736 7644 for more information.)", "precision": "Address and postcode" }, "geometry": { "type": "Point", "coordinates": [ -2.295046, 53.487025 ] } },
{ "type": "Feature", "properties": { "name": "New Bury UCAN Food Pantry", "address": "53 George St New Bury", "postcode": "BL4 9PU", "contact": "01204 329786", "website": "http:\/\/www.boltonathome.org.uk\/ucan", "referral_method": "£2.50 membership for £10 basket of food including fresh produce, bread, tinned food, meat, cheese", "opening_times": "Thursday 10.30am - 12.30pm", "precision": "Address and postcode" }, "geometry": { "type": "Point", "coordinates": [ -2.4116848, 53.5448438 ] } },
{ "type": "Feature", "properties": { "name": "Bolton at Home Hope Centre UCAN ", "address": "29 Tattersall Ave, Johnson Fold, Bolton", "postcode": "BL1 5TE", "contact": "01204 329704", "website": "http:\/\/www.boltonathome.org.uk\/ucan", "referral_method": "Please visit or call the Johnson Fold UCAN at 5 Johnson fold Ave, BL1 5SF.  (Open Tues 9:30-12:30 1:30-4:00pm.) for possible referral to the Hope Centre Food Pantry which is mainly for people on this estate or on Mossbank Way and is open on Thursday as shown", "opening_times": "Thursday 1.30 - 3.30pm", "precision": "Address and postcode" }, "geometry": { "type": "Point", "coordinates": [ -2.473117, 53.594719 ] } },
{ "type": "Feature", "properties": { "name": "Chrysalis Manchester", "address": "4 Westerling Way, Moss Side, Manchester", "postcode": "M16 7EA", "contact": "Not known", "website": "https:\/\/chrysalisfamilycentre.wordpress.com\/", "referral_method": "Not known", "opening_times": "Not known", "precision": "Manually geocoded" }, "geometry": { "type": "Point", "coordinates": [ -2.2565098, 53.4550431 ] } },
{ "type": "Feature", "properties": { "name": "Mustard Tree", "address": "50 Hulton District Centre, Little Hulton, Salford", "postcode": "M28 0AU", "contact": "Salford.referrals@mustardtree.org.uk", "website": "www.mustardtree.org.uk", "referral_method": "Food Club", "opening_times": "Monday - Friday 10am - 4pm except Thursday 10 - 12 only Food Club £2 for 10 items for people on pension\/benefits ‘Approaching Crisis’ should be signposted to our Food Club and advised to bring proof of pension\/benefit status. Families in “in work poverty” can be referred to Food Club via the CAB drop-in at Mustard Tree Little Hulton on Tuesdays, 10am-2pm\n\n‘In Crisis’ - Full referral for a food parcel via our website - www.mustardtree.org.uk - a hard copy given to the client plus emailed to us.", "precision": "Manually geocoded" }, "geometry": { "type": "Point", "coordinates": [ -2.4232247, 53.5300628 ] } },
{ "type": "Feature", "properties": { "name": "Petrus Day Centre", "address": "73 Great George Street, Rochdale", "postcode": "OL16 1QG", "contact": "01706 526289", "website": "http:\/\/www.petrus.org.uk\/", "referral_method": "Assessment", "opening_times": "9 - 4 weekdays except Wed 9 - 2", "precision": "Manually geocoded" }, "geometry": { "type": "Point", "coordinates": [ -2.1565584, 53.613375299999987 ] } },
{ "type": "Feature", "properties": { "name": "St Mary's Church", "address": "Meadow Lane, Haughton Green, Manchester", "postcode": "M34 7GD", "contact": "helen.holland1@talktalk.net", "website": "http:\/\/www.stmaryshg.org.uk\/#!food-bank\/cxbf", "referral_method": "Referral", "opening_times": "Tues 4pm - 5pm, Wed 3pm - 4pm, Thurs 3pm - 4pm and Fri 11:30am - 12:30pm", "precision": "Manually geocoded" }, "geometry": { "type": "Point", "coordinates": [ -2.101284, 53.4380269 ] } },
{ "type": "Feature", "properties": { "name": "Trussell Trust", "address": "Union Chapel, 2b Wellington Road, Fallowfield, Manchester", "postcode": "M14 6EQ", "contact": "info@fallowfieldwithington.foodbank.org.uk", "website": "http:\/\/fallowfieldwithington.foodbank.org.uk", "referral_method": "Foodbank Voucher", "opening_times": "Friday 12 - 2pm", "precision": "Manually geocoded" }, "geometry": { "type": "Point", "coordinates": [ -2.2231759, 53.442076699999987 ] } },
{ "type": "Feature", "properties": { "name": "Trussell Trust", "address": "Unit 3, Wesley Enterprise Centre, Royce Road, Hulme, Manchester", "postcode": "M15 5BP", "contact": "info@manchestersouthcentral.foodbank.org.uk", "website": "http:\/\/manchestersouthcentral.foodbank.org.uk\/", "referral_method": "Foodbank Voucher", "opening_times": "Saturday 11am - 1pm", "precision": "Manually geocoded" }, "geometry": { "type": "Point", "coordinates": [ -2.255337, 53.4678902 ] } },
{ "type": "Feature", "properties": { "name": "Trussell Trust", "address": "Leigh Baptist Church, 35 Vernon Street, Leigh", "postcode": "WN7 1BH", "contact": "info@athertonleigh.foodbank.org.uk", "website": "http:\/\/athertonleigh.foodbank.org.uk\/", "referral_method": "Foodbank Voucher", "opening_times": "Thursday 10am - 12noon", "precision": "Manually geocoded" }, "geometry": { "type": "Point", "coordinates": [ -2.5143939, 53.4981017 ] } },
{ "type": "Feature", "properties": { "name": "Freedom Church", "address": "Link House, 35 Walmersley Road, Bury", "postcode": "BL9 5AE", "contact": "community@freedomchurch.org.uk ", "website": "http:\/\/www.freedomchurch.org.uk\/food-glorious-food\/", "referral_method": "Agency referral for up to 4 weeks", "opening_times": "Wednesdays 1:30 – 3:30pm, and also a home delivery service for people with access difficulties. They also give out food on evenings and weekends by appointment only.  They also provide advice and support in specific areas.", "precision": "Manually geocoded" }, "geometry": { "type": "Point", "coordinates": [ -2.289999, 53.5980797 ] } },
{ "type": "Feature", "properties": { "name": "Salvation Army Fitton Hill", "address": "1 Fir Tree Lane Precint, Oldham", "postcode": "OL8 2QP", "contact": "chris.neilson@salvationarmy.org.uk", "website": "http:\/\/www.salvationarmy.org.uk\/Fitton-Hill", "referral_method": "Not known", "opening_times": "Monday 3pm - 5pm", "precision": "Manually geocoded" }, "geometry": { "type": "Point", "coordinates": [ -2.103227, 53.521112 ] } },
{ "type": "Feature", "properties": { "name": "Salvation Army Oldham Citadel", "address": "York Street, Oldham", "postcode": "OL9 6ET", "contact": "oldham.citadel@salvationarmy.org.uk", "website": "http:\/\/www.salvationarmy.org.uk\/oldham-citadel", "referral_method": "Not known", "opening_times": null, "precision": "Manually geocoded" }, "geometry": { "type": "Point", "coordinates": [ -2.121872, 53.54048 ] } },
{ "type": "Feature", "properties": { "name": "St Aiden & Oswald RC Church", "address": "Vaughan Street, Royton, Oldham", "postcode": "OL2 5DL", "contact": "Not known", "website": "http:\/\/streetskitchen.co.uk\/?page_id=1072", "referral_method": "Not known", "opening_times": "Daily (except Tues & Sat) 10:30am - 12pm", "precision": "Manually geocoded" }, "geometry": { "type": "Point", "coordinates": [ -2.120433, 53.562358 ] } },
{ "type": "Feature", "properties": { "name": "Trussel Trust Wythenshawe", "address": "St Aiden's Centre, Wythenshawe Road, Wythenshawe, Manchester, M23 9DE", "postcode": "M23 0QN", "contact": "ericsmith5892@hotmail.com", "website": "http:\/\/wythenshawe.foodbank.org.uk", "referral_method": "Foodbank Voucher", "opening_times": "Tuesday and Thursday 10am - 2pm", "precision": "Manually geocoded" }, "geometry": { "type": "Point", "coordinates": [ -2.287483, 53.408222 ] } },
{ "type": "Feature", "properties": { "name": "The Metropolitan Church of Manchester", "address": "Wilbraham St Ninian's URC, Egerton Road South, Chorlton, Manchester", "postcode": "M21 0XJ", "contact": "contact@metropolitanchurch.org.uk", "website": "http:\/\/metropolitanchurch.org.uk\/", "referral_method": "At their discretion", "opening_times": "After services or when visiting", "precision": "Manually geocoded" }, "geometry": { "type": "Point", "coordinates": [ -2.270568, 53.442403 ] } },
{ "type": "Feature", "properties": { "name": "Trussell Trust", "address": "The Well, Trafford Street, Farnworth, Bolton", "postcode": "BL4 7PQ", "contact": "info@farnworthkearsley.foodbank.org.uk", "website": "http:\/\/farnworthkearsley.foodbank.org.uk\/", "referral_method": "Foodbank Voucher", "opening_times": "Tuesday - Friday 12noon - 2pm", "precision": "Manually geocoded" }, "geometry": { "type": "Point", "coordinates": [ -2.396327, 53.551289 ] } },
{ "type": "Feature", "properties": { "name": "Trussell Trust", "address": "Holy Innocents, 2 Wilbraham Road, Fallowfield, Manchester", "postcode": "M14 6JZ", "contact": "info@fallowfieldwithington.foodbank.org.uk", "website": "http:\/\/fallowfieldwithington.foodbank.org.uk", "referral_method": "Foodbank Voucher", "opening_times": "Saturday 10am - 12 noon", "precision": "Manually geocoded" }, "geometry": { "type": "Point", "coordinates": [ -2.219682, 53.442958 ] } },
{ "type": "Feature", "properties": { "name": "Trussell Trust", "address": "St Nicholas Church 408 Kingsway, Burnage, Manchester", "postcode": "M19 1PL", "contact": "info@burnage.foodbank.org.uk", "website": "http:\/\/burnage.foodbank.org.uk\/", "referral_method": "Foodbank Voucher", "opening_times": "Tuesday 12.30 - 2.30pm", "precision": "Manually geocoded" }, "geometry": { "type": "Point", "coordinates": [ -2.214544, 53.41988 ] } },
{ "type": "Feature", "properties": { "name": "Trussell Trust", "address": "Trafford Christian Life Centre, 107 Barton Road, Stretford, Manchester", "postcode": "M32 9AF", "contact": "info@stretford.foodbank.org.uk", "website": "http:\/\/stretford.foodbank.org.uk\/", "referral_method": "Foodbank Voucher", "opening_times": "Tues 11am - 2pm, Fri 11.30am -1.30pm", "precision": "Manually geocoded" }, "geometry": { "type": "Point", "coordinates": [ -2.314056, 53.4449 ] } },
{ "type": "Feature", "properties": { "name": "Trussell Trust", "address": "The Three Crowns Centre, 1-3 Manchester Street, Oldham", "postcode": "OL1 1LE", "contact": "andrew@oldham.foodbank.org.uk", "website": "http:\/\/oldham.foodbank.org.uk\/", "referral_method": "Foodbank Voucher", "opening_times": "Tues , Wed, Thursday, 11am - 2pm and Friday 11am - 4pm", "precision": "Manually geocoded" }, "geometry": { "type": "Point", "coordinates": [ -2.116312, 53.54162 ] } },
{ "type": "Feature", "properties": { "name": "Trussell Trust", "address": "Drop-in centre at Bramhall Community Hub, 84 North Park Road, Bramhall, Stockport", "postcode": "SK7 3HS", "contact": "foodbank@stockportfoodbank.org.uk", "website": "http:\/\/stockport.foodbank.org.uk\/", "referral_method": "Foodbank Voucher", "opening_times": "Mon & Fri 10am - 2pm, Wed 11am - 3pm", "precision": "Manually geocoded" }, "geometry": { "type": "Point", "coordinates": [ -2.16402, 53.380763 ] } },
{ "type": "Feature", "properties": { "name": "Gorton Community Grocer", "address": "Abbey Hey Lane, Gorton", "postcode": "M18 8PF", "contact": "info@healthymehealthycommunities.co.uk   07913540680", "website": "http:\/\/healthymehealthycommunities.co.uk\/", "referral_method": "Membership: pay £2.50 for roughly £12 worth of groceries.  Open to people living within 15 minutes walk. Toiletries and cooking classes are also available.", "opening_times": "Friday 9.30am - 12 noon", "precision": "Manually geocoded" }, "geometry": { "type": "Point", "coordinates": [ -2.166056, 53.464264 ] } }
]
}
