{
"type": "FeatureCollection",
"crs": { "type": "name", "properties": { "name": "urn:ogc:def:crs:OGC:1.3:CRS84" } },
"features": [
{ "type": "Feature", "properties": { "name": "Atherton Probation Office", "address": "81 Gloucester Street, Atherton", "postcode": "M46 0JS", "telephone": "01442 296008", "type": "CRC", "area_name": "Wigan", "area_code": "E08000010", "marker-color": "#fc6721", "marker-size": "medium" }, "geometry": { "type": "Point", "coordinates": [ -2.499328, 53.525751 ] } },
{ "type": "Feature", "properties": { "name": "Bolton Probation Office", "address": "Ground Floor, Nautica House, Watersâ€™ Meeting Road, Bolton", "postcode": "BL1 8SW", "telephone": "01442 296009", "type": "CRC", "area_name": "Bolton", "area_code": "E08000001", "marker-color": "#fc6721", "marker-size": "medium" }, "geometry": { "type": "Point", "coordinates": [ -2.42821, 53.596469 ] } },
{ "type": "Feature", "properties": { "name": "City Centre (Intensive Community Order Office)", "address": "52 Oldham Street, Manchester", "postcode": "M4 1LE", "telephone": "0161 2287654", "type": "CRC", "area_name": "Manchester", "area_code": "E08000003", "marker-color": "#fc6721", "marker-size": "medium" }, "geometry": { "type": "Point", "coordinates": [ -2.234017, 53.483394 ] } },
{ "type": "Feature", "properties": { "name": "Manchester Probation Office", "address": "12 Minshull Street, Manchester", "postcode": "M1 3FR", "telephone": "01442 296011", "type": "CRC", "area_name": "Manchester", "area_code": "E08000003", "marker-color": "#fc6721", "marker-size": "medium" }, "geometry": { "type": "Point", "coordinates": [ -2.235269, 53.478268 ] } },
{ "type": "Feature", "properties": { "name": "Oldham Probation Office", "address": "Unit 1, Cromwell Court, Brunswick Street", "postcode": "OL1 1ET", "telephone": "01442 296017", "type": "CRC", "area_name": "Oldham", "area_code": "E08000004", "marker-color": "#fc6721", "marker-size": "medium" }, "geometry": { "type": "Point", "coordinates": [ -2.114666, 53.539223 ] } },
{ "type": "Feature", "properties": { "name": "Rochdale Probation Office", "address": "20 Chichester Business Park, Chichester Street, Rochdale", "postcode": "OL16 2AU", "telephone": "01442 296019", "type": "CRC", "area_name": "Rochdale", "area_code": "E08000005", "marker-color": "#fc6721", "marker-size": "medium" }, "geometry": { "type": "Point", "coordinates": [ -2.144078, 53.615367 ] } },
{ "type": "Feature", "properties": { "name": "Salford Probation Office", "address": "2 Redwood Street, Pendleton, Salford", "postcode": "M6 6PF", "telephone": "01442 296015", "type": "CRC", "area_name": "Salford", "area_code": "E08000006", "marker-color": "#fc6721", "marker-size": "medium" }, "geometry": { "type": "Point", "coordinates": [ -2.286946, 53.493443 ] } },
{ "type": "Feature", "properties": { "name": "Stockport Probation Office", "address": "Cirtek House, Unit 2b, Higher Hillgate, Stockport", "postcode": "SK1 3QD", "telephone": "01442 296018", "type": "CRC", "area_name": "Stockport", "area_code": "E08000007", "marker-color": "#fc6721", "marker-size": "medium" }, "geometry": { "type": "Point", "coordinates": [ -2.154788, 53.402222 ] } },
{ "type": "Feature", "properties": { "name": "Trafford Probation Office", "address": "Newton Street, Stretford, Trafford", "postcode": "M32 8LG", "telephone": "01442 296013", "type": "CRC", "area_name": "Trafford", "area_code": "E08000009", "marker-color": "#fc6721", "marker-size": "medium" }, "geometry": { "type": "Point", "coordinates": [ -2.307093, 53.444397 ] } },
{ "type": "Feature", "properties": { "name": "Tameside Probation Office", "address": "Ashton Office, Birchcroft, Crowthorne Road, Ashton-under-lyne", "postcode": "OL7 0DH", "telephone": "01613 594229", "type": "CRC", "area_name": "Tameside", "area_code": "E08000008", "marker-color": "#fc6721", "marker-size": "medium" }, "geometry": { "type": "Point", "coordinates": [ -2.113894, 53.481394 ] } },
{ "type": "Feature", "properties": { "name": "Wigan Spotlight", "address": "Coops Business Centre, 11 Dorning Street, Wigan", "postcode": "WN1 1HR", "telephone": "01942 828021", "type": "CRC", "area_name": "Wigan", "area_code": "E08000010", "marker-color": "#fc6721", "marker-size": "medium" }, "geometry": { "type": "Point", "coordinates": [ -2.635587, 53.545994 ] } },
{ "type": "Feature", "properties": { "name": "North West Divisional Office", "address": "5th floor, Oakland House, Talbot Road, Manchester", "postcode": "M16 0PQ", "telephone": "0300 0479000", "type": "NPS", "area_name": "Manchester", "area_code": "E08000003", "marker-color": "#fc6721", "marker-size": "medium" }, "geometry": { "type": "Point", "coordinates": [ -2.283606, 53.460186 ] } }
]
}
