{
"type": "FeatureCollection",
"crs": { "type": "name", "properties": { "name": "urn:ogc:def:crs:OGC:1.3:CRS84" } },
"features": [
{ "type": "Feature", "properties": { "name": "Betfred", "address": "100 George Street WA14 1RF", "ward": "Altrincham", "localAuthority": "Trafford" }, "geometry": { "type": "Point", "coordinates": [ -2.3513727, 53.3863497 ] } },
{ "type": "Feature", "properties": { "name": "Ladbrokes", "address": "2A-4 Regent Road WA14 1RE", "ward": "Altrincham", "localAuthority": "Trafford" }, "geometry": { "type": "Point", "coordinates": [ -2.3489495, 53.3876928 ] } },
{ "type": "Feature", "properties": { "name": "William Hill", "address": "85 Manchester Road WA14 4RJ", "ward": "Altrincham", "localAuthority": "Trafford" }, "geometry": { "type": "Point", "coordinates": [ -2.3523246, 53.396798 ] } },
{ "type": "Feature", "properties": { "name": "Coral Racing Ltd", "address": "8\/10 Green Lane M33 5PH", "ward": "Ashton upon Mersey", "localAuthority": "Trafford" }, "geometry": { "type": "Point", "coordinates": [ -2.341546, 53.42921 ] } },
{ "type": "Feature", "properties": { "name": "Betfred", "address": "8 Brooklands Road M33 3SQ", "ward": "Brooklands", "localAuthority": "Trafford" }, "geometry": { "type": "Point", "coordinates": [ -2.3252343, 53.4168361 ] } },
{ "type": "Feature", "properties": { "name": "William Hill", "address": "5 Partington Shopping Centre M31 4EL", "ward": "Bucklow-St Martins", "localAuthority": "Trafford" }, "geometry": { "type": "Point", "coordinates": [ -2.4255998, 53.4188142 ] } },
{ "type": "Feature", "properties": { "name": "Betfred", "address": "107 Ayres Road M16 7GS", "ward": "Clifford", "localAuthority": "Trafford" }, "geometry": { "type": "Point", "coordinates": [ -2.2681968, 53.458376 ] } },
{ "type": "Feature", "properties": { "name": "Betfred", "address": "175 Chorlton Road M16 7WS", "ward": "Clifford", "localAuthority": "Trafford" }, "geometry": { "type": "Point", "coordinates": [ -2.2580326, 53.4590315 ] } },
{ "type": "Feature", "properties": { "name": "William Hill", "address": "27 Chorlton Street M16 9HN", "ward": "Clifford", "localAuthority": "Trafford" }, "geometry": { "type": "Point", "coordinates": [ -2.2687535, 53.4637423 ] } },
{ "type": "Feature", "properties": { "name": "Betfred", "address": "9\/9A Lostock Road, Urmston M41 0SU", "ward": "Davyhulme East", "localAuthority": "Trafford" }, "geometry": { "type": "Point", "coordinates": [ -2.355999, 53.458276 ] } },
{ "type": "Feature", "properties": { "name": "Ladbrokes", "address": "9b Lostock Road, Urmston M41 0SU", "ward": "Davyhulme East", "localAuthority": "Trafford" }, "geometry": { "type": "Point", "coordinates": [ -2.3561603, 53.4583072 ] } },
{ "type": "Feature", "properties": { "name": "Coral Racing Ltd", "address": "6 Davyhulme Circle, Urmston M41 0SS", "ward": "Davyhulme East", "localAuthority": "Trafford" }, "geometry": { "type": "Point", "coordinates": [ -2.3566101, 53.457229 ] } },
{ "type": "Feature", "properties": { "name": "William Hill", "address": "13 Woodsend Circle, Urmston M41 8GY", "ward": "Davyhulme West", "localAuthority": "Trafford" }, "geometry": { "type": "Point", "coordinates": [ -2.3942203, 53.4527173 ] } },
{ "type": "Feature", "properties": { "name": "William Hill", "address": "Unit 4  Woodsend Circle, Flixton M41 8GY", "ward": "Davyhulme West", "localAuthority": "Trafford" }, "geometry": { "type": "Point", "coordinates": [ -2.393459, 53.452523 ] } },
{ "type": "Feature", "properties": { "name": "Betfred", "address": "890 Chester Road, Stretford M32 0PA", "ward": "Gorse Hill", "localAuthority": "Trafford" }, "geometry": { "type": "Point", "coordinates": [ -2.2989021, 53.4543995 ] } },
{ "type": "Feature", "properties": { "name": "Ladbrokes", "address": "676 Chester Road, Stretford M32 0SF", "ward": "Gorse Hill", "localAuthority": "Trafford" }, "geometry": { "type": "Point", "coordinates": [ -2.2881284, 53.4612387 ] } },
{ "type": "Feature", "properties": { "name": "Coral Racing Ltd", "address": "408 Barton Road, Stretford M32 9RW", "ward": "Gorse Hill", "localAuthority": "Trafford" }, "geometry": { "type": "Point", "coordinates": [ -2.3252604, 53.4543387 ] } },
{ "type": "Feature", "properties": { "name": "Betfred", "address": "34 Hale Road WA14 2EX", "ward": "Hale Central", "localAuthority": "Trafford" }, "geometry": { "type": "Point", "coordinates": [ -2.3485797, 53.3815943 ] } },
{ "type": "Feature", "properties": { "name": "Coral Racing Ltd", "address": "87 Great Stone Road, Stretford M32 8GR", "ward": "Longford", "localAuthority": "Trafford" }, "geometry": { "type": "Point", "coordinates": [ -2.2861085, 53.4528601 ] } },
{ "type": "Feature", "properties": { "name": "William Hill", "address": "5 Talbot Road, Old Trafford M16 0QT", "ward": "Longford", "localAuthority": "Trafford" }, "geometry": { "type": "Point", "coordinates": [ -2.2758461, 53.462047 ] } },
{ "type": "Feature", "properties": { "name": "Ladbrokes", "address": "41 School Road M33 7YE", "ward": "Priory", "localAuthority": "Trafford" }, "geometry": { "type": "Point", "coordinates": [ -2.3228165, 53.4249794 ] } },
{ "type": "Feature", "properties": { "name": "David Pluck Racing", "address": "12 Northenden Road M33 3BR", "ward": "Priory", "localAuthority": "Trafford" }, "geometry": { "type": "Point", "coordinates": [ -2.3169509, 53.4238156 ] } },
{ "type": "Feature", "properties": { "name": "Coral Racing Ltd", "address": "19A School Road M33 7XX", "ward": "Priory", "localAuthority": "Trafford" }, "geometry": { "type": "Point", "coordinates": [ -2.3211566, 53.4247841 ] } },
{ "type": "Feature", "properties": { "name": "William Hill", "address": "19C School Road M33 7XX", "ward": "Priory", "localAuthority": "Trafford" }, "geometry": { "type": "Point", "coordinates": [ -2.321041, 53.424744 ] } },
{ "type": "Feature", "properties": { "name": "Betfred", "address": "58 Coppice Avenue M33 4WB", "ward": "St Mary's", "localAuthority": "Trafford" }, "geometry": { "type": "Point", "coordinates": [ -2.3512242, 53.4145674 ] } },
{ "type": "Feature", "properties": { "name": "David Pluck Racing", "address": "141 Northenden Road M33 3HF", "ward": "Sale Moor", "localAuthority": "Trafford" }, "geometry": { "type": "Point", "coordinates": [ -2.3038403, 53.4198924 ] } },
{ "type": "Feature", "properties": { "name": "Coral Racing Ltd", "address": "384 Northenden Road M33 2PT", "ward": "Sale Moor", "localAuthority": "Trafford" }, "geometry": { "type": "Point", "coordinates": [ -2.2912701, 53.418803 ] } },
{ "type": "Feature", "properties": { "name": "William Hill", "address": "147-151 Northenden Road M33 2HS", "ward": "Sale Moor", "localAuthority": "Trafford" }, "geometry": { "type": "Point", "coordinates": [ -2.3032207, 53.4199374 ] } },
{ "type": "Feature", "properties": { "name": "Ladbrokes", "address": "Unit 123, Arndale Centre, Stretford M32 9BH", "ward": "Stretford", "localAuthority": "Trafford" }, "geometry": { "type": "Point", "coordinates": [ -2.3099387, 53.4451707 ] } },
{ "type": "Feature", "properties": { "name": "William Hill", "address": "28 Moss Road, Stretford M32 0AH", "ward": "Stretford", "localAuthority": "Trafford" }, "geometry": { "type": "Point", "coordinates": [ -2.318375, 53.4480874 ] } },
{ "type": "Feature", "properties": { "name": "Betfred", "address": "349 Stockport Road, Timperley WA15 7UG", "ward": "Timperley", "localAuthority": "Trafford" }, "geometry": { "type": "Point", "coordinates": [ -2.3192321, 53.3974458 ] } },
{ "type": "Feature", "properties": { "name": "Coral Racing Ltd", "address": "5A-7  Flixton Road M41 5AW", "ward": "Urmston", "localAuthority": "Trafford" }, "geometry": { "type": "Point", "coordinates": [ -2.3554583, 53.4483297 ] } },
{ "type": "Feature", "properties": { "name": "William Hill", "address": "Plot 3, Unit 18, Golden Way, M41 0NA", "ward": "Urmston", "localAuthority": "Trafford" }, "geometry": { "type": "Point", "coordinates": [ -2.354178, 53.449325 ] } },
{ "type": "Feature", "properties": { "name": "William Hill", "address": "256 Stockport Road, Timperley WA15 7UT", "ward": "Village", "localAuthority": "Trafford" }, "geometry": { "type": "Point", "coordinates": [ -2.3179081, 53.3974584 ] } }
]
}
