{
"type": "FeatureCollection",
"crs": { "type": "name", "properties": { "name": "urn:ogc:def:crs:OGC:1.3:CRS84" } },
"features": [
{ "type": "Feature", "properties": { "Name": "Genting Casinos UK Limited", "Activity": "Casino", "Address": "Genting Casino Bolton, Higher Bridge Street, Bolton", "Postcode": "BL1 2HA", "Area name": "Bolton", "Area code": "E0800001" }, "geometry": { "type": "Point", "coordinates": [ -2.428633, 53.583066 ] } },
{ "type": "Feature", "properties": { "Name": "Grosvenor Casinos Limited", "Activity": "Casino", "Address": "Bolton Grosvenor Casino, Moor Lane\/Ormrod St, Bolton", "Postcode": "BL3 5DJ", "Area name": "Bolton", "Area code": "E0800001" }, "geometry": { "type": "Point", "coordinates": [ -2.4334, 53.575272 ] } },
{ "type": "Feature", "properties": { "Name": "Grosvenor Casinos Limited", "Activity": "Adult Gaming Centre", "Address": "Grosvenor Casino-AGC, Ormrod Street, Bolton", "Postcode": "BL3 5DJ", "Area name": "Bolton", "Area code": "E0800001" }, "geometry": { "type": "Point", "coordinates": [ -2.4334, 53.575272 ] } },
{ "type": "Feature", "properties": { "Name": "Megabet UK Limited", "Activity": "Betting Shop", "Address": "Stan James, 2 Slater Street, Bolton", "Postcode": "BL4 9DS", "Area name": "Bolton", "Area code": "E0800001" }, "geometry": { "type": "Point", "coordinates": [ -2.394573, 53.547562 ] } },
{ "type": "Feature", "properties": { "Name": "Megabet UK Limited", "Activity": "Betting Shop", "Address": "Stan James, 29\/29A  Brackley Street, Farnworth, Bolton", "Postcode": "BL4 9DS", "Area name": "Bolton", "Area code": "E0800001" }, "geometry": { "type": "Point", "coordinates": [ -2.394573, 53.547562 ] } },
{ "type": "Feature", "properties": { "Name": "Done Brothers (Cash Betting) Limited", "Activity": "Betting Shop", "Address": "Betfred, 1 Derwent Road, Farnworth, Bolton", "Postcode": "BL4 0QE", "Area name": "Bolton", "Area code": "E0800001" }, "geometry": { "type": "Point", "coordinates": [ -2.429334, 53.546409 ] } },
{ "type": "Feature", "properties": { "Name": "Done Brothers (Cash Betting) Limited", "Activity": "Betting Shop", "Address": "Betfred, 1 Slater Street, Farnworth, Bolton", "Postcode": "BL1 2HL", "Area name": "Bolton", "Area code": "E0800001" }, "geometry": { "type": "Point", "coordinates": [ -2.430445, 53.585954 ] } },
{ "type": "Feature", "properties": { "Name": "Done Brothers (Cash Betting) Limited", "Activity": "Betting Shop", "Address": "Betfred, 12 Deansgate, Bolton", "Postcode": "BL1 1BR", "Area name": "Bolton", "Area code": "E0800001" }, "geometry": { "type": "Point", "coordinates": [ -2.427438, 53.579924 ] } },
{ "type": "Feature", "properties": { "Name": "Done Brothers (Cash Betting) Limited", "Activity": "Betting Shop", "Address": "Betfred, 124 Market Street, Farnworth, Bolton", "Postcode": "BL4 9AE", "Area name": "Bolton", "Area code": "E0800001" }, "geometry": { "type": "Point", "coordinates": [ -2.393479, 53.548393 ] } },
{ "type": "Feature", "properties": { "Name": "Done Brothers (Cash Betting) Limited", "Activity": "Betting Shop", "Address": "Betfred, 20 Blackhorse Street, Blackrod, Bolton", "Postcode": "BL6 5EW", "Area name": "Bolton", "Area code": "E0800001" }, "geometry": { "type": "Point", "coordinates": [ -2.587262, 53.594922 ] } },
{ "type": "Feature", "properties": { "Name": "Done Brothers (Cash Betting) Limited", "Activity": "Betting Shop", "Address": "Betfred, 25 Deansgate, Bolton", "Postcode": "BL1 1HG", "Area name": "Bolton", "Area code": "E0800001" }, "geometry": { "type": "Point", "coordinates": [ -2.428068, 53.5795 ] } },
{ "type": "Feature", "properties": { "Name": "Done Brothers (Cash Betting) Limited", "Activity": "Betting Shop", "Address": "Betfred, 26 Manchester Road, Bolton", "Postcode": "BL4 8NZ", "Area name": "Bolton", "Area code": "E0800001" }, "geometry": { "type": "Point", "coordinates": [ -2.37326, 53.538642 ] } },
{ "type": "Feature", "properties": { "Name": "Done Brothers (Cash Betting) Limited", "Activity": "Betting Shop", "Address": "Betfred, 29-31 Winter Hey Lane, Horwich, Bolton", "Postcode": "BL6 7AD", "Area name": "Bolton", "Area code": "E0800001" }, "geometry": { "type": "Point", "coordinates": [ -2.547054, 53.599391 ] } },
{ "type": "Feature", "properties": { "Name": "Done Brothers (Cash Betting) Limited", "Activity": "Betting Shop", "Address": "Betfred, 33-35 Newport Street, Bolton", "Postcode": "BL1 1NE", "Area name": "Bolton", "Area code": "E0800001" }, "geometry": { "type": "Point", "coordinates": [ -2.428875, 53.577151 ] } },
{ "type": "Feature", "properties": { "Name": "Done Brothers (Cash Betting) Limited", "Activity": "Betting Shop", "Address": "Betfred, 425-427 Wigan Road, Bolton", "Postcode": "BL3 4QJ", "Area name": "Bolton", "Area code": "E0800001" }, "geometry": { "type": "Point", "coordinates": [ -2.467131, 53.566203 ] } },
{ "type": "Feature", "properties": { "Name": "Done Brothers (Cash Betting) Limited", "Activity": "Betting Shop", "Address": "Betfred, 472-476 Halliwell Road, Bolton", "Postcode": "BL1 8AN", "Area name": "Bolton", "Area code": "E0800001" }, "geometry": { "type": "Point", "coordinates": [ -2.443978, 53.594479 ] } },
{ "type": "Feature", "properties": { "Name": "Done Brothers (Cash Betting) Limited", "Activity": "Betting Shop", "Address": "Betfred, 57 Market Street, Bolton", "Postcode": "BL5 3AG", "Area name": "Bolton", "Area code": "E0800001" }, "geometry": { "type": "Point", "coordinates": [ -2.522222, 53.548736 ] } },
{ "type": "Feature", "properties": { "Name": "Done Brothers (Cash Betting) Limited", "Activity": "Betting Shop", "Address": "Betfred, 86 St. Helens Road, Bolton", "Postcode": "BL3 3NP", "Area name": "Bolton", "Area code": "E0800001" }, "geometry": { "type": "Point", "coordinates": [ -2.448229, 53.564937 ] } },
{ "type": "Feature", "properties": { "Name": "Done Brothers (Cash Betting) Limited", "Activity": "Betting Shop", "Address": "Betfred, Market St\/Foundry Street, Little Lever, Bolton", "Postcode": "BL3 1HH", "Area name": "Bolton", "Area code": "E0800001" }, "geometry": { "type": "Point", "coordinates": [ -2.371957, 53.562266 ] } },
{ "type": "Feature", "properties": { "Name": "Done Brothers (Cash Betting) Limited", "Activity": "Betting Shop", "Address": "Betfred, Unit 1, 192 Manchester Road, Kearsley, Bolton", "Postcode": "BL4 8QR", "Area name": "Bolton", "Area code": "E0800001" }, "geometry": { "type": "Point", "coordinates": [ -2.368796, 53.537432 ] } },
{ "type": "Feature", "properties": { "Name": "Done Brothers (Cash Betting) Limited", "Activity": "Betting Shop", "Address": "Betfred, Unit 3,16-22 Oxford Street, Bolton", "Postcode": "BL1 1RF", "Area name": "Bolton", "Area code": "E0800001" }, "geometry": { "type": "Point", "coordinates": [ -2.429924, 53.579259 ] } },
{ "type": "Feature", "properties": { "Name": "Talarius Limited", "Activity": "Adult Gaming Centre", "Address": "Quicksilver, 57A-59 Newport Street, Bolton", "Postcode": "BL1 1NE", "Area name": "Bolton", "Area code": "E0800001" }, "geometry": { "type": "Point", "coordinates": [ -2.428875, 53.577151 ] } },
{ "type": "Feature", "properties": { "Name": "Summit Leisure (Market St) Limited", "Activity": "Adult Gaming Centre", "Address": "Shaws Amusements, 18-22 Market Street, Bolton", "Postcode": "BL1 1BU", "Area name": "Bolton", "Area code": "E0800001" }, "geometry": { "type": "Point", "coordinates": [ -2.42962, 53.579081 ] } },
{ "type": "Feature", "properties": { "Name": "Summit Leisure (Market St) Limited", "Activity": "Adult Gaming Centre", "Address": "Shaws Amusements, 76-78 Deansgate, Bolton", "Postcode": "BL1 1BD", "Area name": "Bolton", "Area code": "E0800001" }, "geometry": { "type": "Point", "coordinates": [ -2.431692, 53.579574 ] } },
{ "type": "Feature", "properties": { "Name": "Ladbrokes Betting & Gaming Limited", "Activity": "Betting Shop", "Address": "Ladbrokes, 13 Belmont Road, Bolton", "Postcode": "BL1 7AF", "Area name": "Bolton", "Area code": "E0800001" }, "geometry": { "type": "Point", "coordinates": [ -2.433279, 53.601646 ] } },
{ "type": "Feature", "properties": { "Name": "Ladbrokes Betting & Gaming Limited", "Activity": "Betting Shop", "Address": "Ladbrokes, 147-151 Tonge Moor Road, Bolton", "Postcode": "BL2 2HR", "Area name": "Bolton", "Area code": "E0800001" }, "geometry": { "type": "Point", "coordinates": [ -2.412729, 53.589387 ] } },
{ "type": "Feature", "properties": { "Name": "Ladbrokes Betting & Gaming Limited", "Activity": "Betting Shop", "Address": "Ladbrokes, 171-173 St. Helens Road, Bolton", "Postcode": "BL3 3PS", "Area name": "Bolton", "Area code": "E0800001" }, "geometry": { "type": "Point", "coordinates": [ -2.451334, 53.563019 ] } },
{ "type": "Feature", "properties": { "Name": "Ladbrokes Betting & Gaming Limited", "Activity": "Betting Shop", "Address": "Ladbrokes, 196 Deane Road, Bolton", "Postcode": "BL3 5DP", "Area name": "Bolton", "Area code": "E0800001" }, "geometry": { "type": "Point", "coordinates": [ -2.444008, 53.573058 ] } },
{ "type": "Feature", "properties": { "Name": "Ladbrokes Betting & Gaming Limited", "Activity": "Betting Shop", "Address": "Ladbrokes, 2 -4 Norris Street, Farnworth, Bolton", "Postcode": "BL4 9HG", "Area name": "Bolton", "Area code": "E0800001" }, "geometry": { "type": "Point", "coordinates": [ -2.398216, 53.544935 ] } },
{ "type": "Feature", "properties": { "Name": "Ladbrokes Betting & Gaming Limited", "Activity": "Betting Shop", "Address": "Ladbrokes, 223 Rishton Lane, Bolton", "Postcode": "BL3 2BN", "Area name": "Bolton", "Area code": "E0800001" }, "geometry": { "type": "Point", "coordinates": [ -2.428019, 53.562824 ] } },
{ "type": "Feature", "properties": { "Name": "Ladbrokes Betting & Gaming Limited", "Activity": "Betting Shop", "Address": "Ladbrokes, 224-226 Chorley Old Road, Bolton", "Postcode": "BL1 3BW", "Area name": "Bolton", "Area code": "E0800001" }, "geometry": { "type": "Point", "coordinates": [ -2.449811, 53.586008 ] } },
{ "type": "Feature", "properties": { "Name": "Ladbrokes Betting & Gaming Limited", "Activity": "Betting Shop", "Address": "Ladbrokes, 34 Newport Street, Bolton", "Postcode": "BL1 1NB", "Area name": "Bolton", "Area code": "E0800001" }, "geometry": { "type": "Point", "coordinates": [ -2.42972, 53.577031 ] } },
{ "type": "Feature", "properties": { "Name": "Ladbrokes Betting & Gaming Limited", "Activity": "Betting Shop", "Address": "Ladbrokes, 36 Lee Lane, Horwich, Bolton", "Postcode": "BL6 7AE", "Area name": "Bolton", "Area code": "E0800001" }, "geometry": { "type": "Point", "coordinates": [ -2.547067, 53.600335 ] } },
{ "type": "Feature", "properties": { "Name": "Ladbrokes Betting & Gaming Limited", "Activity": "Betting Shop", "Address": "Ladbrokes, 36-38 Higher Market Street, Farnworth, Bolton", "Postcode": "BL4 9AJ", "Area name": "Bolton", "Area code": "E0800001" }, "geometry": { "type": "Point", "coordinates": [ -2.392043, 53.546519 ] } },
{ "type": "Feature", "properties": { "Name": "Ladbrokes Betting & Gaming Limited", "Activity": "Betting Shop", "Address": "Ladbrokes, 45-47 Deansgate, Bolton", "Postcode": "BL1 1HQ", "Area name": "Bolton", "Area code": "E0800001" }, "geometry": { "type": "Point", "coordinates": [ -2.429773, 53.579491 ] } },
{ "type": "Feature", "properties": { "Name": "Luxury Leisure", "Activity": "Adult Gaming Centre", "Address": "Nobles Amusements, 30 Newport Street, Bolton", "Postcode": "BL1 1NB", "Area name": "Bolton", "Area code": "E0800001" }, "geometry": { "type": "Point", "coordinates": [ -2.42972, 53.577031 ] } },
{ "type": "Feature", "properties": { "Name": "Coral Racing Limited", "Activity": "Betting Shop", "Address": "Coral Racing Ltd, 290-292 Bury Road, Bolton", "Postcode": "BL2 6AY", "Area name": "Bolton", "Area code": "E0800001" }, "geometry": { "type": "Point", "coordinates": [ -2.406176, 53.580331 ] } },
{ "type": "Feature", "properties": { "Name": "Coral Racing Limited", "Activity": "Betting Shop", "Address": "Coral Racing Ltd, 322 Crompton Way, Bolton", "Postcode": "BL2 2NE", "Area name": "Bolton", "Area code": "E0800001" }, "geometry": { "type": "Point", "coordinates": [ -2.406998, 53.591914 ] } },
{ "type": "Feature", "properties": { "Name": "Coral Racing Limited", "Activity": "Betting Shop", "Address": "Coral Racing Ltd, 806 Bury Road, Bolton", "Postcode": "BL2 6PA", "Area name": "Bolton", "Area code": "E0800001" }, "geometry": { "type": "Point", "coordinates": [ -2.385653, 53.580678 ] } },
{ "type": "Feature", "properties": { "Name": "Mecca Bingo Limited", "Activity": "Bingo", "Address": "Mecca Bingo, Breightmet Fold Lane, Bolton", "Postcode": "BL2 6PP", "Area name": "Bolton", "Area code": "E0800001" }, "geometry": { "type": "Point", "coordinates": [ -2.382316, 53.582459 ] } },
{ "type": "Feature", "properties": { "Name": "Mecca Bingo Limited", "Activity": "Bingo", "Address": "Mecca Bingo, Moor Lane, Bolton", "Postcode": "BL3 5DJ", "Area name": "Bolton", "Area code": "E0800001" }, "geometry": { "type": "Point", "coordinates": [ -2.4334, 53.575272 ] } },
{ "type": "Feature", "properties": { "Name": "William Hill Organization Limited", "Activity": "Betting Shop", "Address": "William Hill, 10 Brackley Street, Bolton", "Postcode": "BL4 9DR", "Area name": "Bolton", "Area code": "E0800001" }, "geometry": { "type": "Point", "coordinates": [ -2.394469, 53.547947 ] } },
{ "type": "Feature", "properties": { "Name": "William Hill Organization Limited", "Activity": "Betting Shop", "Address": "William Hill, 22 Glynne Street, Farnworth, Bolton", "Postcode": "BL4 7DY", "Area name": "Bolton", "Area code": "E0800001" }, "geometry": { "type": "Point", "coordinates": [ -2.404155, 53.550515 ] } },
{ "type": "Feature", "properties": { "Name": "William Hill Organization Limited", "Activity": "Betting Shop", "Address": "William Hill, 22 Newport Street, Bolton", "Postcode": "BL1 1NB", "Area name": "Bolton", "Area code": "E0800001" }, "geometry": { "type": "Point", "coordinates": [ -2.42972, 53.577031 ] } },
{ "type": "Feature", "properties": { "Name": "William Hill Organization Limited", "Activity": "Betting Shop", "Address": "William Hill, 227\/229 Halliwell Road, Bolton", "Postcode": "BL1 3NT", "Area name": "Bolton", "Area code": "E0800001" }, "geometry": { "type": "Point", "coordinates": [ -2.436881, 53.591953 ] } },
{ "type": "Feature", "properties": { "Name": "William Hill Organization Limited", "Activity": "Betting Shop", "Address": "William Hill, 256-258 Chorley Old Road, Bolton", "Postcode": "BL1 4JE", "Area name": "Bolton", "Area code": "E0800001" }, "geometry": { "type": "Point", "coordinates": [ -2.451222, 53.586533 ] } },
{ "type": "Feature", "properties": { "Name": "William Hill Organization Limited", "Activity": "Betting Shop", "Address": "William Hill, 279 Rishton Lane, Bolton", "Postcode": "BL3 2EH", "Area name": "Bolton", "Area code": "E0800001" }, "geometry": { "type": "Point", "coordinates": [ -2.428829, 53.560657 ] } },
{ "type": "Feature", "properties": { "Name": "William Hill Organization Limited", "Activity": "Betting Shop", "Address": "William Hill, 32 Market Street, Westhoughton, Bolton", "Postcode": "BL5 3AN", "Area name": "Bolton", "Area code": "E0800001" }, "geometry": { "type": "Point", "coordinates": [ -2.521108, 53.548929 ] } },
{ "type": "Feature", "properties": { "Name": "William Hill Organization Limited", "Activity": "Betting Shop", "Address": "William Hill, 5 Market Street, Little Lever, Bolton", "Postcode": "BL3 1HH", "Area name": "Bolton", "Area code": "E0800001" }, "geometry": { "type": "Point", "coordinates": [ -2.371957, 53.562266 ] } },
{ "type": "Feature", "properties": { "Name": "William Hill Organization Limited", "Activity": "Betting Shop", "Address": "William Hill, 87 Glynne Street, Farnworth, Bolton", "Postcode": "BL4 7DH", "Area name": "Bolton", "Area code": "E0800001" }, "geometry": { "type": "Point", "coordinates": [ -2.406921, 53.549409 ] } },
{ "type": "Feature", "properties": { "Name": "Tote (Successor Company) Limited", "Activity": "Betting Shop", "Address": "Totesport, 150 Blackburn Road, Bolton", "Postcode": "BL1 8DR", "Area name": "Bolton", "Area code": "E0800001" }, "geometry": { "type": "Point", "coordinates": [ -2.430573, 53.591158 ] } },
{ "type": "Feature", "properties": { "Name": "Cashino Gaming Limited", "Activity": "Bingo", "Address": "Cashino Gaming Limited, 47-49 Brackley Street, Farnworth, Bolton", "Postcode": "BL4 9DS", "Area name": "Bolton", "Area code": "E0800001" }, "geometry": { "type": "Point", "coordinates": [ -2.394573, 53.547562 ] } },
{ "type": "Feature", "properties": { "Name": "Bolton Wanderers Development Association (Chorley) Limited", "Activity": "Betting Shop", "Address": "Bolton Wanderers Development Association (Chorley) Limited, Bolton Wanderers Football Club, Macron Staduim, Burnden Way,Lostock, Bolton", "Postcode": "BL6 6JW", "Area name": "Bolton", "Area code": "E0800001" }, "geometry": { "type": "Point", "coordinates": [ -2.536279, 53.580169 ] } },
{ "type": "Feature", "properties": { "Name": "Rank Leisure Limited", "Activity": "Adult Gaming Centre", "Address": "Rank Leisure, Agc 1, Breightmet Fold Lane, Bolton", "Postcode": "BL2 6PP", "Area name": "Bolton", "Area code": "E0800001" }, "geometry": { "type": "Point", "coordinates": [ -2.382316, 53.582459 ] } },
{ "type": "Feature", "properties": { "Name": "Done Brothers (Cash Betting) Limited", "Activity": "Betting Shop", "Address": "Betfred, 11 Bridge Street, Ramsbottom, Bury", "Postcode": "BL0 9AB", "Area name": "Bury", "Area code": "E0800002" }, "geometry": { "type": "Point", "coordinates": [ -2.314923, 53.648025 ] } },
{ "type": "Feature", "properties": { "Name": "Done Brothers (Cash Betting) Limited", "Activity": "Betting Shop", "Address": "Betfred, 130 Water Street, Radcliffe, Manchester", "Postcode": "M26 4BE", "Area name": "Bury", "Area code": "E0800002" }, "geometry": { "type": "Point", "coordinates": [ -2.334585, 53.563151 ] } },
{ "type": "Feature", "properties": { "Name": "Done Brothers (Cash Betting) Limited", "Activity": "Betting Shop", "Address": "Betfred, 135 Bury New Road, Prestwich, Manchester", "Postcode": "M25 9NX", "Area name": "Bury", "Area code": "E0800002" }, "geometry": { "type": "Point", "coordinates": [ -2.276789, 53.523625 ] } },
{ "type": "Feature", "properties": { "Name": "Done Brothers (Cash Betting) Limited", "Activity": "Betting Shop", "Address": "Betfred, 168 Walmersley Road, Bury", "Postcode": "BL9 6LL", "Area name": "Bury", "Area code": "E0800002" }, "geometry": { "type": "Point", "coordinates": [ -2.290648, 53.602437 ] } },
{ "type": "Feature", "properties": { "Name": "Done Brothers (Cash Betting) Limited", "Activity": "Betting Shop", "Address": "Betfred, 203 Manchester Road, Bury", "Postcode": "BL9 9HL", "Area name": "Bury", "Area code": "E0800002" }, "geometry": { "type": "Point", "coordinates": [ -2.298369, 53.582968 ] } },
{ "type": "Feature", "properties": { "Name": "Done Brothers (Cash Betting) Limited", "Activity": "Betting Shop", "Address": "Betfred, 22 Longfield Centre, Prestwich, Manchester", "Postcode": "M25 1AY", "Area name": "Bury", "Area code": "E0800002" }, "geometry": { "type": "Point", "coordinates": [ -2.284273, 53.532955 ] } },
{ "type": "Feature", "properties": { "Name": "Done Brothers (Cash Betting) Limited", "Activity": "Betting Shop", "Address": "Betfred, 30 Haymarket Street, Bury", "Postcode": "BL9 0AY", "Area name": "Bury", "Area code": "E0800002" }, "geometry": { "type": "Point", "coordinates": [ -2.297905, 53.592101 ] } },
{ "type": "Feature", "properties": { "Name": "Done Brothers (Cash Betting) Limited", "Activity": "Betting Shop", "Address": "Betfred, 322 Tottington Road, Bury", "Postcode": "BL8 1TA", "Area name": "Bury", "Area code": "E0800002" }, "geometry": { "type": "Point", "coordinates": [ -2.321905, 53.603175 ] } },
{ "type": "Feature", "properties": { "Name": "Done Brothers (Cash Betting) Limited", "Activity": "Betting Shop", "Address": "Betfred, 35 Market Street, Bury", "Postcode": "BL9 0BL", "Area name": "Bury", "Area code": "E0800002" }, "geometry": { "type": "Point", "coordinates": [ -2.296606, 53.592185 ] } },
{ "type": "Feature", "properties": { "Name": "Done Brothers (Cash Betting) Limited", "Activity": "Betting Shop", "Address": "Betfred, 417 Bury Old Road, Prestwich, Manchester", "Postcode": "M25 1PS", "Area name": "Bury", "Area code": "E0800002" }, "geometry": { "type": "Point", "coordinates": [ -2.27138, 53.536284 ] } },
{ "type": "Feature", "properties": { "Name": "Done Brothers (Cash Betting) Limited", "Activity": "Betting Shop", "Address": "Betfred, 7 Elms Square, Whitefield, Manchester", "Postcode": "M45 7TA", "Area name": "Bury", "Area code": "E0800002" }, "geometry": { "type": "Point", "coordinates": [ -2.296255, 53.553166 ] } },
{ "type": "Feature", "properties": { "Name": "Done Brothers (Cash Betting) Limited", "Activity": "Betting Shop", "Address": "Betfred, 7 Silver Street, Bury", "Postcode": "BL9 0EU", "Area name": "Bury", "Area code": "E0800002" }, "geometry": { "type": "Point", "coordinates": [ -2.298137, 53.593177 ] } },
{ "type": "Feature", "properties": { "Name": "Done Brothers (Cash Betting) Limited", "Activity": "Betting Shop", "Address": "Betfred, 88 Rochdale Road, Bury", "Postcode": "BL9 7AY", "Area name": "Bury", "Area code": "E0800002" }, "geometry": { "type": "Point", "coordinates": [ -2.286667, 53.592908 ] } },
{ "type": "Feature", "properties": { "Name": "Done Brothers (Cash Betting) Limited", "Activity": "Betting Shop", "Address": "Betfred, Unit 5 Radius Devt Longfield Centre, Prestwich, Manchester", "Postcode": "M25 1AY", "Area name": "Bury", "Area code": "E0800002" }, "geometry": { "type": "Point", "coordinates": [ -2.284273, 53.532955 ] } },
{ "type": "Feature", "properties": { "Name": "Done Brothers (Cash Betting) Limited", "Activity": "Betting Shop", "Address": "Unit 3 Apex Centre, Water Street, Radcliffe, Manchester", "Postcode": "M26 4DF", "Area name": "Bury", "Area code": "E0800002" }, "geometry": { "type": "Point", "coordinates": [ -2.331297, 53.563922 ] } },
{ "type": "Feature", "properties": { "Name": "Ladbrokes Betting & Gaming Limited", "Activity": "Betting Shop", "Address": "Ladbrokes, 35 Bolton Street, Ramsbottom, Bury", "Postcode": "BL0 9HU", "Area name": "Bury", "Area code": "E0800002" }, "geometry": { "type": "Point", "coordinates": [ -2.318537, 53.647577 ] } },
{ "type": "Feature", "properties": { "Name": "Ladbrokes Betting & Gaming Limited", "Activity": "Betting Shop", "Address": "Ladbrokes, 36 Stand Lane, Radcliffe, Manchester", "Postcode": "M26 1LJ", "Area name": "Bury", "Area code": "E0800002" }, "geometry": { "type": "Point", "coordinates": [ -2.323355, 53.557859 ] } },
{ "type": "Feature", "properties": { "Name": "Ladbrokes Betting & Gaming Limited", "Activity": "Betting Shop", "Address": "Ladbrokes, 48 Bury New Road, Prestwich, Manchester", "Postcode": "M25 0JU", "Area name": "Bury", "Area code": "E0800002" }, "geometry": { "type": "Point", "coordinates": [ -2.271845, 53.519456 ] } },
{ "type": "Feature", "properties": { "Name": "Ladbrokes Betting & Gaming Limited", "Activity": "Betting Shop", "Address": "Ladbrokes, 7 Albert Place, Whitefield, Manchester", "Postcode": "M45 8NE", "Area name": "Bury", "Area code": "E0800002" }, "geometry": { "type": "Point", "coordinates": [ -2.277091, 53.551353 ] } },
{ "type": "Feature", "properties": { "Name": "Ladbrokes Betting & Gaming Limited", "Activity": "Betting Shop", "Address": "Ladbrokes, Unit 4, Ribble Drive, Whitefield, Manchester", "Postcode": "M45 8AJ", "Area name": "Bury", "Area code": "E0800002" }, "geometry": { "type": "Point", "coordinates": [ -2.27629, 53.551497 ] } },
{ "type": "Feature", "properties": { "Name": "Luxury Leisure", "Activity": "Adult Gaming Centre", "Address": "Nobles Amusements, 13 The Rock, Bury", "Postcode": "BL9 0JP", "Area name": "Bury", "Area code": "E0800002" }, "geometry": { "type": "Point", "coordinates": [ -2.295864, 53.594057 ] } },
{ "type": "Feature", "properties": { "Name": "Luxury Leisure", "Activity": "Adult Gaming Centre", "Address": "Nobles Amusements, 47 Market Street, Bury", "Postcode": "BL9 0BH", "Area name": "Bury", "Area code": "E0800002" }, "geometry": { "type": "Point", "coordinates": [ -2.295889, 53.591171 ] } },
{ "type": "Feature", "properties": { "Name": "David Seldon Scott & Siobhan Mercia Ellen Corolina Scott", "Activity": "Adult Gaming Centre", "Address": "Limelight Amusements, 9 Dale Street, Radcliffe, Manchester", "Postcode": "M26 1AB", "Area name": "Bury", "Area code": "E0800002" }, "geometry": { "type": "Point", "coordinates": [ -2.325793, 53.558877 ] } },
{ "type": "Feature", "properties": { "Name": "Coral Racing Limited", "Activity": "Betting Shop", "Address": "Coral, Unit 3 Princess Parade, Bury", "Postcode": "BL9 0QL", "Area name": "Bury", "Area code": "E0800002" }, "geometry": { "type": "Point", "coordinates": [ -2.295258, 53.591649 ] } },
{ "type": "Feature", "properties": { "Name": "Coral Racing Limited", "Activity": "Betting Shop", "Address": "Coral Racing Ltd, 105 The Rock, Bury", "Postcode": "BL9 0NB", "Area name": "Bury", "Area code": "E0800002" }, "geometry": { "type": "Point", "coordinates": [ -2.294402, 53.594644 ] } },
{ "type": "Feature", "properties": { "Name": "Coral Racing Limited", "Activity": "Betting Shop", "Address": "Coral Racing Ltd, 119-121 Radcliffe Road, Bury", "Postcode": "BL9 9LD", "Area name": "Bury", "Area code": "E0800002" }, "geometry": { "type": "Point", "coordinates": [ -2.303095, 53.580619 ] } },
{ "type": "Feature", "properties": { "Name": "Coral Racing Limited", "Activity": "Betting Shop", "Address": "Coral Racing Ltd, 2 The Rock, Bury", "Postcode": "BL9 0NT", "Area name": "Bury", "Area code": "E0800002" }, "geometry": { "type": "Point", "coordinates": [ -2.296616, 53.593596 ] } },
{ "type": "Feature", "properties": { "Name": "Coral Racing Limited", "Activity": "Betting Shop", "Address": "Coral Racing Ltd, 319 Bolton Road, Bury", "Postcode": "BL8 2PD", "Area name": "Bury", "Area code": "E0800002" }, "geometry": { "type": "Point", "coordinates": [ -2.319542, 53.588459 ] } },
{ "type": "Feature", "properties": { "Name": "Coral Racing Limited", "Activity": "Betting Shop", "Address": "Coral Racing Ltd, 384 Parr Lane, Bury", "Postcode": "BL9 8LU", "Area name": "Bury", "Area code": "E0800002" }, "geometry": { "type": "Point", "coordinates": [ -2.280896, 53.556439 ] } },
{ "type": "Feature", "properties": { "Name": "Coral Racing Limited", "Activity": "Betting Shop", "Address": "Coral Racing Ltd, 462 Bury New Road, Prestwich, Manchester", "Postcode": "M25 1AX", "Area name": "Bury", "Area code": "E0800002" }, "geometry": { "type": "Point", "coordinates": [ -2.285044, 53.533169 ] } },
{ "type": "Feature", "properties": { "Name": "William Hill Organization Limited", "Activity": "Betting Shop", "Address": "William Hill, 1\/3 Market Place, Bury", "Postcode": "BL9 0LD", "Area name": "Bury", "Area code": "E0800002" }, "geometry": { "type": "Point", "coordinates": [ -2.297355, 53.593469 ] } },
{ "type": "Feature", "properties": { "Name": "William Hill Organization Limited", "Activity": "Betting Shop", "Address": "William Hill, 159 Ainsworth Road, Radcliffe, Manchester", "Postcode": "M26 4FD", "Area name": "Bury", "Area code": "E0800002" }, "geometry": { "type": "Point", "coordinates": [ -2.335751, 53.567454 ] } },
{ "type": "Feature", "properties": { "Name": "William Hill Organization Limited", "Activity": "Betting Shop", "Address": "William Hill, 17 Blackburn Street, Radcliffe, Manchester", "Postcode": "M26 1NN", "Area name": "Bury", "Area code": "E0800002" }, "geometry": { "type": "Point", "coordinates": [ -2.325657, 53.558922 ] } },
{ "type": "Feature", "properties": { "Name": "William Hill Organization Limited", "Activity": "Betting Shop", "Address": "William Hill, 287 Middleton Road, Manchester", "Postcode": "M8 4LY", "Area name": "Bury", "Area code": "E0800002" }, "geometry": { "type": "Point", "coordinates": [ -2.247193, 53.52831 ] } },
{ "type": "Feature", "properties": { "Name": "William Hill Organization Limited", "Activity": "Betting Shop", "Address": "William Hill, 4 Princess Parade, Bury", "Postcode": "BL9 0QL", "Area name": "Bury", "Area code": "E0800002" }, "geometry": { "type": "Point", "coordinates": [ -2.295258, 53.591649 ] } },
{ "type": "Feature", "properties": { "Name": "Tote (Successor Company) Limited", "Activity": "Betting Shop", "Address": "Totesport, 58 Moorgate, Bury", "Postcode": "BL9 7AF", "Area name": "Bury", "Area code": "E0800002" }, "geometry": { "type": "Point", "coordinates": [ -2.287724, 53.596836 ] } },
{ "type": "Feature", "properties": { "Name": "Cheshire Sporting Club Limited", "Activity": "Casino", "Address": "Cheshire Sporting Club Limited, Bloom Street Casino, 11 Bloom Street, Manchester", "Postcode": "M1 3HS", "Area name": "Manchester", "Area code": "E0800003" }, "geometry": { "type": "Point", "coordinates": [ -2.235812, 53.478231 ] } },
{ "type": "Feature", "properties": { "Name": "Cheshire Sporting Club Limited", "Activity": "Casino", "Address": "Cheshire Sporting Club Limited, Dickinson House, Dickinson Street, Manchester", "Postcode": "M1 4LF", "Area name": "Manchester", "Area code": "E0800003" }, "geometry": { "type": "Point", "coordinates": [ -2.240634, 53.476179 ] } },
{ "type": "Feature", "properties": { "Name": "Genting Casinos UK Limited", "Activity": "Casino", "Address": "Genting Casino Manchester, 110-114 Portland Street (premisess licence number 099902), Manchester", "Postcode": "M1 4RL", "Area name": "Manchester", "Area code": "E0800003" }, "geometry": { "type": "Point", "coordinates": [ -2.242294, 53.4765 ] } },
{ "type": "Feature", "properties": { "Name": "Genting Casinos UK Limited", "Activity": "Casino", "Address": "Manchester Mint, 110-114 Portland Street (premisess licence number 099904), Manchester", "Postcode": "M1 6DE", "Area name": "Manchester", "Area code": "E0800003" }, "geometry": { "type": "Point", "coordinates": [ -2.239979, 53.477081 ] } },
{ "type": "Feature", "properties": { "Name": "I Lewis (Commission Agents) Limited", "Activity": "Betting Shop", "Address": "Lewis Bookmaker, Hall Lane, Manchester", "Postcode": "M23 1AQ", "Area name": "Manchester", "Area code": "E0800003" }, "geometry": { "type": "Point", "coordinates": [ -2.277063, 53.399024 ] } },
{ "type": "Feature", "properties": { "Name": "I Lewis (Commission Agents) Limited", "Activity": "Betting Shop", "Address": "Lewis Bookmakers, 43 Peel Hall Road, Manchester", "Postcode": "M22 5DW", "Area name": "Manchester", "Area code": "E0800003" }, "geometry": { "type": "Point", "coordinates": [ -2.248039, 53.381524 ] } },
{ "type": "Feature", "properties": { "Name": "I Lewis (Commission Agents) Limited", "Activity": "Betting Shop", "Address": "Lewis Bookmakers, 48A Faulkner Street, Manchester", "Postcode": "M1 4FH", "Area name": "Manchester", "Area code": "E0800003" }, "geometry": { "type": "Point", "coordinates": [ -2.240407, 53.478195 ] } },
{ "type": "Feature", "properties": { "Name": "I Lewis (Commission Agents) Limited", "Activity": "Betting Shop", "Address": "Lewis Bookmakers, 585B Wilbraham Road, Manchester", "Postcode": "M21 9AG", "Area name": "Manchester", "Area code": "E0800003" }, "geometry": { "type": "Point", "coordinates": [ -2.285594, 53.437881 ] } },
{ "type": "Feature", "properties": { "Name": "Grosvenor Casinos Limited", "Activity": "Casino", "Address": "Didsbury Grosvenor Casino, Parrswood Entertainment Centre, Kingsway, Wilmslow Road, Manchester", "Postcode": "M20 5PG", "Area name": "Manchester", "Area code": "E0800003" }, "geometry": { "type": "Point", "coordinates": [ -2.219511, 53.408664 ] } },
{ "type": "Feature", "properties": { "Name": "Grosvenor Casinos Limited", "Activity": "Casino", "Address": "Grosvenor Casino, 35-39 George Street (or may be 35-39A), Manchester", "Postcode": "M1 4HQ", "Area name": "Manchester", "Area code": "E0800003" }, "geometry": { "type": "Point", "coordinates": [ -2.240782, 53.478381 ] } },
{ "type": "Feature", "properties": { "Name": "Grosvenor Casinos Limited", "Activity": "Casino", "Address": "Manchester Bury New Road Grosvenor Casino, 2 Ramsgate Street, Manchester", "Postcode": "M8 9SG", "Area name": "Manchester", "Area code": "E0800003" }, "geometry": { "type": "Point", "coordinates": [ -2.253005, 53.496245 ] } },
{ "type": "Feature", "properties": { "Name": "Grosvenor Casinos Limited", "Activity": "Casino", "Address": "Manchester Electric Grosvenor Casino, 2 Ramsgate Street, Manchester", "Postcode": "M8 9SG", "Area name": "Manchester", "Area code": "E0800003" }, "geometry": { "type": "Point", "coordinates": [ -2.253005, 53.496245 ] } },
{ "type": "Feature", "properties": { "Name": "London Clubs Manchester Limited", "Activity": "Casino", "Address": "London Clubs, 7-9 Great Northern Square, Deansgate, Manchester", "Postcode": "M3 4EJ", "Area name": "Manchester", "Area code": "E0800003" }, "geometry": { "type": "Point", "coordinates": [ -2.249004, 53.477072 ] } },
{ "type": "Feature", "properties": { "Name": "London Clubs Manchester Limited", "Activity": "Casino", "Address": "London Clubs, Manchester 235, 2 Watson Street, Manchester", "Postcode": "M3 4LP", "Area name": "Manchester", "Area code": "E0800003" }, "geometry": { "type": "Point", "coordinates": [ -2.248792, 53.477268 ] } },
{ "type": "Feature", "properties": { "Name": "Megabet UK Limited", "Activity": "Betting Shop", "Address": "Stan James, Unit C, Hale Top, Civic Centre, Wythenshawe, Manchester", "Postcode": "M22 5RN", "Area name": "Manchester", "Area code": "E0800003" }, "geometry": { "type": "Point", "coordinates": [ -2.261751, 53.379276 ] } },
{ "type": "Feature", "properties": { "Name": "Megabet UK Limited", "Activity": "Betting Shop", "Address": "Stan James, 353 Claremont Road, Manchester", "Postcode": "M14 7NB", "Area name": "Manchester", "Area code": "E0800003" }, "geometry": { "type": "Point", "coordinates": [ -2.233066, 53.45288 ] } },
{ "type": "Feature", "properties": { "Name": "Sal Leisure Limited", "Activity": "Adult Gaming Centre", "Address": "Sal Leisure Ltd, 39-41 Parker Street, Manchester", "Postcode": "M1 4AJ", "Area name": "Manchester", "Area code": "E0800003" }, "geometry": { "type": "Point", "coordinates": [ -2.237914, 53.480193 ] } },
{ "type": "Feature", "properties": { "Name": "Power Leisure Bookmakers Limited", "Activity": "Betting Shop", "Address": "Paddy Power, 30 Hulme High Street, Manchester", "Postcode": "M15 5JS", "Area name": "Manchester", "Area code": "E0800003" }, "geometry": { "type": "Point", "coordinates": [ -2.248417, 53.461784 ] } },
{ "type": "Feature", "properties": { "Name": "Power Leisure Bookmakers Limited", "Activity": "Betting Shop", "Address": "Paddy Power, 44, Unit F2 Ground Floor, City Tower,Piccadilly Plaza, Manchester", "Postcode": "M1 4AJ", "Area name": "Manchester", "Area code": "E0800003" }, "geometry": { "type": "Point", "coordinates": [ -2.237914, 53.480193 ] } },
{ "type": "Feature", "properties": { "Name": "Power Leisure Bookmakers Limited", "Activity": "Betting Shop", "Address": "Paddy Power, 49 Old Church Street, Manchester", "Postcode": "M40 2JN", "Area name": "Manchester", "Area code": "E0800003" }, "geometry": { "type": "Point", "coordinates": [ -2.1804, 53.501131 ] } },
{ "type": "Feature", "properties": { "Name": "Power Leisure Bookmakers Limited", "Activity": "Betting Shop", "Address": "Paddy Power, 551-553 Stockport Road, Manchester", "Postcode": "M12 4JH", "Area name": "Manchester", "Area code": "E0800003" }, "geometry": { "type": "Point", "coordinates": [ -2.200288, 53.457101 ] } },
{ "type": "Feature", "properties": { "Name": "Power Leisure Bookmakers Limited", "Activity": "Betting Shop", "Address": "Paddy Power, 79 Wilmslow Road, Manchester", "Postcode": "M14 5SU", "Area name": "Manchester", "Area code": "E0800003" }, "geometry": { "type": "Point", "coordinates": [ -2.224872, 53.455439 ] } },
{ "type": "Feature", "properties": { "Name": "Power Leisure Bookmakers Limited", "Activity": "Betting Shop", "Address": "Paddy Power, 958-960 Stockport Road, Manchester", "Postcode": "M19 3NN", "Area name": "Manchester", "Area code": "E0800003" }, "geometry": { "type": "Point", "coordinates": [ -2.191642, 53.4433 ] } },
{ "type": "Feature", "properties": { "Name": "Done Brothers (Cash Betting) Limited", "Activity": "Betting Shop", "Address": "Betfred, De Quincy House, 86 Cross Street, Manchester", "Postcode": "M2 4LA", "Area name": "Manchester", "Area code": "E0800003" }, "geometry": { "type": "Point", "coordinates": [ -2.245299, 53.480385 ] } },
{ "type": "Feature", "properties": { "Name": "Done Brothers (Cash Betting) Limited", "Activity": "Betting Shop", "Address": "Betfred, 10 Mosley Street, Manchester", "Postcode": "M2 3AQ", "Area name": "Manchester", "Area code": "E0800003" }, "geometry": { "type": "Point", "coordinates": [ -2.239246, 53.481099 ] } },
{ "type": "Feature", "properties": { "Name": "Done Brothers (Cash Betting) Limited", "Activity": "Betting Shop", "Address": "Betfred, 1299-1301 Ashton Old Road, Manchester", "Postcode": "M11 1JS", "Area name": "Manchester", "Area code": "E0800003" }, "geometry": { "type": "Point", "coordinates": [ -2.162624, 53.472987 ] } },
{ "type": "Feature", "properties": { "Name": "Done Brothers (Cash Betting) Limited", "Activity": "Betting Shop", "Address": "Betfred, 133 Deansgate, Manchester", "Postcode": "M3 3WR", "Area name": "Manchester", "Area code": "E0800003" }, "geometry": { "type": "Point", "coordinates": [ -2.248055, 53.479788 ] } },
{ "type": "Feature", "properties": { "Name": "Done Brothers (Cash Betting) Limited", "Activity": "Betting Shop", "Address": "Betfred, 135-137 Chapman Street, Manchester", "Postcode": "M18 8LY", "Area name": "Manchester", "Area code": "E0800003" }, "geometry": { "type": "Point", "coordinates": [ -2.169882, 53.464456 ] } },
{ "type": "Feature", "properties": { "Name": "Done Brothers (Cash Betting) Limited", "Activity": "Betting Shop", "Address": "Betfred, 14 Nicholas Street, Manchester", "Postcode": "M1 4EJ", "Area name": "Manchester", "Area code": "E0800003" }, "geometry": { "type": "Point", "coordinates": [ -2.240242, 53.478321 ] } },
{ "type": "Feature", "properties": { "Name": "Done Brothers (Cash Betting) Limited", "Activity": "Betting Shop", "Address": "Betfred, 15 Hale Top, Manchester", "Postcode": "M22 5RB", "Area name": "Manchester", "Area code": "E0800003" }, "geometry": { "type": "Point", "coordinates": [ -2.263376, 53.379515 ] } },
{ "type": "Feature", "properties": { "Name": "Done Brothers (Cash Betting) Limited", "Activity": "Betting Shop", "Address": "Betfred, 153 Moorcroft Road, Manchester", "Postcode": "M23 0AE", "Area name": "Manchester", "Area code": "E0800003" }, "geometry": { "type": "Point", "coordinates": [ -2.2934, 53.408478 ] } },
{ "type": "Feature", "properties": { "Name": "Done Brothers (Cash Betting) Limited", "Activity": "Betting Shop", "Address": "Betfred, 16 The Birtles, Civic Centre, Wythenshawe, Manchester", "Postcode": "M22 5RF", "Area name": "Manchester", "Area code": "E0800003" }, "geometry": { "type": "Point", "coordinates": [ -2.261846, 53.380103 ] } },
{ "type": "Feature", "properties": { "Name": "Done Brothers (Cash Betting) Limited", "Activity": "Betting Shop", "Address": "Betfred, 177 Dickenson Road, Manchester", "Postcode": "M13 0YN", "Area name": "Manchester", "Area code": "E0800003" }, "geometry": { "type": "Point", "coordinates": [ -2.210876, 53.454234 ] } },
{ "type": "Feature", "properties": { "Name": "Done Brothers (Cash Betting) Limited", "Activity": "Betting Shop", "Address": "Betfred, 18 Fountain Street, Manchester", "Postcode": "M2 2AA", "Area name": "Manchester", "Area code": "E0800003" }, "geometry": { "type": "Point", "coordinates": [ -2.24005, 53.481764 ] } },
{ "type": "Feature", "properties": { "Name": "Done Brothers (Cash Betting) Limited", "Activity": "Betting Shop", "Address": "Betfred, 292-294 Claremont Road, Manchester", "Postcode": "M14 4EP", "Area name": "Manchester", "Area code": "E0800003" }, "geometry": { "type": "Point", "coordinates": [ -2.23671, 53.45306 ] } },
{ "type": "Feature", "properties": { "Name": "Done Brothers (Cash Betting) Limited", "Activity": "Betting Shop", "Address": "Betfred, 33 George Street, Manchester", "Postcode": "M1 4HQ", "Area name": "Manchester", "Area code": "E0800003" }, "geometry": { "type": "Point", "coordinates": [ -2.240782, 53.478381 ] } },
{ "type": "Feature", "properties": { "Name": "Done Brothers (Cash Betting) Limited", "Activity": "Betting Shop", "Address": "Betfred, 334 Platt Lane, Manchester", "Postcode": "M14 7DA", "Area name": "Manchester", "Area code": "E0800003" }, "geometry": { "type": "Point", "coordinates": [ -2.238497, 53.446863 ] } },
{ "type": "Feature", "properties": { "Name": "Done Brothers (Cash Betting) Limited", "Activity": "Betting Shop", "Address": "Betfred, 344 Palatine Road, Manchester", "Postcode": "M22 4HE", "Area name": "Manchester", "Area code": "E0800003" }, "geometry": { "type": "Point", "coordinates": [ -2.25715, 53.408966 ] } },
{ "type": "Feature", "properties": { "Name": "Done Brothers (Cash Betting) Limited", "Activity": "Betting Shop", "Address": "Betfred, 487 Wilmslow Road, Manchester", "Postcode": "M20 4AN", "Area name": "Manchester", "Area code": "E0800003" }, "geometry": { "type": "Point", "coordinates": [ -2.22798, 53.434138 ] } },
{ "type": "Feature", "properties": { "Name": "Done Brothers (Cash Betting) Limited", "Activity": "Betting Shop", "Address": "Betfred, 582a Hyde Road, Manchester", "Postcode": "M18 7EE", "Area name": "Manchester", "Area code": "E0800003" }, "geometry": { "type": "Point", "coordinates": [ -2.173586, 53.460961 ] } },
{ "type": "Feature", "properties": { "Name": "Done Brothers (Cash Betting) Limited", "Activity": "Betting Shop", "Address": "Betfred, 586a and 586f Ashton New Road, Manchester", "Postcode": "M11 4SG", "Area name": "Manchester", "Area code": "E0800003" }, "geometry": { "type": "Point", "coordinates": [ -2.186804, 53.483306 ] } },
{ "type": "Feature", "properties": { "Name": "Done Brothers (Cash Betting) Limited", "Activity": "Betting Shop", "Address": "Betfred, 586E & 586F Ashton New Road, Manchester", "Postcode": "M11 4GS", "Area name": "Manchester", "Area code": "E0800003" }, "geometry": { "type": "Point", "coordinates": [ -2.171789, 53.481792 ] } },
{ "type": "Feature", "properties": { "Name": "Done Brothers (Cash Betting) Limited", "Activity": "Betting Shop", "Address": "Betfred, 62 Hathersage Road, Manchester", "Postcode": "M13 0FE", "Area name": "Manchester", "Area code": "E0800003" }, "geometry": { "type": "Point", "coordinates": [ -2.215558, 53.460156 ] } },
{ "type": "Feature", "properties": { "Name": "Done Brothers (Cash Betting) Limited", "Activity": "Betting Shop", "Address": "Betfred, 78 Bury Old Road, Manchester", "Postcode": "M8 5BW", "Area name": "Manchester", "Area code": "E0800003" }, "geometry": { "type": "Point", "coordinates": [ -2.246583, 53.514325 ] } },
{ "type": "Feature", "properties": { "Name": "Done Brothers (Cash Betting) Limited", "Activity": "Betting Shop", "Address": "Betfred, 79 Erskine Street, Manchester", "Postcode": "M15 4BS", "Area name": "Manchester", "Area code": "E0800003" }, "geometry": { "type": "Point", "coordinates": [ -2.260114, 53.465759 ] } },
{ "type": "Feature", "properties": { "Name": "Done Brothers (Cash Betting) Limited", "Activity": "Betting Shop", "Address": "Betfred, 7-9 Oldham Street, Manchester", "Postcode": "M1 1LG", "Area name": "Manchester", "Area code": "E0800003" }, "geometry": { "type": "Point", "coordinates": [ -2.236916, 53.481806 ] } },
{ "type": "Feature", "properties": { "Name": "Done Brothers (Cash Betting) Limited", "Activity": "Betting Shop", "Address": "Betfred, 8 High Street, Manchester", "Postcode": "M4 1QB", "Area name": "Manchester", "Area code": "E0800003" }, "geometry": { "type": "Point", "coordinates": [ -2.238969, 53.482789 ] } },
{ "type": "Feature", "properties": { "Name": "Done Brothers (Cash Betting) Limited", "Activity": "Betting Shop", "Address": "Betfred, 83 Beswick Street, Manchester", "Postcode": "M4 7HR", "Area name": "Manchester", "Area code": "E0800003" }, "geometry": { "type": "Point", "coordinates": [ -2.214126, 53.483485 ] } },
{ "type": "Feature", "properties": { "Name": "Done Brothers (Cash Betting) Limited", "Activity": "Betting Shop", "Address": "Betfred, 835-837 Stockport Road, Manchester", "Postcode": "M19 3PW", "Area name": "Manchester", "Area code": "E0800003" }, "geometry": { "type": "Point", "coordinates": [ -2.191328, 53.443894 ] } },
{ "type": "Feature", "properties": { "Name": "Done Brothers (Cash Betting) Limited", "Activity": "Betting Shop", "Address": "Betfred, Unit 1 Grove Village Parade, Stockport Road, Manchester", "Postcode": "M13 0SH", "Area name": "Manchester", "Area code": "E0800003" }, "geometry": { "type": "Point", "coordinates": [ -2.198484, 53.454873 ] } },
{ "type": "Feature", "properties": { "Name": "Done Brothers (Cash Betting) Limited", "Activity": "Betting Shop", "Address": "Betfred, Unit 15, North City Shoppping Centre, Lee Road, Manchester", "Postcode": "M9 4DH", "Area name": "Manchester", "Area code": "E0800003" }, "geometry": { "type": "Point", "coordinates": [ -2.211905, 53.51263 ] } },
{ "type": "Feature", "properties": { "Name": "Done Brothers (Cash Betting) Limited", "Activity": "Betting Shop", "Address": "Betfred, Unit 3\/5 Courtletts House, 38 King Street West, Manchester", "Postcode": "M3 2WZ", "Area name": "Manchester", "Area code": "E0800003" }, "geometry": { "type": "Point", "coordinates": [ -2.249524, 53.481437 ] } },
{ "type": "Feature", "properties": { "Name": "Done Brothers (Cash Betting) Limited", "Activity": "Betting Shop", "Address": "Betfred, Unit 9, Lime Square, Ashton Old Road, Manchester", "Postcode": "M11 1DA", "Area name": "Manchester", "Area code": "E0800003" }, "geometry": { "type": "Point", "coordinates": [ -2.164901, 53.473649 ] } },
{ "type": "Feature", "properties": { "Name": "Inspired Gaming (UK) Limited", "Activity": "Adult Gaming Centre", "Address": "Inspired Gaming (UK) Limited, Voyager Amusements, Main Concourse, Landside Departures, Terminal One, Manchester Airport, Manchester", "Postcode": "M90 1QX", "Area name": "Manchester", "Area code": "E0800003" }, "geometry": { "type": "Point", "coordinates": [ -2.270841, 53.361881 ] } },
{ "type": "Feature", "properties": { "Name": "Talarius Limited", "Activity": "Adult Gaming Centre", "Address": "Quicksilver, 31 North City Shopping Centre, Lee Road, Manchester", "Postcode": "M9 4DH", "Area name": "Manchester", "Area code": "E0800003" }, "geometry": { "type": "Point", "coordinates": [ -2.211905, 53.51263 ] } },
{ "type": "Feature", "properties": { "Name": "Talarius Limited", "Activity": "Adult Gaming Centre", "Address": "Quicksilver, 466 Wilbraham Road, Manchester", "Postcode": "M21 9AS", "Area name": "Manchester", "Area code": "E0800003" }, "geometry": { "type": "Point", "coordinates": [ -2.278958, 53.44275 ] } },
{ "type": "Feature", "properties": { "Name": "Talarius Limited", "Activity": "Adult Gaming Centre", "Address": "Silvers Gaming Centre, 6 Hale Top, Civic Centre, Wythenshawe, Manchester", "Postcode": "M22 5RN", "Area name": "Manchester", "Area code": "E0800003" }, "geometry": { "type": "Point", "coordinates": [ -2.261751, 53.379276 ] } },
{ "type": "Feature", "properties": { "Name": "Talarius Limited", "Activity": "Adult Gaming Centre", "Address": "Silvers Gaming Centre,, Unit 1, 6 Hale TopCivic Centre, Wythenshawe, Manchester", "Postcode": "M22 5RN", "Area name": "Manchester", "Area code": "E0800003" }, "geometry": { "type": "Point", "coordinates": [ -2.261751, 53.379276 ] } },
{ "type": "Feature", "properties": { "Name": "Ladbrokes Betting & Gaming Limited", "Activity": "Betting Shop", "Address": "Ladbrokes, 100 Wilmslow Road, Manchester", "Postcode": "M14 5AJ", "Area name": "Manchester", "Area code": "E0800003" }, "geometry": { "type": "Point", "coordinates": [ -2.223717, 53.453428 ] } },
{ "type": "Feature", "properties": { "Name": "Ladbrokes Betting & Gaming Limited", "Activity": "Betting Shop", "Address": "Ladbrokes, 10B Oxford Road, Manchester", "Postcode": "M1 5QA", "Area name": "Manchester", "Area code": "E0800003" }, "geometry": { "type": "Point", "coordinates": [ -2.23997, 53.472893 ] } },
{ "type": "Feature", "properties": { "Name": "Ladbrokes Betting & Gaming Limited", "Activity": "Betting Shop", "Address": "Ladbrokes, 11-13 Barlow Moor Road, Manchester", "Postcode": "M20 6TN", "Area name": "Manchester", "Area code": "E0800003" }, "geometry": { "type": "Point", "coordinates": [ -2.232648, 53.417772 ] } },
{ "type": "Feature", "properties": { "Name": "Ladbrokes Betting & Gaming Limited", "Activity": "Betting Shop", "Address": "Ladbrokes, 1160 Rochdale Road, Manchester", "Postcode": "M9 6ER", "Area name": "Manchester", "Area code": "E0800003" }, "geometry": { "type": "Point", "coordinates": [ -2.20823, 53.531889 ] } },
{ "type": "Feature", "properties": { "Name": "Ladbrokes Betting & Gaming Limited", "Activity": "Betting Shop", "Address": "Ladbrokes, 123-125 Deansgate, Manchester", "Postcode": "M3 2BY", "Area name": "Manchester", "Area code": "E0800003" }, "geometry": { "type": "Point", "coordinates": [ -2.247951, 53.480335 ] } },
{ "type": "Feature", "properties": { "Name": "Ladbrokes Betting & Gaming Limited", "Activity": "Betting Shop", "Address": "Ladbrokes, 145 Greenbrow Road, Manchester", "Postcode": "M23 2DB", "Area name": "Manchester", "Area code": "E0800003" }, "geometry": { "type": "Point", "coordinates": [ -2.28608, 53.38464 ] } },
{ "type": "Feature", "properties": { "Name": "Ladbrokes Betting & Gaming Limited", "Activity": "Betting Shop", "Address": "Ladbrokes, 15 Cross Street, Manchester", "Postcode": "M2 1WE", "Area name": "Manchester", "Area code": "E0800003" }, "geometry": { "type": "Point", "coordinates": [ -2.243669, 53.482564 ] } },
{ "type": "Feature", "properties": { "Name": "Ladbrokes Betting & Gaming Limited", "Activity": "Betting Shop", "Address": "Ladbrokes, 16 Spring Gardens, Manchester", "Postcode": "M2 1EE", "Area name": "Manchester", "Area code": "E0800003" }, "geometry": { "type": "Point", "coordinates": [ -2.24091, 53.482282 ] } },
{ "type": "Feature", "properties": { "Name": "Ladbrokes Betting & Gaming Limited", "Activity": "Betting Shop", "Address": "Ladbrokes, 181 Hollyhedge Road, Manchester", "Postcode": "M22 8UE", "Area name": "Manchester", "Area code": "E0800003" }, "geometry": { "type": "Point", "coordinates": [ -2.258938, 53.388918 ] } },
{ "type": "Feature", "properties": { "Name": "Ladbrokes Betting & Gaming Limited", "Activity": "Betting Shop", "Address": "Ladbrokes, 2 Piccadilly South, Gateway House, Manchester", "Postcode": "M1 2GH", "Area name": "Manchester", "Area code": "E0800003" }, "geometry": { "type": "Point", "coordinates": [ -2.231714, 53.478392 ] } },
{ "type": "Feature", "properties": { "Name": "Ladbrokes Betting & Gaming Limited", "Activity": "Betting Shop", "Address": "Ladbrokes, 26 Old Moat Lane, Manchester", "Postcode": "M20 3FL", "Area name": "Manchester", "Area code": "E0800003" }, "geometry": { "type": "Point", "coordinates": [ -2.232365, 53.434859 ] } },
{ "type": "Feature", "properties": { "Name": "Ladbrokes Betting & Gaming Limited", "Activity": "Betting Shop", "Address": "Ladbrokes, 285 Victoria Avenue, Manchester", "Postcode": "M9 0NG", "Area name": "Manchester", "Area code": "E0800003" }, "geometry": { "type": "Point", "coordinates": [ -2.227666, 53.53278 ] } },
{ "type": "Feature", "properties": { "Name": "Ladbrokes Betting & Gaming Limited", "Activity": "Betting Shop", "Address": "Ladbrokes, 304-306 Oxford Road, Manchester", "Postcode": "M13 9NS", "Area name": "Manchester", "Area code": "E0800003" }, "geometry": { "type": "Point", "coordinates": [ -2.230424, 53.462826 ] } },
{ "type": "Feature", "properties": { "Name": "Ladbrokes Betting & Gaming Limited", "Activity": "Betting Shop", "Address": "Ladbrokes, 306 Portway, Manchester", "Postcode": "M22 1TE", "Area name": "Manchester", "Area code": "E0800003" }, "geometry": { "type": "Point", "coordinates": [ -2.268573, 53.374199 ] } },
{ "type": "Feature", "properties": { "Name": "Ladbrokes Betting & Gaming Limited", "Activity": "Betting Shop", "Address": "Ladbrokes, 354 Great Western Street, Manchester", "Postcode": "M14 4BY", "Area name": "Manchester", "Area code": "E0800003" }, "geometry": { "type": "Point", "coordinates": [ -2.231155, 53.45603 ] } },
{ "type": "Feature", "properties": { "Name": "Ladbrokes Betting & Gaming Limited", "Activity": "Betting Shop", "Address": "Ladbrokes, 38 Piccadilly Plaza, Manchester", "Postcode": "M1 4AJ", "Area name": "Manchester", "Area code": "E0800003" }, "geometry": { "type": "Point", "coordinates": [ -2.237914, 53.480193 ] } },
{ "type": "Feature", "properties": { "Name": "Ladbrokes Betting & Gaming Limited", "Activity": "Betting Shop", "Address": "Ladbrokes, 43 Deangate, Manchester", "Postcode": "M3 2AY", "Area name": "Manchester", "Area code": "E0800003" }, "geometry": { "type": "Point", "coordinates": [ -2.24622, 53.48292 ] } },
{ "type": "Feature", "properties": { "Name": "Ladbrokes Betting & Gaming Limited", "Activity": "Betting Shop", "Address": "Ladbrokes, 44 Bury Old Road, Manchester", "Postcode": "M8 5BN", "Area name": "Manchester", "Area code": "E0800003" }, "geometry": { "type": "Point", "coordinates": [ -2.245643, 53.513401 ] } },
{ "type": "Feature", "properties": { "Name": "Ladbrokes Betting & Gaming Limited", "Activity": "Betting Shop", "Address": "Ladbrokes, 46 Portland Street, Manchester", "Postcode": "M1 4QU", "Area name": "Manchester", "Area code": "E0800003" }, "geometry": { "type": "Point", "coordinates": [ -2.239142, 53.478341 ] } },
{ "type": "Feature", "properties": { "Name": "Ladbrokes Betting & Gaming Limited", "Activity": "Betting Shop", "Address": "Ladbrokes, 482 Wilbraham Road, Manchester", "Postcode": "M21 9AS", "Area name": "Manchester", "Area code": "E0800003" }, "geometry": { "type": "Point", "coordinates": [ -2.278958, 53.44275 ] } },
{ "type": "Feature", "properties": { "Name": "Ladbrokes Betting & Gaming Limited", "Activity": "Betting Shop", "Address": "Ladbrokes, 640-642 Oldham Road, Manchester", "Postcode": "M40 8BA", "Area name": "Manchester", "Area code": "E0800003" }, "geometry": { "type": "Point", "coordinates": [ -2.210734, 53.495482 ] } },
{ "type": "Feature", "properties": { "Name": "Ladbrokes Betting & Gaming Limited", "Activity": "Betting Shop", "Address": "Ladbrokes, 66-68 Bridge Street, Manchester", "Postcode": "M3 2RJ", "Area name": "Manchester", "Area code": "E0800003" }, "geometry": { "type": "Point", "coordinates": [ -2.248589, 53.480785 ] } },
{ "type": "Feature", "properties": { "Name": "Ladbrokes Betting & Gaming Limited", "Activity": "Betting Shop", "Address": "Ladbrokes, 71 Cheetham Hill Road, Manchester", "Postcode": "M4 4ES", "Area name": "Manchester", "Area code": "E0800003" }, "geometry": { "type": "Point", "coordinates": [ -2.240893, 53.492153 ] } },
{ "type": "Feature", "properties": { "Name": "Ladbrokes Betting & Gaming Limited", "Activity": "Betting Shop", "Address": "Ladbrokes, Unit 1, Cheetham Hill Shopping Centre, Cheetham Hill, Manchester", "Postcode": "M8 5EL", "Area name": "Manchester", "Area code": "E0800003" }, "geometry": { "type": "Point", "coordinates": [ -2.244779, 53.513131 ] } },
{ "type": "Feature", "properties": { "Name": "Ladbrokes Betting & Gaming Limited", "Activity": "Betting Shop", "Address": "Ladbrokes, Unit 32 Manchester Fort Shopping Park, Cheetham Hill Road, Manchester", "Postcode": "M8 8EP", "Area name": "Manchester", "Area code": "E0800003" }, "geometry": { "type": "Point", "coordinates": [ -2.235028, 53.497216 ] } },
{ "type": "Feature", "properties": { "Name": "David Pluck (North West) Limited", "Activity": "Betting Shop", "Address": "11 -13 Lansdowne Road, Crumpsall, Manchester", "Postcode": "M8 5SF", "Area name": "Manchester", "Area code": "E0800003" }, "geometry": { "type": "Point", "coordinates": [ -2.236741, 53.515324 ] } },
{ "type": "Feature", "properties": { "Name": "David Pluck (North West) Limited", "Activity": "Betting Shop", "Address": "David Pluck Bookmakers, 481 Cheetham Hill Road, Manchester", "Postcode": "M8 9LR", "Area name": "Manchester", "Area code": "E0800003" }, "geometry": { "type": "Point", "coordinates": [ -2.241585, 53.507917 ] } },
{ "type": "Feature", "properties": { "Name": "David Pluck (North West) Limited", "Activity": "Betting Shop", "Address": "David Pluck Racing, Unit 2, 683-693 Wilmslow Road, Manchester", "Postcode": "M20 6RE", "Area name": "Manchester", "Area code": "E0800003" }, "geometry": { "type": "Point", "coordinates": [ -2.231335, 53.417046 ] } },
{ "type": "Feature", "properties": { "Name": "David Pluck (North West) Limited", "Activity": "Betting Shop", "Address": "David Pluck Racing, Units 4 & 5 Longsight Shopping, Stockport Road, Manchester", "Postcode": "M12 4NE", "Area name": "Manchester", "Area code": "E0800003" }, "geometry": { "type": "Point", "coordinates": [ -2.200953, 53.457817 ] } },
{ "type": "Feature", "properties": { "Name": "Jennings Racing Limited", "Activity": "Betting Shop", "Address": "JenningsBet, 51 Piccadilly, Manchester", "Postcode": "M1 2AP", "Area name": "Manchester", "Area code": "E0800003" }, "geometry": { "type": "Point", "coordinates": [ -2.234921, 53.481125 ] } },
{ "type": "Feature", "properties": { "Name": "Gala Leisure Limited", "Activity": "Bingo", "Address": "Gala Clubs, Kirkmanshulme Lane, Manchester", "Postcode": "M18 7BA", "Area name": "Manchester", "Area code": "E0800003" }, "geometry": { "type": "Point", "coordinates": [ -2.184679, 53.462394 ] } },
{ "type": "Feature", "properties": { "Name": "Gala Leisure Limited", "Activity": "Bingo", "Address": "Gala Clubs, North City Shopping Centre, Rochdale Road, Manchester", "Postcode": "M9 4DH", "Area name": "Manchester", "Area code": "E0800003" }, "geometry": { "type": "Point", "coordinates": [ -2.211905, 53.51263 ] } },
{ "type": "Feature", "properties": { "Name": "Gala Leisure Limited", "Activity": "Bingo", "Address": "Gala Clubs, Rowlandsway, Civic Centre, Wythenshawe, Manchester", "Postcode": "M22 5RG", "Area name": "Manchester", "Area code": "E0800003" }, "geometry": { "type": "Point", "coordinates": [ -2.260594, 53.379315 ] } },
{ "type": "Feature", "properties": { "Name": "Coral Racing Limited", "Activity": "Betting Shop", "Address": "Coral Racing Ltd, 14 Broadway, Manchester", "Postcode": "M40 3LN", "Area name": "Manchester", "Area code": "E0800003" }, "geometry": { "type": "Point", "coordinates": [ -2.16724, 53.520503 ] } },
{ "type": "Feature", "properties": { "Name": "Coral Racing Limited", "Activity": "Betting Shop", "Address": "Coral Racing Ltd, 155 Mount Road, Manchester", "Postcode": "M18 7QT", "Area name": "Manchester", "Area code": "E0800003" }, "geometry": { "type": "Point", "coordinates": [ -2.180862, 53.45724 ] } },
{ "type": "Feature", "properties": { "Name": "Coral Racing Limited", "Activity": "Betting Shop", "Address": "Coral Racing Ltd, 182C Arndale Centre, Market Street, Manchester", "Postcode": "M4 2HU", "Area name": "Manchester", "Area code": "E0800003" }, "geometry": { "type": "Point", "coordinates": [ -2.2428, 53.482936 ] } },
{ "type": "Feature", "properties": { "Name": "Coral Racing Limited", "Activity": "Betting Shop", "Address": "Coral Racing Ltd, 193 Fog Lane, Manchester", "Postcode": "M20 6FJ", "Area name": "Manchester", "Area code": "E0800003" }, "geometry": { "type": "Point", "coordinates": [ -2.216944, 53.421478 ] } },
{ "type": "Feature", "properties": { "Name": "Coral Racing Limited", "Activity": "Betting Shop", "Address": "Coral Racing Ltd, 24-26 Lansdowne Road, Manchester", "Postcode": "M8 5SH", "Area name": "Manchester", "Area code": "E0800003" }, "geometry": { "type": "Point", "coordinates": [ -2.237133, 53.515708 ] } },
{ "type": "Feature", "properties": { "Name": "Coral Racing Limited", "Activity": "Betting Shop", "Address": "Coral Racing Ltd, 401 Hollinwood Avenue, Manchester", "Postcode": "M40 0JQ", "Area name": "Manchester", "Area code": "E0800003" }, "geometry": { "type": "Point", "coordinates": [ -2.174226, 53.524663 ] } },
{ "type": "Feature", "properties": { "Name": "Coral Racing Limited", "Activity": "Betting Shop", "Address": "Coral Racing Ltd, 442 Barlow Moor Road, Manchester", "Postcode": "M21 0BQ", "Area name": "Manchester", "Area code": "E0800003" }, "geometry": { "type": "Point", "coordinates": [ -2.277668, 53.443454 ] } },
{ "type": "Feature", "properties": { "Name": "Coral Racing Limited", "Activity": "Betting Shop", "Address": "Coral Racing Ltd, 533 Wilmslow Road, Manchester", "Postcode": "M20 4BA", "Area name": "Manchester", "Area code": "E0800003" }, "geometry": { "type": "Point", "coordinates": [ -2.228386, 53.431029 ] } },
{ "type": "Feature", "properties": { "Name": "Coral Racing Limited", "Activity": "Betting Shop", "Address": "Coral Racing Ltd, 88-90 Old Church Street, Manchester", "Postcode": "M40 2JF", "Area name": "Manchester", "Area code": "E0800003" }, "geometry": { "type": "Point", "coordinates": [ -2.181199, 53.500995 ] } },
{ "type": "Feature", "properties": { "Name": "Coral Racing Limited", "Activity": "Betting Shop", "Address": "Coral Racing Ltd, Top Flat, 347 Moston Lane, Manchester", "Postcode": "M40 9NB", "Area name": "Manchester", "Area code": "E0800003" }, "geometry": { "type": "Point", "coordinates": [ -2.198039, 53.514029 ] } },
{ "type": "Feature", "properties": { "Name": "Coral Racing Limited", "Activity": "Betting Shop", "Address": "Coral Racing Ltd, Unit 49-51, North City Shopping Centre, Rochdale Road, Manchester", "Postcode": "M9 4DH", "Area name": "Manchester", "Area code": "E0800003" }, "geometry": { "type": "Point", "coordinates": [ -2.211905, 53.51263 ] } },
{ "type": "Feature", "properties": { "Name": "Coral Racing Limited", "Activity": "Betting Shop", "Address": "Coral Racing Ltd, Unit 5, Gorton Retail Market, Garratt Way, Manchester", "Postcode": "M18 8LD", "Area name": "Manchester", "Area code": "E0800003" }, "geometry": { "type": "Point", "coordinates": [ -2.172479, 53.462403 ] } },
{ "type": "Feature", "properties": { "Name": "Coral Racing Limited", "Activity": "Betting Shop", "Address": "Coral Racing Unit 24, Wythenshawe Shopping Centre, Wythenshawe, Manchester", "Postcode": "M22 5RN", "Area name": "Manchester", "Area code": "E0800003" }, "geometry": { "type": "Point", "coordinates": [ -2.261751, 53.379276 ] } },
{ "type": "Feature", "properties": { "Name": "Mecca Bingo Limited", "Activity": "Adult Gaming Centre", "Address": "Mecca Bingo, 477 Hyde Road, Manchester", "Postcode": "M12 5FL", "Area name": "Manchester", "Area code": "E0800003" }, "geometry": { "type": "Point", "coordinates": [ -2.194738, 53.465218 ] } },
{ "type": "Feature", "properties": { "Name": "Mecca Bingo Limited", "Activity": "Bingo", "Address": "Mecca Bingo, 477 Hyde Road, Manchester", "Postcode": "M12 5FL", "Area name": "Manchester", "Area code": "E0800003" }, "geometry": { "type": "Point", "coordinates": [ -2.194738, 53.465218 ] } },
{ "type": "Feature", "properties": { "Name": "William Hill Organization Limited", "Activity": "Betting Shop", "Address": "William Hill, 1 Harpurhey District Centre, Conran Street", "Postcode": "M9 5PR", "Area name": "Manchester", "Area code": "E0800003" }, "geometry": { "type": "Point", "coordinates": [ -2.212019, 53.508297 ] } },
{ "type": "Feature", "properties": { "Name": "William Hill Organization Limited", "Activity": "Betting Shop", "Address": "William Hill, 101 Beresford Road, Manchester", "Postcode": "M13 0TA", "Area name": "Manchester", "Area code": "E0800003" }, "geometry": { "type": "Point", "coordinates": [ -2.201538, 53.4506 ] } },
{ "type": "Feature", "properties": { "Name": "William Hill Organization Limited", "Activity": "Betting Shop", "Address": "William Hill, 102 Mauldeth Road, Manchester", "Postcode": "M14 6SQ", "Area name": "Manchester", "Area code": "E0800003" }, "geometry": { "type": "Point", "coordinates": [ -2.213429, 53.434823 ] } },
{ "type": "Feature", "properties": { "Name": "William Hill Organization Limited", "Activity": "Betting Shop", "Address": "William Hill, 108 Northmoor Road, Manchester", "Postcode": "M12 5RS", "Area name": "Manchester", "Area code": "E0800003" }, "geometry": { "type": "Point", "coordinates": [ -2.192856, 53.455298 ] } },
{ "type": "Feature", "properties": { "Name": "William Hill Organization Limited", "Activity": "Betting Shop", "Address": "William Hill, 109 Culcheth Lane, Manchester", "Postcode": "M40 1LY", "Area name": "Manchester", "Area code": "E0800003" }, "geometry": { "type": "Point", "coordinates": [ -2.174876, 53.495926 ] } },
{ "type": "Feature", "properties": { "Name": "William Hill Organization Limited", "Activity": "Betting Shop", "Address": "William Hill, 110-112 Withington Road, Manchester", "Postcode": "M16 8FA", "Area name": "Manchester", "Area code": "E0800003" }, "geometry": { "type": "Point", "coordinates": [ -2.257703, 53.453117 ] } },
{ "type": "Feature", "properties": { "Name": "William Hill Organization Limited", "Activity": "Betting Shop", "Address": "William Hill, 1294 Ashton Old Road, Manchester", "Postcode": "M11 1JG", "Area name": "Manchester", "Area code": "E0800003" }, "geometry": { "type": "Point", "coordinates": [ -2.163496, 53.472644 ] } },
{ "type": "Feature", "properties": { "Name": "William Hill Organization Limited", "Activity": "Betting Shop", "Address": "William Hill, 160 Hollyhedge Road, Manchester", "Postcode": "M22 9UE", "Area name": "Manchester", "Area code": "E0800003" }, "geometry": { "type": "Point", "coordinates": [ -2.258965, 53.388388 ] } },
{ "type": "Feature", "properties": { "Name": "William Hill Organization Limited", "Activity": "Betting Shop", "Address": "William Hill, 168 Manchester Road, Manchester", "Postcode": "M16 0DZ", "Area name": "Manchester", "Area code": "E0800003" }, "geometry": { "type": "Point", "coordinates": [ -2.273673, 53.449763 ] } },
{ "type": "Feature", "properties": { "Name": "William Hill Organization Limited", "Activity": "Betting Shop", "Address": "William Hill, 18\/20 Mosley Street, Manchester", "Postcode": "M2 3AG", "Area name": "Manchester", "Area code": "E0800003" }, "geometry": { "type": "Point", "coordinates": [ -2.239638, 53.480776 ] } },
{ "type": "Feature", "properties": { "Name": "William Hill Organization Limited", "Activity": "Betting Shop", "Address": "William Hill, 283 Cheetham Hill Road, Manchester", "Postcode": "M8 0SN", "Area name": "Manchester", "Area code": "E0800003" }, "geometry": { "type": "Point", "coordinates": [ -2.236273, 53.501654 ] } },
{ "type": "Feature", "properties": { "Name": "William Hill Organization Limited", "Activity": "Betting Shop", "Address": "William Hill, 285-287 Mauldeth Road, Manchester", "Postcode": "M19 1HL", "Area name": "Manchester", "Area code": "E0800003" }, "geometry": { "type": "Point", "coordinates": [ -2.201453, 53.432767 ] } },
{ "type": "Feature", "properties": { "Name": "William Hill Organization Limited", "Activity": "Betting Shop", "Address": "William Hill, 30 High Street, Manchester", "Postcode": "M4 1QB", "Area name": "Manchester", "Area code": "E0800003" }, "geometry": { "type": "Point", "coordinates": [ -2.238969, 53.482789 ] } },
{ "type": "Feature", "properties": { "Name": "William Hill Organization Limited", "Activity": "Betting Shop", "Address": "William Hill, 315 Wilmslow Road, Manchester", "Postcode": "M14 6NW", "Area name": "Manchester", "Area code": "E0800003" }, "geometry": { "type": "Point", "coordinates": [ -2.218446, 53.4416 ] } },
{ "type": "Feature", "properties": { "Name": "William Hill Organization Limited", "Activity": "Betting Shop", "Address": "William Hill, 317-319 Moston Lane, Manchester", "Postcode": "M40 9NL", "Area name": "Manchester", "Area code": "E0800003" }, "geometry": { "type": "Point", "coordinates": [ -2.199381, 53.514017 ] } },
{ "type": "Feature", "properties": { "Name": "William Hill Organization Limited", "Activity": "Betting Shop", "Address": "William Hill, 355 Barlow Moor Road, Manchester", "Postcode": "M21 7FZ", "Area name": "Manchester", "Area code": "E0800003" }, "geometry": { "type": "Point", "coordinates": [ -2.271745, 53.433158 ] } },
{ "type": "Feature", "properties": { "Name": "William Hill Organization Limited", "Activity": "Betting Shop", "Address": "William Hill, 368 Barlow Moor Road, Manchester", "Postcode": "M21 8AZ", "Area name": "Manchester", "Area code": "E0800003" }, "geometry": { "type": "Point", "coordinates": [ -2.27408, 53.438097 ] } },
{ "type": "Feature", "properties": { "Name": "William Hill Organization Limited", "Activity": "Betting Shop", "Address": "William Hill, 369-371 Palatine Road, Manchester", "Postcode": "M22 4FY", "Area name": "Manchester", "Area code": "E0800003" }, "geometry": { "type": "Point", "coordinates": [ -2.257669, 53.407689 ] } },
{ "type": "Feature", "properties": { "Name": "William Hill Organization Limited", "Activity": "Betting Shop", "Address": "William Hill, 40-42 Oxford Street, Manchester", "Postcode": "M1 5EJ", "Area name": "Manchester", "Area code": "E0800003" }, "geometry": { "type": "Point", "coordinates": [ -2.242546, 53.47587 ] } },
{ "type": "Feature", "properties": { "Name": "William Hill Organization Limited", "Activity": "Betting Shop", "Address": "William Hill, 47 Deansgate, Manchester", "Postcode": "M3 2AY", "Area name": "Manchester", "Area code": "E0800003" }, "geometry": { "type": "Point", "coordinates": [ -2.24622, 53.48292 ] } },
{ "type": "Feature", "properties": { "Name": "William Hill Organization Limited", "Activity": "Betting Shop", "Address": "William Hill, 471 Kingsway, Manchester", "Postcode": "M19 1NR", "Area name": "Manchester", "Area code": "E0800003" }, "geometry": { "type": "Point", "coordinates": [ -2.212655, 53.421431 ] } },
{ "type": "Feature", "properties": { "Name": "William Hill Organization Limited", "Activity": "Betting Shop", "Address": "William Hill, 478 Burnage Lane, Manchester", "Postcode": "M19 1LH", "Area name": "Manchester", "Area code": "E0800003" }, "geometry": { "type": "Point", "coordinates": [ -2.203374, 53.425349 ] } },
{ "type": "Feature", "properties": { "Name": "William Hill Organization Limited", "Activity": "Betting Shop", "Address": "William Hill, 482 Wilbraham Road, Manchester", "Postcode": "M21 9AS", "Area name": "Manchester", "Area code": "E0800003" }, "geometry": { "type": "Point", "coordinates": [ -2.278958, 53.44275 ] } },
{ "type": "Feature", "properties": { "Name": "William Hill Organization Limited", "Activity": "Betting Shop", "Address": "William Hill, 562-564 Stockport Road, Manchester", "Postcode": "M12 4JJ", "Area name": "Manchester", "Area code": "E0800003" }, "geometry": { "type": "Point", "coordinates": [ -2.200799, 53.456858 ] } },
{ "type": "Feature", "properties": { "Name": "William Hill Organization Limited", "Activity": "Betting Shop", "Address": "William Hill, 58 Stockport Road, Manchester", "Postcode": "M12 6AL", "Area name": "Manchester", "Area code": "E0800003" }, "geometry": { "type": "Point", "coordinates": [ -2.221686, 53.468218 ] } },
{ "type": "Feature", "properties": { "Name": "William Hill Organization Limited", "Activity": "Betting Shop", "Address": "William Hill, 59\/61 Old Church Street, Manchester", "Postcode": "M40 2JN", "Area name": "Manchester", "Area code": "E0800003" }, "geometry": { "type": "Point", "coordinates": [ -2.1804, 53.501131 ] } },
{ "type": "Feature", "properties": { "Name": "William Hill Organization Limited", "Activity": "Betting Shop", "Address": "William Hill, 593-595 Ashton New Road, Manchester", "Postcode": "M11 4EA", "Area name": "Manchester", "Area code": "E0800003" }, "geometry": { "type": "Point", "coordinates": [ -2.187077, 53.483585 ] } },
{ "type": "Feature", "properties": { "Name": "William Hill Organization Limited", "Activity": "Betting Shop", "Address": "William Hill, 62\/64 Stockport Road, Manchester", "Postcode": "M12 6AL", "Area name": "Manchester", "Area code": "E0800003" }, "geometry": { "type": "Point", "coordinates": [ -2.221686, 53.468218 ] } },
{ "type": "Feature", "properties": { "Name": "William Hill Organization Limited", "Activity": "Betting Shop", "Address": "William Hill, 74 Mauldeth Road West, Withington, Manchester", "Postcode": "M20 3FQ", "Area name": "Manchester", "Area code": "E0800003" }, "geometry": { "type": "Point", "coordinates": [ -2.230697, 53.43817 ] } },
{ "type": "Feature", "properties": { "Name": "William Hill Organization Limited", "Activity": "Betting Shop", "Address": "William Hill, 85 Piccadilly, Manchester", "Postcode": "M1 2DA", "Area name": "Manchester", "Area code": "E0800003" }, "geometry": { "type": "Point", "coordinates": [ -2.233487, 53.480249 ] } },
{ "type": "Feature", "properties": { "Name": "William Hill Organization Limited", "Activity": "Betting Shop", "Address": "William Hill, 988-990 Stockport Road, Manchester", "Postcode": "M19 3WN", "Area name": "Manchester", "Area code": "E0800003" }, "geometry": { "type": "Point", "coordinates": [ -2.19013, 53.441945 ] } },
{ "type": "Feature", "properties": { "Name": "William Hill Organization Limited", "Activity": "Betting Shop", "Address": "William Hill, Unit 1, 21 Copson Street, Manchester", "Postcode": "M20 3HE", "Area name": "Manchester", "Area code": "E0800003" }, "geometry": { "type": "Point", "coordinates": [ -2.229695, 53.433705 ] } },
{ "type": "Feature", "properties": { "Name": "William Hill Organization Limited", "Activity": "Betting Shop", "Address": "William Hill, Unit 3, Westlake Retail Park, Ashton Old Road, Manchester", "Postcode": "M11 2SL", "Area name": "Manchester", "Area code": "E0800003" }, "geometry": { "type": "Point", "coordinates": [ -2.177722, 53.473451 ] } },
{ "type": "Feature", "properties": { "Name": "William Hill Organization Limited", "Activity": "Betting Shop", "Address": "William Hill, Unit 5, 10A Wilmslow Road, Manchester", "Postcode": "M14 5TP", "Area name": "Manchester", "Area code": "E0800003" }, "geometry": { "type": "Point", "coordinates": [ -2.226462, 53.457018 ] } },
{ "type": "Feature", "properties": { "Name": "Tote (Successor Company) Limited", "Activity": "Betting Shop", "Address": "Totesport, 15  Hale Top, Civic Centre, Wythenshawe, Manchester", "Postcode": "M22 5RP", "Area name": "Manchester", "Area code": "E0800003" }, "geometry": { "type": "Point", "coordinates": [ -2.261284, 53.379222 ] } },
{ "type": "Feature", "properties": { "Name": "Tote (Successor Company) Limited", "Activity": "Betting Shop", "Address": "Totesport, 1299- 1303 Ashton Old Road, Manchester", "Postcode": "M11 1JS", "Area name": "Manchester", "Area code": "E0800003" }, "geometry": { "type": "Point", "coordinates": [ -2.162624, 53.472987 ] } },
{ "type": "Feature", "properties": { "Name": "The Players Club UK Limited", "Activity": "Casino", "Address": "Players Club, Sub Basement, Manchester House, 86 Princess Street, Manchester", "Postcode": "M1 6NG", "Area name": "Manchester", "Area code": "E0800003" }, "geometry": { "type": "Point", "coordinates": [ -2.237825, 53.474596 ] } },
{ "type": "Feature", "properties": { "Name": "Britannia Jinky Jersey Limited", "Activity": "Bingo", "Address": "Britannia Country House Hotel, Palatine Road, Manchester", "Postcode": "M20 2WG", "Area name": "Manchester", "Area code": "E0800003" }, "geometry": { "type": "Point", "coordinates": [ -2.246727, 53.41721 ] } },
{ "type": "Feature", "properties": { "Name": "Playnation Limited", "Activity": "Adult Gaming Centre", "Address": "Arrivals Arcade, Terminal 2, Manchester Airport, Manchester", "Postcode": "M90 1QX", "Area name": "Manchester", "Area code": "E0800003" }, "geometry": { "type": "Point", "coordinates": [ -2.270841, 53.361881 ] } },
{ "type": "Feature", "properties": { "Name": "Playnation Limited", "Activity": "Adult Gaming Centre", "Address": "Manchester Airport Plc, Olympic House, Manchester Airport, Manchester", "Postcode": "M90 1QX", "Area name": "Manchester", "Area code": "E0800003" }, "geometry": { "type": "Point", "coordinates": [ -2.270841, 53.361881 ] } },
{ "type": "Feature", "properties": { "Name": "Playnation Limited", "Activity": "Family Entertainment Centre", "Address": "Terminal One - Airside Arcade, Manchester Airport, Manchester", "Postcode": "M90 1QX", "Area name": "Manchester", "Area code": "E0800003" }, "geometry": { "type": "Point", "coordinates": [ -2.270841, 53.361881 ] } },
{ "type": "Feature", "properties": { "Name": "Raykin Limited", "Activity": "Betting Shop", "Address": "Raykin Limited, 41 Faulkner Street, Manchester", "Postcode": "M1 4EE", "Area name": "Manchester", "Area code": "E0800003" }, "geometry": { "type": "Point", "coordinates": [ -2.239579, 53.47826 ] } },
{ "type": "Feature", "properties": { "Name": "I Lewis (Commission Agents) Limited", "Activity": "Betting Shop", "Address": "Lewis Bookmakers, 148 Huddersfield Road, Oldham", "Postcode": "OL4 2RD", "Area name": "Oldham", "Area code": "E0800004" }, "geometry": { "type": "Point", "coordinates": [ -2.089079, 53.54703 ] } },
{ "type": "Feature", "properties": { "Name": "The Storey Group Limited", "Activity": "Adult Gaming Centre", "Address": "Storeys Amusements, 4 Henshaw Street, Oldham", "Postcode": "OL1 3AA", "Area name": "Oldham", "Area code": "E0800004" }, "geometry": { "type": "Point", "coordinates": [ -2.114995, 53.542586 ] } },
{ "type": "Feature", "properties": { "Name": "Power Leisure Bookmakers Limited", "Activity": "Betting Shop", "Address": "Paddy Power, 13-15 Henshaw Street, Oldham", "Postcode": "OL1 1NH", "Area name": "Oldham", "Area code": "E0800004" }, "geometry": { "type": "Point", "coordinates": [ -2.115328, 53.543026 ] } },
{ "type": "Feature", "properties": { "Name": "Power Leisure Bookmakers Limited", "Activity": "Betting Shop", "Address": "Paddy Power, 284 Lees Road, Oldham", "Postcode": "OL4 1NZ", "Area name": "Oldham", "Area code": "E0800004" }, "geometry": { "type": "Point", "coordinates": [ -2.088958, 53.539894 ] } },
{ "type": "Feature", "properties": { "Name": "Done Brothers (Cash Betting) Limited", "Activity": "Betting Shop", "Address": "Betfred, 1\/3 Coalshaw Green Road, Chadderton, Oldham", "Postcode": "OL9 8JW", "Area name": "Oldham", "Area code": "E0800004" }, "geometry": { "type": "Point", "coordinates": [ -2.145326, 53.52952 ] } },
{ "type": "Feature", "properties": { "Name": "Done Brothers (Cash Betting) Limited", "Activity": "Betting Shop", "Address": "Betfred, 5-6 Eldon Precinct, Oldham", "Postcode": "OL8 1JP", "Area name": "Oldham", "Area code": "E0800004" }, "geometry": { "type": "Point", "coordinates": [ -2.115052, 53.53606 ] } },
{ "type": "Feature", "properties": { "Name": "Done Brothers (Cash Betting) Limited", "Activity": "Betting Shop", "Address": "Betfred, 5-7 Market Square, Royton, Oldham", "Postcode": "OL2 5QD", "Area name": "Oldham", "Area code": "E0800004" }, "geometry": { "type": "Point", "coordinates": [ -2.123393, 53.566109 ] } },
{ "type": "Feature", "properties": { "Name": "Done Brothers (Cash Betting) Limited", "Activity": "Betting Shop", "Address": "Betfred, Unit 26, Chadderton Precinct, Middleton Road, Chadderton, Oldham", "Postcode": "OL9 0LJ", "Area name": "Oldham", "Area code": "E0800004" }, "geometry": { "type": "Point", "coordinates": [ -2.140778, 53.545228 ] } },
{ "type": "Feature", "properties": { "Name": "Done Brothers (Cash Betting) Limited", "Activity": "Betting Shop", "Address": "Betfred, Unit 36B, Spindles Shopping Centre, Oldham", "Postcode": "OL1 1HE", "Area name": "Oldham", "Area code": "E0800004" }, "geometry": { "type": "Point", "coordinates": [ -2.114855, 53.541103 ] } },
{ "type": "Feature", "properties": { "Name": "Talarius Limited", "Activity": "Adult Gaming Centre", "Address": "Winners Leisure, 19-21 Henshaw Street, Oldham", "Postcode": "OL1 1NH", "Area name": "Oldham", "Area code": "E0800004" }, "geometry": { "type": "Point", "coordinates": [ -2.115328, 53.543026 ] } },
{ "type": "Feature", "properties": { "Name": "Summit Leisure (Market St) Limited", "Activity": "Adult Gaming Centre", "Address": "Shaws Amusements, 46 Market Street, Shaw, Oldham", "Postcode": "OL2 8NH", "Area name": "Oldham", "Area code": "E0800004" }, "geometry": { "type": "Point", "coordinates": [ -2.093915, 53.577083 ] } },
{ "type": "Feature", "properties": { "Name": "Ladbrokes Betting & Gaming Limited", "Activity": "Betting Shop", "Address": "Ladbrokes, 13A Yorkshire Street, Oldham", "Postcode": "OL1 3RZ", "Area name": "Oldham", "Area code": "E0800004" }, "geometry": { "type": "Point", "coordinates": [ -2.110376, 53.542294 ] } },
{ "type": "Feature", "properties": { "Name": "Ladbrokes Betting & Gaming Limited", "Activity": "Betting Shop", "Address": "Ladbrokes, 2 Hollins Road, Oldham", "Postcode": "OL8 3EA", "Area name": "Oldham", "Area code": "E0800004" }, "geometry": { "type": "Point", "coordinates": [ -2.112174, 53.526113 ] } },
{ "type": "Feature", "properties": { "Name": "Ladbrokes Betting & Gaming Limited", "Activity": "Betting Shop", "Address": "Ladbrokes, 23A-25 Market Place, Oldham", "Postcode": "OL1 3AB", "Area name": "Oldham", "Area code": "E0800004" }, "geometry": { "type": "Point", "coordinates": [ -2.114541, 53.542119 ] } },
{ "type": "Feature", "properties": { "Name": "Ladbrokes Betting & Gaming Limited", "Activity": "Betting Shop", "Address": "Ladbrokes, 25 Market Place, Oldham", "Postcode": "OL1 3AB", "Area name": "Oldham", "Area code": "E0800004" }, "geometry": { "type": "Point", "coordinates": [ -2.114541, 53.542119 ] } },
{ "type": "Feature", "properties": { "Name": "Ladbrokes Betting & Gaming Limited", "Activity": "Betting Shop", "Address": "Ladbrokes, 265 Featherstall Road North, Oldham", "Postcode": "OL1 2NJ", "Area name": "Oldham", "Area code": "E0800004" }, "geometry": { "type": "Point", "coordinates": [ -2.125, 53.548803 ] } },
{ "type": "Feature", "properties": { "Name": "Ladbrokes Betting & Gaming Limited", "Activity": "Betting Shop", "Address": "Ladbrokes, 283 Featherstall Road North, Oldham", "Postcode": "OL1 2NH", "Area name": "Oldham", "Area code": "E0800004" }, "geometry": { "type": "Point", "coordinates": [ -2.123481, 53.549768 ] } },
{ "type": "Feature", "properties": { "Name": "Ladbrokes Betting & Gaming Limited", "Activity": "Betting Shop", "Address": "Ladbrokes, Adjacent to Asda Hollins Road, Oldham", "Postcode": "OL8 4JZ", "Area name": "Oldham", "Area code": "E0800004" }, "geometry": { "type": "Point", "coordinates": [ -2.13266, 53.521499 ] } },
{ "type": "Feature", "properties": { "Name": "Ladbrokes Betting & Gaming Limited", "Activity": "Betting Shop", "Address": "Ladbrokes, Unit 27, Chadderton PresinctChadderton, Oldham", "Postcode": "OL9 0LQ", "Area name": "Oldham", "Area code": "E0800004" }, "geometry": { "type": "Point", "coordinates": [ -2.141005, 53.545641 ] } },
{ "type": "Feature", "properties": { "Name": "Ladbrokes Betting & Gaming Limited", "Activity": "Betting Shop", "Address": "Ladbrokes, Unit 7, Huddersfield Road, District Centre, Oldham", "Postcode": "OL4 2AE", "Area name": "Oldham", "Area code": "E0800004" }, "geometry": { "type": "Point", "coordinates": [ -2.095412, 53.544733 ] } },
{ "type": "Feature", "properties": { "Name": "Ladbrokes Betting & Gaming Limited", "Activity": "Betting Shop", "Address": "Ladbrokes Ltd, 312-318 Ashton Road, Oldham", "Postcode": "OL8 3ED", "Area name": "Oldham", "Area code": "E0800004" }, "geometry": { "type": "Point", "coordinates": [ -2.111724, 53.526967 ] } },
{ "type": "Feature", "properties": { "Name": "Ladbrokes Betting & Gaming Limited", "Activity": "Betting Shop", "Address": "Paddy Power, 13-15 Henshaw Street, Oldham", "Postcode": "OL1 1NH", "Area name": "Oldham", "Area code": "E0800004" }, "geometry": { "type": "Point", "coordinates": [ -2.115328, 53.543026 ] } },
{ "type": "Feature", "properties": { "Name": "Ladbrokes Betting & Gaming Limited", "Activity": "Betting Shop", "Address": "Unit 10 Chadderton Shopping Precinct, Middleton Road, Chadderton, Oldham", "Postcode": "OL9 0LQ", "Area name": "Oldham", "Area code": "E0800004" }, "geometry": { "type": "Point", "coordinates": [ -2.141005, 53.545641 ] } },
{ "type": "Feature", "properties": { "Name": "Frank Whitehouse Limited", "Activity": "Betting Shop", "Address": "Whitehouse Bookmakers, 300 Lees Road, Oldham", "Postcode": "OL4 1NZ", "Area name": "Oldham", "Area code": "E0800004" }, "geometry": { "type": "Point", "coordinates": [ -2.088958, 53.539894 ] } },
{ "type": "Feature", "properties": { "Name": "Frank Whitehouse Limited", "Activity": "Betting Shop", "Address": "Whitehouse Bookmakers, 692 Hollins Road, Oldham", "Postcode": "OL8 4JZ", "Area name": "Oldham", "Area code": "E0800004" }, "geometry": { "type": "Point", "coordinates": [ -2.13266, 53.521499 ] } },
{ "type": "Feature", "properties": { "Name": "Coral Racing Limited", "Activity": "Betting Shop", "Address": "Coral, 6 Partington Street, Failsworth, Manchester", "Postcode": "M35 9RD", "Area name": "Oldham", "Area code": "E0800004" }, "geometry": { "type": "Point", "coordinates": [ -2.15409, 53.508521 ] } },
{ "type": "Feature", "properties": { "Name": "Coral Racing Limited", "Activity": "Betting Shop", "Address": "Coral Racing Ltd, 11 Beal Lane, Shaw, Oldham", "Postcode": "OL2 8UY", "Area name": "Oldham", "Area code": "E0800004" }, "geometry": { "type": "Point", "coordinates": [ -2.091046, 53.577328 ] } },
{ "type": "Feature", "properties": { "Name": "Coral Racing Limited", "Activity": "Betting Shop", "Address": "Coral Racing Ltd, 20-24 Henshaw Street, Oldham", "Postcode": "OL1 3AA", "Area name": "Oldham", "Area code": "E0800004" }, "geometry": { "type": "Point", "coordinates": [ -2.114995, 53.542586 ] } },
{ "type": "Feature", "properties": { "Name": "Coral Racing Limited", "Activity": "Betting Shop", "Address": "Coral Racing Ltd, 4 High Street, Shaw, Oldham", "Postcode": "OL2 8RQ", "Area name": "Oldham", "Area code": "E0800004" }, "geometry": { "type": "Point", "coordinates": [ -2.094739, 53.575526 ] } },
{ "type": "Feature", "properties": { "Name": "Coral Racing Limited", "Activity": "Betting Shop", "Address": "Coral Racing Ltd, 461 Huddersfield Road, Oldham", "Postcode": "OL4 2HT", "Area name": "Oldham", "Area code": "E0800004" }, "geometry": { "type": "Point", "coordinates": [ -2.077191, 53.549627 ] } },
{ "type": "Feature", "properties": { "Name": "Coral Racing Limited", "Activity": "Betting Shop", "Address": "Coral Racing Ltd, 86\/88 Market Street, Shaw, Oldham", "Postcode": "OL2 8NP", "Area name": "Oldham", "Area code": "E0800004" }, "geometry": { "type": "Point", "coordinates": [ -2.094032, 53.575726 ] } },
{ "type": "Feature", "properties": { "Name": "Coral Racing Limited", "Activity": "Betting Shop", "Address": "Coral Racing Ltd, Unit 10 Failsworth Ship Centre, Oldham Road, Failsworth, Manchester", "Postcode": "M35 0JE", "Area name": "Oldham", "Area code": "E0800004" }, "geometry": { "type": "Point", "coordinates": [ -2.17601, 53.503951 ] } },
{ "type": "Feature", "properties": { "Name": "Coral Racing Limited", "Activity": "Betting Shop", "Address": "Coral Racing Ltd, Unit 2 Failsworth Precinct, Manchester", "Postcode": "M35 0FF", "Area name": "Oldham", "Area code": "E0800004" }, "geometry": { "type": "Point", "coordinates": [ -2.158361, 53.509567 ] } },
{ "type": "Feature", "properties": { "Name": "Coral Racing Limited", "Activity": "Betting Shop", "Address": "Coral Racing Ltd, Unit 2 Market Square, Oldham", "Postcode": "OL2 5QD", "Area name": "Oldham", "Area code": "E0800004" }, "geometry": { "type": "Point", "coordinates": [ -2.123393, 53.566109 ] } },
{ "type": "Feature", "properties": { "Name": "Mecca Bingo Limited", "Activity": "Adult Gaming Centre", "Address": "Mecca Bingo, King Square, 24-28 King Street, Oldham", "Postcode": "OL8 1DR", "Area name": "Oldham", "Area code": "E0800004" }, "geometry": { "type": "Point", "coordinates": [ -2.118127, 53.5403 ] } },
{ "type": "Feature", "properties": { "Name": "Mecca Bingo Limited", "Activity": "Bingo", "Address": "Mecca Bingo, King Square, 24-28 King Street, Oldham", "Postcode": "OL8 1DR", "Area name": "Oldham", "Area code": "E0800004" }, "geometry": { "type": "Point", "coordinates": [ -2.118127, 53.5403 ] } },
{ "type": "Feature", "properties": { "Name": "Mohammed Yousaf", "Activity": "Adult Gaming Centre", "Address": "Royal Amusements, 18-20 Curzon Street, Oldham", "Postcode": "OL1 3AG", "Area name": "Oldham", "Area code": "E0800004" }, "geometry": { "type": "Point", "coordinates": [ -2.113739, 53.542369 ] } },
{ "type": "Feature", "properties": { "Name": "William Hill Organization Limited", "Activity": "Betting Shop", "Address": "William Hill, 101 High Street, Lees, Oldham", "Postcode": "OL4 4LY", "Area name": "Oldham", "Area code": "E0800004" }, "geometry": { "type": "Point", "coordinates": [ -2.070863, 53.537748 ] } },
{ "type": "Feature", "properties": { "Name": "William Hill Organization Limited", "Activity": "Betting Shop", "Address": "William Hill, 11-13 Market Street, Royton, Oldham", "Postcode": "OL2 5QA", "Area name": "Oldham", "Area code": "E0800004" }, "geometry": { "type": "Point", "coordinates": [ -2.12386, 53.565731 ] } },
{ "type": "Feature", "properties": { "Name": "William Hill Organization Limited", "Activity": "Betting Shop", "Address": "William Hill, 12 Market Street, Shaw", "Postcode": "OL2 8NH", "Area name": "Oldham", "Area code": "E0800004" }, "geometry": { "type": "Point", "coordinates": [ -2.093915, 53.577083 ] } },
{ "type": "Feature", "properties": { "Name": "William Hill Organization Limited", "Activity": "Betting Shop", "Address": "William Hill, 175 Huddersfield Road, Oldham", "Postcode": "OL1 3PA", "Area name": "Oldham", "Area code": "E0800004" }, "geometry": { "type": "Point", "coordinates": [ -2.090661, 53.546974 ] } },
{ "type": "Feature", "properties": { "Name": "William Hill Organization Limited", "Activity": "Betting Shop", "Address": "William Hill, 18 High Street, Oldham", "Postcode": "OL1 1JA", "Area name": "Oldham", "Area code": "E0800004" }, "geometry": { "type": "Point", "coordinates": [ -2.112819, 53.541797 ] } },
{ "type": "Feature", "properties": { "Name": "William Hill Organization Limited", "Activity": "Betting Shop", "Address": "William Hill, 2-4 Ashton Road East, Failsworth, Manchester", "Postcode": "M35 9PT", "Area name": "Oldham", "Area code": "E0800004" }, "geometry": { "type": "Point", "coordinates": [ -2.152785, 53.510248 ] } },
{ "type": "Feature", "properties": { "Name": "William Hill Organization Limited", "Activity": "Betting Shop", "Address": "William Hill, 723A Oldham Road, Failsworth, Manchester", "Postcode": "M35 9AU", "Area name": "Oldham", "Area code": "E0800004" }, "geometry": { "type": "Point", "coordinates": [ -2.146584, 53.518076 ] } },
{ "type": "Feature", "properties": { "Name": "William Hill Organization Limited", "Activity": "Betting Shop", "Address": "William Hill, 760\/762 Oldham Road, Failsworth, Manchester", "Postcode": "M35 9FE", "Area name": "Oldham", "Area code": "E0800004" }, "geometry": { "type": "Point", "coordinates": [ -2.147244, 53.516987 ] } },
{ "type": "Feature", "properties": { "Name": "Tote (Successor Company) Limited", "Activity": "Betting Shop", "Address": "Totesport, 5-6 Eldon Precinct, Oldham", "Postcode": "OL8 1JP", "Area name": "Oldham", "Area code": "E0800004" }, "geometry": { "type": "Point", "coordinates": [ -2.115052, 53.53606 ] } },
{ "type": "Feature", "properties": { "Name": "I Lewis (Commission Agents) Limited", "Activity": "Betting Shop", "Address": "Lewis Bet Bookmakers, 313 Cutgate Shopping Precinct, Edenfield Road, Rochdale", "Postcode": "OL11 5AQ", "Area name": "Rochdale", "Area code": "E0800005" }, "geometry": { "type": "Point", "coordinates": [ -2.188671, 53.622297 ] } },
{ "type": "Feature", "properties": { "Name": "Robert Holmes, Benjamin Robert Holmes & Ryan James Holmes", "Activity": "Betting Shop", "Address": "Bob Holmes Bookmaker, 6 Chapel Walks, Middleton, Manchester", "Postcode": "M24 4QB", "Area name": "Rochdale", "Area code": "E0800005" }, "geometry": { "type": "Point", "coordinates": [ -2.224724, 53.544155 ] } },
{ "type": "Feature", "properties": { "Name": "Power Leisure Bookmakers Limited", "Activity": "Betting Shop", "Address": "Paddy Power, Ground Floor, 15 Yorkshire Street, Rochdale", "Postcode": "OL16 1BH", "Area name": "Rochdale", "Area code": "E0800005" }, "geometry": { "type": "Point", "coordinates": [ -2.158795, 53.61721 ] } },
{ "type": "Feature", "properties": { "Name": "Done Brothers (Cash Betting) Limited", "Activity": "Betting Shop", "Address": "Betfred, 106 Manchester Street, Heywood", "Postcode": "OL10 1DW", "Area name": "Rochdale", "Area code": "E0800005" }, "geometry": { "type": "Point", "coordinates": [ -2.211868, 53.589642 ] } },
{ "type": "Feature", "properties": { "Name": "Done Brothers (Cash Betting) Limited", "Activity": "Betting Shop", "Address": "Betfred, 183 Kirkway, Middleton, Manchester", "Postcode": "M24 1LW", "Area name": "Rochdale", "Area code": "E0800005" }, "geometry": { "type": "Point", "coordinates": [ -2.19261, 53.537273 ] } },
{ "type": "Feature", "properties": { "Name": "Done Brothers (Cash Betting) Limited", "Activity": "Betting Shop", "Address": "Betfred, 23 Long Street, Middleton, Manchester", "Postcode": "M24 6UQ", "Area name": "Rochdale", "Area code": "E0800005" }, "geometry": { "type": "Point", "coordinates": [ -2.196462, 53.551664 ] } },
{ "type": "Feature", "properties": { "Name": "Done Brothers (Cash Betting) Limited", "Activity": "Betting Shop", "Address": "Betfred, 61-63 Halifax Road, Rochdale", "Postcode": "OL12 9BA", "Area name": "Rochdale", "Area code": "E0800005" }, "geometry": { "type": "Point", "coordinates": [ -2.142923, 53.626371 ] } },
{ "type": "Feature", "properties": { "Name": "Done Brothers (Cash Betting) Limited", "Activity": "Betting Shop", "Address": "Betfred, 7 Yorkshire Street, Rochdale", "Postcode": "OL16 1BH", "Area name": "Rochdale", "Area code": "E0800005" }, "geometry": { "type": "Point", "coordinates": [ -2.158795, 53.61721 ] } },
{ "type": "Feature", "properties": { "Name": "Done Brothers (Cash Betting) Limited", "Activity": "Betting Shop", "Address": "Betfred, 80 Bury Street, Heywood", "Postcode": "OL10 4QT", "Area name": "Rochdale", "Area code": "E0800005" }, "geometry": { "type": "Point", "coordinates": [ -2.23405, 53.593331 ] } },
{ "type": "Feature", "properties": { "Name": "Done Brothers (Cash Betting) Limited", "Activity": "Betting Shop", "Address": "Betfred, 820-822 Manchester Road, Rochdale", "Postcode": "OL11 3AW", "Area name": "Rochdale", "Area code": "E0800005" }, "geometry": { "type": "Point", "coordinates": [ -2.180229, 53.592559 ] } },
{ "type": "Feature", "properties": { "Name": "Done Brothers (Cash Betting) Limited", "Activity": "Betting Shop", "Address": "Betfred, Unit 2 Mayfiled Public House, Albert Royds Street, Rochdale", "Postcode": "OL16 2UE", "Area name": "Rochdale", "Area code": "E0800005" }, "geometry": { "type": "Point", "coordinates": [ -2.133445, 53.622329 ] } },
{ "type": "Feature", "properties": { "Name": "Talarius Limited", "Activity": "Adult Gaming Centre", "Address": "Quicksilver, 88\/90 Yorkshire Street, Rochdale", "Postcode": "OL16 1JX", "Area name": "Rochdale", "Area code": "E0800005" }, "geometry": { "type": "Point", "coordinates": [ -2.156185, 53.618823 ] } },
{ "type": "Feature", "properties": { "Name": "Talarius Limited", "Activity": "Adult Gaming Centre", "Address": "Quicksilver, G43-G44, Arndale Shopping Centre, Middleton, Manchester", "Postcode": "M24 4EL", "Area name": "Rochdale", "Area code": "E0800005" }, "geometry": { "type": "Point", "coordinates": [ -2.201051, 53.548242 ] } },
{ "type": "Feature", "properties": { "Name": "Ladbrokes Betting & Gaming Limited", "Activity": "Betting Shop", "Address": "Ladbrokes, 13 The Butts, Rochdale", "Postcode": "OL16 1ES", "Area name": "Rochdale", "Area code": "E0800005" }, "geometry": { "type": "Point", "coordinates": [ -2.157661, 53.617338 ] } },
{ "type": "Feature", "properties": { "Name": "Ladbrokes Betting & Gaming Limited", "Activity": "Betting Shop", "Address": "Ladbrokes, 2 The Strand, Kirkholt, Rochdale", "Postcode": "OL11 2JG", "Area name": "Rochdale", "Area code": "E0800005" }, "geometry": { "type": "Point", "coordinates": [ -2.156245, 53.593988 ] } },
{ "type": "Feature", "properties": { "Name": "Ladbrokes Betting & Gaming Limited", "Activity": "Betting Shop", "Address": "Ladbrokes, 20 Argyle Parade, Heywood", "Postcode": "OL10 3RY", "Area name": "Rochdale", "Area code": "E0800005" }, "geometry": { "type": "Point", "coordinates": [ -2.241075, 53.587888 ] } },
{ "type": "Feature", "properties": { "Name": "Ladbrokes Betting & Gaming Limited", "Activity": "Betting Shop", "Address": "Ladbrokes, 29 Church Street, Littleborough", "Postcode": "OL15 8DA", "Area name": "Rochdale", "Area code": "E0800005" }, "geometry": { "type": "Point", "coordinates": [ -2.094426, 53.643767 ] } },
{ "type": "Feature", "properties": { "Name": "Ladbrokes Betting & Gaming Limited", "Activity": "Betting Shop", "Address": "Ladbrokes, 29 Tweedale Street, Rochdale", "Postcode": "OL11 1HH", "Area name": "Rochdale", "Area code": "E0800005" }, "geometry": { "type": "Point", "coordinates": [ -2.158131, 53.610028 ] } },
{ "type": "Feature", "properties": { "Name": "Ladbrokes Betting & Gaming Limited", "Activity": "Betting Shop", "Address": "Ladbrokes, Unit 4, Amenity Building, Birch Motorway Service Station, Eastbound M62, Manchester", "Postcode": "OL10 2QH", "Area name": "Rochdale", "Area code": "E0800005" }, "geometry": { "type": "Point", "coordinates": [ -2.225403, 53.566823 ] } },
{ "type": "Feature", "properties": { "Name": "Ladbrokes Betting & Gaming Limited", "Activity": "Betting Shop", "Address": "Ladbrokes, Unit 47\/48, Middleton Shopping Centre, Middleton, Manchester", "Postcode": "M24 4EL", "Area name": "Rochdale", "Area code": "E0800005" }, "geometry": { "type": "Point", "coordinates": [ -2.201051, 53.548242 ] } },
{ "type": "Feature", "properties": { "Name": "Ladbrokes Betting & Gaming Limited", "Activity": "Betting Shop", "Address": "Ladbrokes, Unit 6&7, Stone Street Precint, Newhey Road, Milnrow, Rochdale", "Postcode": "OL16 4JD", "Area name": "Rochdale", "Area code": "E0800005" }, "geometry": { "type": "Point", "coordinates": [ -2.107009, 53.607093 ] } },
{ "type": "Feature", "properties": { "Name": "Fraser Capital Management Limited", "Activity": "Bingo", "Address": "Club 3000 Bingo, Arndale Centre, Middleton, Manchester", "Postcode": "M24 4EL", "Area name": "Rochdale", "Area code": "E0800005" }, "geometry": { "type": "Point", "coordinates": [ -2.201051, 53.548242 ] } },
{ "type": "Feature", "properties": { "Name": "David Pluck (North West) Limited", "Activity": "Betting Shop", "Address": "David Pluck Racing, 14-16 Market Street, Heywood", "Postcode": "OL10 4LY", "Area name": "Rochdale", "Area code": "E0800005" }, "geometry": { "type": "Point", "coordinates": [ -2.22251, 53.593829 ] } },
{ "type": "Feature", "properties": { "Name": "Coral Racing Limited", "Activity": "Betting Shop", "Address": "Coral Racing Ltd, 14A-16 Wood Street, Middleton, Manchester", "Postcode": "M24 5TF", "Area name": "Rochdale", "Area code": "E0800005" }, "geometry": { "type": "Point", "coordinates": [ -2.199128, 53.55016 ] } },
{ "type": "Feature", "properties": { "Name": "Coral Racing Limited", "Activity": "Betting Shop", "Address": "Coral Racing Ltd, 25 Drake Street, Rochdale", "Postcode": "OL16 1RX", "Area name": "Rochdale", "Area code": "E0800005" }, "geometry": { "type": "Point", "coordinates": [ -2.155283, 53.616305 ] } },
{ "type": "Feature", "properties": { "Name": "Coral Racing Limited", "Activity": "Betting Shop", "Address": "Coral Racing Ltd, 378 Lower Falinge, Rochdale, Lancashire", "Postcode": "OL12 6BR", "Area name": "Rochdale", "Area code": "E0800005" }, "geometry": { "type": "Point", "coordinates": [ -2.198055, 53.630463 ] } },
{ "type": "Feature", "properties": { "Name": "Coral Racing Limited", "Activity": "Betting Shop", "Address": "Coral Racing LTD, 40 Yorkshire Street, Rochdale", "Postcode": "OL16 1JN", "Area name": "Rochdale", "Area code": "E0800005" }, "geometry": { "type": "Point", "coordinates": [ -2.158011, 53.61776 ] } },
{ "type": "Feature", "properties": { "Name": "Coral Racing Limited", "Activity": "Betting Shop", "Address": "Coral Racing Ltd, 85 Milkstone Road, Rochdale", "Postcode": "OL11 1NT", "Area name": "Rochdale", "Area code": "E0800005" }, "geometry": { "type": "Point", "coordinates": [ -2.154636, 53.608416 ] } },
{ "type": "Feature", "properties": { "Name": "Mecca Bingo Limited", "Activity": "Bingo", "Address": "Mecca Bingo, Smith Street, Rochdale", "Postcode": "OL16 1YH", "Area name": "Rochdale", "Area code": "E0800005" }, "geometry": { "type": "Point", "coordinates": [ -2.152824, 53.617371 ] } },
{ "type": "Feature", "properties": { "Name": "Moto Hospitality Limited", "Activity": "Adult Gaming Centre", "Address": "Moto, Full House, AGC 2, Birch West Service Area, M62 Motorwa, Heywood", "Postcode": "OL10 2QH", "Area name": "Rochdale", "Area code": "E0800005" }, "geometry": { "type": "Point", "coordinates": [ -2.225403, 53.566823 ] } },
{ "type": "Feature", "properties": { "Name": "Moto Hospitality Limited", "Activity": "Adult Gaming Centre", "Address": "Moto, Full House, Birch West Service Area, M62 Motorwa, Heywood", "Postcode": "OL10 2QH", "Area name": "Rochdale", "Area code": "E0800005" }, "geometry": { "type": "Point", "coordinates": [ -2.225403, 53.566823 ] } },
{ "type": "Feature", "properties": { "Name": "Moto Hospitality Limited", "Activity": "Adult Gaming Centre", "Address": "Moto, Full House, Moto Birch East Bound, Heywood", "Postcode": "OL10 2HQ", "Area name": "Rochdale", "Area code": "E0800005" }, "geometry": { "type": "Point", "coordinates": [ -2.207978, 53.585056 ] } },
{ "type": "Feature", "properties": { "Name": "Moto Hospitality Limited", "Activity": "Adult Gaming Centre", "Address": "Moto, Lucky Coin, Birch Services East Bound, Heywood", "Postcode": "OL10 2HQ", "Area name": "Rochdale", "Area code": "E0800005" }, "geometry": { "type": "Point", "coordinates": [ -2.207978, 53.585056 ] } },
{ "type": "Feature", "properties": { "Name": "Beacon Bingo Limited", "Activity": "Bingo", "Address": "Showboat Holdings Ltd, 24 Yorkshire Steet, Rochdale", "Postcode": "OL16 1EN", "Area name": "Rochdale", "Area code": "E0800005" }, "geometry": { "type": "Point", "coordinates": [ -2.158236, 53.617319 ] } },
{ "type": "Feature", "properties": { "Name": "Jay Bee Leisure (Leigh) Limited", "Activity": "Adult Gaming Centre", "Address": "Jay Bee Leisure, 55 Yorkshire Street, Rochdale", "Postcode": "OL16 1BT", "Area name": "Rochdale", "Area code": "E0800005" }, "geometry": { "type": "Point", "coordinates": [ -2.15756, 53.618416 ] } },
{ "type": "Feature", "properties": { "Name": "William Hill Organization Limited", "Activity": "Betting Shop", "Address": "William Hill, 108 Yorkshire Street, Rochdale", "Postcode": "OL16 1JY", "Area name": "Rochdale", "Area code": "E0800005" }, "geometry": { "type": "Point", "coordinates": [ -2.155415, 53.619084 ] } },
{ "type": "Feature", "properties": { "Name": "William Hill Organization Limited", "Activity": "Betting Shop", "Address": "William Hill, 112\/114 Whitworth Road, Rochdale", "Postcode": "OL12 0JG", "Area name": "Rochdale", "Area code": "E0800005" }, "geometry": { "type": "Point", "coordinates": [ -2.155847, 53.625376 ] } },
{ "type": "Feature", "properties": { "Name": "William Hill Organization Limited", "Activity": "Betting Shop", "Address": "William Hill, 162 Whitworth Road, Rochdale", "Postcode": "OL12 0JG", "Area name": "Rochdale", "Area code": "E0800005" }, "geometry": { "type": "Point", "coordinates": [ -2.155847, 53.625376 ] } },
{ "type": "Feature", "properties": { "Name": "William Hill Organization Limited", "Activity": "Betting Shop", "Address": "William Hill, 1A Lakeland Court, Middleton, Manchester", "Postcode": "M24 5QJ", "Area name": "Rochdale", "Area code": "E0800005" }, "geometry": { "type": "Point", "coordinates": [ -2.215328, 53.557188 ] } },
{ "type": "Feature", "properties": { "Name": "William Hill Organization Limited", "Activity": "Betting Shop", "Address": "William Hill, 223 Boarshaw Road, Middleton, Manchester", "Postcode": "M24 2WQ", "Area name": "Rochdale", "Area code": "E0800005" }, "geometry": { "type": "Point", "coordinates": [ -2.187053, 53.55675 ] } },
{ "type": "Feature", "properties": { "Name": "William Hill Organization Limited", "Activity": "Betting Shop", "Address": "William Hill, 4\/6 Baillie Street, Rochdale", "Postcode": "OL16 1JG", "Area name": "Rochdale", "Area code": "E0800005" }, "geometry": { "type": "Point", "coordinates": [ -2.157647, 53.617508 ] } },
{ "type": "Feature", "properties": { "Name": "William Hill Organization Limited", "Activity": "Betting Shop", "Address": "William Hill, 409-411 Oldham Road, Rochdale", "Postcode": "OL16 4SZ", "Area name": "Rochdale", "Area code": "E0800005" }, "geometry": { "type": "Point", "coordinates": [ -2.146125, 53.603439 ] } },
{ "type": "Feature", "properties": { "Name": "William Hill Organization Limited", "Activity": "Betting Shop", "Address": "William Hill, 446\/448 Oldham Road, Middleton, Manchester", "Postcode": "M24 2FA", "Area name": "Rochdale", "Area code": "E0800005" }, "geometry": { "type": "Point", "coordinates": [ -2.177654, 53.550787 ] } },
{ "type": "Feature", "properties": { "Name": "William Hill Organization Limited", "Activity": "Betting Shop", "Address": "William Hill, 47\/49 Market Place, Heywood", "Postcode": "OL10 4NL", "Area name": "Rochdale", "Area code": "E0800005" }, "geometry": { "type": "Point", "coordinates": [ -2.219986, 53.593708 ] } },
{ "type": "Feature", "properties": { "Name": "William Hill Organization Limited", "Activity": "Betting Shop", "Address": "William Hill, 50 Church Street, Littleborough", "Postcode": "OL15 8AU", "Area name": "Rochdale", "Area code": "E0800005" }, "geometry": { "type": "Point", "coordinates": [ -2.097829, 53.643656 ] } },
{ "type": "Feature", "properties": { "Name": "William Hill Organization Limited", "Activity": "Betting Shop", "Address": "William Hill, 83 Whitworth Road, Rochdale", "Postcode": "OL12 0RD", "Area name": "Rochdale", "Area code": "E0800005" }, "geometry": { "type": "Point", "coordinates": [ -2.156041, 53.624638 ] } },
{ "type": "Feature", "properties": { "Name": "William Hill Organization Limited", "Activity": "Betting Shop", "Address": "William Hill, 83 York Street, Heywood", "Postcode": "OL10 4NR", "Area name": "Rochdale", "Area code": "E0800005" }, "geometry": { "type": "Point", "coordinates": [ -2.215952, 53.593544 ] } },
{ "type": "Feature", "properties": { "Name": "William Hill Organization Limited", "Activity": "Betting Shop", "Address": "William Hill, 8A & 8B Wood Street, Middleton, Manchester", "Postcode": "M24 5TF", "Area name": "Rochdale", "Area code": "E0800005" }, "geometry": { "type": "Point", "coordinates": [ -2.199128, 53.55016 ] } },
{ "type": "Feature", "properties": { "Name": "William Edward Jeffries, Patrick Jeffries and Jason Jeffries", "Activity": "Adult Gaming Centre", "Address": "Jefferies Arcade, 39-41 Middleton Gardens, Middleton, Manchester", "Postcode": "M24 1AB", "Area name": "Rochdale", "Area code": "E0800005" }, "geometry": { "type": "Point", "coordinates": [ -2.198803, 53.548471 ] } },
{ "type": "Feature", "properties": { "Name": "Rank Leisure Limited", "Activity": "Adult Gaming Centre", "Address": "Rank Leisure, Smith Street, Rochdale", "Postcode": "OL16 1YH", "Area name": "Rochdale", "Area code": "E0800005" }, "geometry": { "type": "Point", "coordinates": [ -2.152824, 53.617371 ] } },
{ "type": "Feature", "properties": { "Name": "Wallis Leisure Limited", "Activity": "Family Entertainment Centre", "Address": "Wallis's Amusements, 49 Lake Bank, Littleborough", "Postcode": "OL15 0DQ", "Area name": "Rochdale", "Area code": "E0800005" }, "geometry": { "type": "Point", "coordinates": [ -2.102761, 53.631527 ] } },
{ "type": "Feature", "properties": { "Name": "Palatial Leisure Limited", "Activity": "Bingo", "Address": "Palace Bingo Club, 14 Great Clowes Street, Salford", "Postcode": "M7 1RE", "Area name": "Salford", "Area code": "E0800006" }, "geometry": { "type": "Point", "coordinates": [ -2.259258, 53.490901 ] } },
{ "type": "Feature", "properties": { "Name": "Genting Casinos UK Limited", "Activity": "Casino", "Address": "Genting Casino Salford, Cromwell Road, Castle Irwell, Salford", "Postcode": "M6 6DA", "Area name": "Salford", "Area code": "E0800006" }, "geometry": { "type": "Point", "coordinates": [ -2.27257, 53.498771 ] } },
{ "type": "Feature", "properties": { "Name": "Grosvenor Casinos Limited", "Activity": "Casino", "Address": "Salford Grosvenor Casino, 5 Derwent Street, Salford", "Postcode": "M5 4SW", "Area name": "Salford", "Area code": "E0800006" }, "geometry": { "type": "Point", "coordinates": [ -2.264106, 53.475412 ] } },
{ "type": "Feature", "properties": { "Name": "Megabet UK Limited", "Activity": "Betting Shop", "Address": "Stan James, 696-698 Bolton Road, Pendlebury, Swinton, Manchester", "Postcode": "M27 6EL", "Area name": "Salford", "Area code": "E0800006" }, "geometry": { "type": "Point", "coordinates": [ -2.333786, 53.519254 ] } },
{ "type": "Feature", "properties": { "Name": "Done Brothers (Cash Betting) Limited", "Activity": "Betting Shop", "Address": "Betfred, 110 Monton Road, Eccles, Manchester", "Postcode": "M30 9PY", "Area name": "Salford", "Area code": "E0800006" }, "geometry": { "type": "Point", "coordinates": [ -2.351682, 53.49124 ] } },
{ "type": "Feature", "properties": { "Name": "Done Brothers (Cash Betting) Limited", "Activity": "Betting Shop", "Address": "Betfred, 15 Mocha Parade, Salford", "Postcode": "M7 1QE", "Area name": "Salford", "Area code": "E0800006" }, "geometry": { "type": "Point", "coordinates": [ -2.260831, 53.491734 ] } },
{ "type": "Feature", "properties": { "Name": "Done Brothers (Cash Betting) Limited", "Activity": "Betting Shop", "Address": "Betfred, 177-179 Langworthy Road, Salford", "Postcode": "M6 5PW", "Area name": "Salford", "Area code": "E0800006" }, "geometry": { "type": "Point", "coordinates": [ -2.295174, 53.486395 ] } },
{ "type": "Feature", "properties": { "Name": "Done Brothers (Cash Betting) Limited", "Activity": "Betting Shop", "Address": "Betfred, 192A-192B Liverpool Road, Cadishead, Manchester", "Postcode": "M44 5DB", "Area name": "Salford", "Area code": "E0800006" }, "geometry": { "type": "Point", "coordinates": [ -2.439488, 53.423715 ] } },
{ "type": "Feature", "properties": { "Name": "Done Brothers (Cash Betting) Limited", "Activity": "Betting Shop", "Address": "Betfred, 21 The Parade, Swinton, Manchester", "Postcode": "M27 4BH", "Area name": "Salford", "Area code": "E0800006" }, "geometry": { "type": "Point", "coordinates": [ -2.338782, 53.512435 ] } },
{ "type": "Feature", "properties": { "Name": "Done Brothers (Cash Betting) Limited", "Activity": "Betting Shop", "Address": "Betfred, 220 Chapel Street, Salford", "Postcode": "M3 5LE", "Area name": "Salford", "Area code": "E0800006" }, "geometry": { "type": "Point", "coordinates": [ -2.259422, 53.483511 ] } },
{ "type": "Feature", "properties": { "Name": "Done Brothers (Cash Betting) Limited", "Activity": "Betting Shop", "Address": "Betfred, 276-278 Liverpool Road, Eccles, Manchester", "Postcode": "M30 0RZ", "Area name": "Salford", "Area code": "E0800006" }, "geometry": { "type": "Point", "coordinates": [ -2.35658, 53.482111 ] } },
{ "type": "Feature", "properties": { "Name": "Done Brothers (Cash Betting) Limited", "Activity": "Betting Shop", "Address": "Betfred, 307-309 Littleton Road, Salford", "Postcode": "M7 3TA", "Area name": "Salford", "Area code": "E0800006" }, "geometry": { "type": "Point", "coordinates": [ -2.280008, 53.503968 ] } },
{ "type": "Feature", "properties": { "Name": "Done Brothers (Cash Betting) Limited", "Activity": "Betting Shop", "Address": "Betfred, 333-335 Bolton Road, Salford", "Postcode": "M6 7GU", "Area name": "Salford", "Area code": "E0800006" }, "geometry": { "type": "Point", "coordinates": [ -2.30651, 53.499346 ] } },
{ "type": "Feature", "properties": { "Name": "Done Brothers (Cash Betting) Limited", "Activity": "Betting Shop", "Address": "Betfred, 392 Worsley Road, Eccles, Manchester", "Postcode": "M30 8HQ", "Area name": "Salford", "Area code": "E0800006" }, "geometry": { "type": "Point", "coordinates": [ -2.372893, 53.491733 ] } },
{ "type": "Feature", "properties": { "Name": "Done Brothers (Cash Betting) Limited", "Activity": "Betting Shop", "Address": "Betfred, 43-44 Hankinson Way, Salford", "Postcode": "M6 5JA", "Area name": "Salford", "Area code": "E0800006" }, "geometry": { "type": "Point", "coordinates": [ -2.28663, 53.488879 ] } },
{ "type": "Feature", "properties": { "Name": "Done Brothers (Cash Betting) Limited", "Activity": "Betting Shop", "Address": "Betfred, 498-502 Liverpool Road, Manchester", "Postcode": "M30 7HZ", "Area name": "Salford", "Area code": "E0800006" }, "geometry": { "type": "Point", "coordinates": [ -2.364765, 53.478949 ] } },
{ "type": "Feature", "properties": { "Name": "Done Brothers (Cash Betting) Limited", "Activity": "Betting Shop", "Address": "Betfred, 5 Standfield Centre, Manchester", "Postcode": "M28 1FB", "Area name": "Salford", "Area code": "E0800006" }, "geometry": { "type": "Point", "coordinates": [ -2.416095, 53.503006 ] } },
{ "type": "Feature", "properties": { "Name": "Done Brothers (Cash Betting) Limited", "Activity": "Betting Shop", "Address": "Betfred, 500 Manchester Road East, Little Hulton, Manchester", "Postcode": "M38 9NS", "Area name": "Salford", "Area code": "E0800006" }, "geometry": { "type": "Point", "coordinates": [ -2.421842, 53.53058 ] } },
{ "type": "Feature", "properties": { "Name": "Done Brothers (Cash Betting) Limited", "Activity": "Betting Shop", "Address": "Betfred, 582-584 Bolton Road, Pendlebury, Swinton, Manchester", "Postcode": "M27 4ET", "Area name": "Salford", "Area code": "E0800006" }, "geometry": { "type": "Point", "coordinates": [ -2.330998, 53.517599 ] } },
{ "type": "Feature", "properties": { "Name": "Done Brothers (Cash Betting) Limited", "Activity": "Betting Shop", "Address": "Betfred, 6 Union Terrace, Bury Old Road", "Postcode": "M7 4ZH", "Area name": "Salford", "Area code": "E0800006" }, "geometry": { "type": "Point", "coordinates": [ -2.245864, 53.512583 ] } },
{ "type": "Feature", "properties": { "Name": "Done Brothers (Cash Betting) Limited", "Activity": "Betting Shop", "Address": "Betfred, 64 Church Street, Eccles, Manchester", "Postcode": "M30 0DA", "Area name": "Salford", "Area code": "E0800006" }, "geometry": { "type": "Point", "coordinates": [ -2.336019, 53.483365 ] } },
{ "type": "Feature", "properties": { "Name": "Done Brothers (Cash Betting) Limited", "Activity": "Betting Shop", "Address": "Betfred, 67 Tootal Road, Salford", "Postcode": "M5 5EG", "Area name": "Salford", "Area code": "E0800006" }, "geometry": { "type": "Point", "coordinates": [ -2.310591, 53.484522 ] } },
{ "type": "Feature", "properties": { "Name": "Done Brothers (Cash Betting) Limited", "Activity": "Betting Shop", "Address": "Betfred, 80 Pendleton Way, Salford", "Postcode": "M6 5FW", "Area name": "Salford", "Area code": "E0800006" }, "geometry": { "type": "Point", "coordinates": [ -2.289026, 53.488703 ] } },
{ "type": "Feature", "properties": { "Name": "Done Brothers (Cash Betting) Limited", "Activity": "Betting Shop", "Address": "Betfred, 92-94 Liverpool Road, Irlam, Manchester", "Postcode": "M44 6FN", "Area name": "Salford", "Area code": "E0800006" }, "geometry": { "type": "Point", "coordinates": [ -2.409927, 53.452835 ] } },
{ "type": "Feature", "properties": { "Name": "Done Brothers (Cash Betting) Limited", "Activity": "Betting Shop", "Address": "Betfred, Broughton Road, Salford", "Postcode": "M6 6LS", "Area name": "Salford", "Area code": "E0800006" }, "geometry": { "type": "Point", "coordinates": [ -2.283855, 53.493074 ] } },
{ "type": "Feature", "properties": { "Name": "Done Brothers (Cash Betting) Limited", "Activity": "Betting Shop", "Address": "Betfred, Unit 150\/151  Ellesmere Shopping Centre, Bolton Road, Worsley, Manchester", "Postcode": "M28 3ZH", "Area name": "Salford", "Area code": "E0800006" }, "geometry": { "type": "Point", "coordinates": [ -2.400383, 53.525045 ] } },
{ "type": "Feature", "properties": { "Name": "Done Brothers (Cash Betting) Limited", "Activity": "Betting Shop", "Address": "Betfred, Unit 4 Radclyffe Park, Trafford Road, Salford", "Postcode": "M5 3PH", "Area name": "Salford", "Area code": "E0800006" }, "geometry": { "type": "Point", "coordinates": [ -2.280971, 53.473981 ] } },
{ "type": "Feature", "properties": { "Name": "Done Brothers (Cash Betting) Limited", "Activity": "Betting Shop", "Address": "Done Bookmakers, Unit 21-23  The Parade, Swinton, Manchester", "Postcode": "M27 4BH", "Area name": "Salford", "Area code": "E0800006" }, "geometry": { "type": "Point", "coordinates": [ -2.338782, 53.512435 ] } },
{ "type": "Feature", "properties": { "Name": "Talarius Limited", "Activity": "Adult Gaming Centre", "Address": "Quicksilver, 81 Pendleton Way, Salford", "Postcode": "M6 5FW", "Area name": "Salford", "Area code": "E0800006" }, "geometry": { "type": "Point", "coordinates": [ -2.289026, 53.488703 ] } },
{ "type": "Feature", "properties": { "Name": "Summit Leisure (Swinton) Limited", "Activity": "Adult Gaming Centre", "Address": "Shaws Amusements, 93 The Parade, Swinton, Manchester", "Postcode": "M27 4BD", "Area name": "Salford", "Area code": "E0800006" }, "geometry": { "type": "Point", "coordinates": [ -2.33786, 53.511926 ] } },
{ "type": "Feature", "properties": { "Name": "Ladbrokes Betting & Gaming Limited", "Activity": "Betting Shop", "Address": "Ladbrokes, 114 Sutton Way, Salford Shopping City, Salford", "Postcode": "M6 5HS", "Area name": "Salford", "Area code": "E0800006" }, "geometry": { "type": "Point", "coordinates": [ -2.287944, 53.489164 ] } },
{ "type": "Feature", "properties": { "Name": "Ladbrokes Betting & Gaming Limited", "Activity": "Betting Shop", "Address": "Ladbrokes, 267 Great Cheetham Street East, Salford", "Postcode": "M7 4UF", "Area name": "Salford", "Area code": "E0800006" }, "geometry": { "type": "Point", "coordinates": [ -2.254856, 53.503162 ] } },
{ "type": "Feature", "properties": { "Name": "Ladbrokes Betting & Gaming Limited", "Activity": "Betting Shop", "Address": "Ladbrokes, 38 Hulton District Centre, Worsley, Manchester", "Postcode": "M28 0AU", "Area name": "Salford", "Area code": "E0800006" }, "geometry": { "type": "Point", "coordinates": [ -2.423225, 53.530063 ] } },
{ "type": "Feature", "properties": { "Name": "Reel Leisure Limited", "Activity": "Adult Gaming Centre", "Address": "Reel Time, Unit 1, 100\/102 Church Street, Eccles, Manchester", "Postcode": "M30 0LH", "Area name": "Salford", "Area code": "E0800006" }, "geometry": { "type": "Point", "coordinates": [ -2.337072, 53.482968 ] } },
{ "type": "Feature", "properties": { "Name": "Reel Leisure Limited", "Activity": "Adult Gaming Centre", "Address": "Reel Time, Unit 2, 100\/102 Church Street, Eccles, Manchester", "Postcode": "M30 0LH", "Area name": "Salford", "Area code": "E0800006" }, "geometry": { "type": "Point", "coordinates": [ -2.337072, 53.482968 ] } },
{ "type": "Feature", "properties": { "Name": "Luxury Leisure", "Activity": "Adult Gaming Centre", "Address": "Admiral, 9 Union Terrace, Bury Old Road, Salford", "Postcode": "M7 4ZH", "Area name": "Salford", "Area code": "E0800006" }, "geometry": { "type": "Point", "coordinates": [ -2.245864, 53.512583 ] } },
{ "type": "Feature", "properties": { "Name": "Luxury Leisure", "Activity": "Adult Gaming Centre", "Address": "Nobles Amusements, Unit 1, 15 The Mall, Eccles, Manchester", "Postcode": "M30 0EA", "Area name": "Salford", "Area code": "E0800006" }, "geometry": { "type": "Point", "coordinates": [ -2.336505, 53.483867 ] } },
{ "type": "Feature", "properties": { "Name": "Fraser Capital Management Limited", "Activity": "Bingo", "Address": "Club 3000, Unit 212, First Floor, Upper Lady Harriet Walk, Bolton Road, Worsley, Manchester", "Postcode": "M28 3TZ", "Area name": "Salford", "Area code": "E0800006" }, "geometry": { "type": "Point", "coordinates": [ -2.40025, 53.525432 ] } },
{ "type": "Feature", "properties": { "Name": "Gala Leisure Limited", "Activity": "Bingo", "Address": "Gala Clubs, (Area 1) Hankinson Way, Salford", "Postcode": "M6 5JA", "Area name": "Salford", "Area code": "E0800006" }, "geometry": { "type": "Point", "coordinates": [ -2.28663, 53.488879 ] } },
{ "type": "Feature", "properties": { "Name": "Gala Leisure Limited", "Activity": "Bingo", "Address": "Gala Clubs, Hankinson Way, Salford", "Postcode": "M6 5JA", "Area name": "Salford", "Area code": "E0800006" }, "geometry": { "type": "Point", "coordinates": [ -2.28663, 53.488879 ] } },
{ "type": "Feature", "properties": { "Name": "Coral Racing Limited", "Activity": "Betting Shop", "Address": "Coral Racing Ltd, 35-37 Church Street, Eccles, Manchester", "Postcode": "M30 0BJ", "Area name": "Salford", "Area code": "E0800006" }, "geometry": { "type": "Point", "coordinates": [ -2.335435, 53.483691 ] } },
{ "type": "Feature", "properties": { "Name": "Coral Racing Limited", "Activity": "Betting Shop", "Address": "Coral Racing Ltd, 5 The Parade, Swinton, Manchester", "Postcode": "M27 4BH", "Area name": "Salford", "Area code": "E0800006" }, "geometry": { "type": "Point", "coordinates": [ -2.338782, 53.512435 ] } },
{ "type": "Feature", "properties": { "Name": "Coral Racing Limited", "Activity": "Betting Shop", "Address": "Coral Racing Ltd, Unit 61, Ellesmere Shopping Centre, Bolton Road, Worsley, Manchester", "Postcode": "M28 3ZD", "Area name": "Salford", "Area code": "E0800006" }, "geometry": { "type": "Point", "coordinates": [ -2.400262, 53.525045 ] } },
{ "type": "Feature", "properties": { "Name": "William Hill Organization Limited", "Activity": "Betting Shop", "Address": "William Hill, 602 Bolton Road Pendlebury, Swinton, Manchester", "Postcode": "M27 4ET", "Area name": "Salford", "Area code": "E0800006" }, "geometry": { "type": "Point", "coordinates": [ -2.330998, 53.517599 ] } },
{ "type": "Feature", "properties": { "Name": "William Hill Organization Limited", "Activity": "Betting Shop", "Address": "William Hill, 12 Union Terrace, Bury Old Road, Salford", "Postcode": "M7 4ZH", "Area name": "Salford", "Area code": "E0800006" }, "geometry": { "type": "Point", "coordinates": [ -2.245864, 53.512583 ] } },
{ "type": "Feature", "properties": { "Name": "William Hill Organization Limited", "Activity": "Betting Shop", "Address": "William Hill, 132 Walkden Road, Manchester", "Postcode": "M28 7DP", "Area name": "Salford", "Area code": "E0800006" }, "geometry": { "type": "Point", "coordinates": [ -2.396418, 53.519034 ] } },
{ "type": "Feature", "properties": { "Name": "William Hill Organization Limited", "Activity": "Betting Shop", "Address": "William Hill, 161 Langworthy Road, Salford", "Postcode": "M6 5PW", "Area name": "Salford", "Area code": "E0800006" }, "geometry": { "type": "Point", "coordinates": [ -2.295174, 53.486395 ] } },
{ "type": "Feature", "properties": { "Name": "William Hill Organization Limited", "Activity": "Betting Shop", "Address": "William Hill, 243 Manchester Road, Swinton, Manchester", "Postcode": "M27 4TT", "Area name": "Salford", "Area code": "E0800006" }, "geometry": { "type": "Point", "coordinates": [ -2.331361, 53.508053 ] } },
{ "type": "Feature", "properties": { "Name": "William Hill Organization Limited", "Activity": "Betting Shop", "Address": "William Hill, 375 Bolton Road, Salford", "Postcode": "M6 7NJ", "Area name": "Salford", "Area code": "E0800006" }, "geometry": { "type": "Point", "coordinates": [ -2.308735, 53.500671 ] } },
{ "type": "Feature", "properties": { "Name": "William Hill Organization Limited", "Activity": "Betting Shop", "Address": "William Hill, 465 Chorley Road, Manchester", "Postcode": "M27 9RH", "Area name": "Salford", "Area code": "E0800006" }, "geometry": { "type": "Point", "coordinates": [ -2.351199, 53.516866 ] } },
{ "type": "Feature", "properties": { "Name": "William Hill Organization Limited", "Activity": "Betting Shop", "Address": "William Hill, 47-48 Market Way, Salford", "Postcode": "M6 5HG", "Area name": "Salford", "Area code": "E0800006" }, "geometry": { "type": "Point", "coordinates": [ -2.288208, 53.488129 ] } },
{ "type": "Feature", "properties": { "Name": "William Hill Organization Limited", "Activity": "Betting Shop", "Address": "William Hill, 505-507 Liverpool Street, Salford", "Postcode": "M6 5QQ", "Area name": "Salford", "Area code": "E0800006" }, "geometry": { "type": "Point", "coordinates": [ -2.296843, 53.483785 ] } },
{ "type": "Feature", "properties": { "Name": "William Hill Organization Limited", "Activity": "Betting Shop", "Address": "William Hill, 547 Liverpool Road, Irlam, Manchester", "Postcode": "M44 6ZT", "Area name": "Salford", "Area code": "E0800006" }, "geometry": { "type": "Point", "coordinates": [ -2.427519, 53.438354 ] } },
{ "type": "Feature", "properties": { "Name": "William Hill Organization Limited", "Activity": "Betting Shop", "Address": "William Hill, 56 Church Street, Eccles, Manchester", "Postcode": "M30 0DF", "Area name": "Salford", "Area code": "E0800006" }, "geometry": { "type": "Point", "coordinates": [ -2.335067, 53.484771 ] } },
{ "type": "Feature", "properties": { "Name": "William Hill Organization Limited", "Activity": "Betting Shop", "Address": "William Hill, Unit 9, Hulton District Centre, Worsley, Manchester", "Postcode": "M28 0BA", "Area name": "Salford", "Area code": "E0800006" }, "geometry": { "type": "Point", "coordinates": [ -2.422182, 53.529887 ] } },
{ "type": "Feature", "properties": { "Name": "William Hill Organization Limited", "Activity": "Betting Shop", "Address": "William Hill, Unit C, 311 Liverpool Road, Eccles, Manchester", "Postcode": "M30 0QN", "Area name": "Salford", "Area code": "E0800006" }, "geometry": { "type": "Point", "coordinates": [ -2.357027, 53.481544 ] } },
{ "type": "Feature", "properties": { "Name": "Cashino Gaming Limited", "Activity": "Adult Gaming Centre", "Address": "Cashino Gaming Limited, Unit 1, 15 The Mall, Eccles, Manchester", "Postcode": "M30 0EA", "Area name": "Salford", "Area code": "E0800006" }, "geometry": { "type": "Point", "coordinates": [ -2.336505, 53.483867 ] } },
{ "type": "Feature", "properties": { "Name": "I Lewis (Commission Agents) Limited", "Activity": "Betting Shop", "Address": "Lewis Bookmakers, 100-102 Castle Street, Stockport", "Postcode": "SK3 9AL", "Area name": "Stockport", "Area code": "E0800007" }, "geometry": { "type": "Point", "coordinates": [ -2.168383, 53.401628 ] } },
{ "type": "Feature", "properties": { "Name": "I Lewis (Commission Agents) Limited", "Activity": "Betting Shop", "Address": "Lewis Bookmakers, 6-8 Broadstone Road, Stockport", "Postcode": "SK5 7AE", "Area name": "Stockport", "Area code": "E0800007" }, "geometry": { "type": "Point", "coordinates": [ -2.161432, 53.436765 ] } },
{ "type": "Feature", "properties": { "Name": "Done Brothers (Cash Betting) Limited", "Activity": "Betting Shop", "Address": "Betfred, 101 London Road, Hazel Grove, Stockport", "Postcode": "SK7 4AX", "Area name": "Stockport", "Area code": "E0800007" }, "geometry": { "type": "Point", "coordinates": [ -2.124228, 53.382258 ] } },
{ "type": "Feature", "properties": { "Name": "Done Brothers (Cash Betting) Limited", "Activity": "Betting Shop", "Address": "Betfred, 111 Princes Street, Stockport", "Postcode": "SK1 1RW", "Area name": "Stockport", "Area code": "E0800007" }, "geometry": { "type": "Point", "coordinates": [ -2.16171, 53.411058 ] } },
{ "type": "Feature", "properties": { "Name": "Done Brothers (Cash Betting) Limited", "Activity": "Betting Shop", "Address": "Betfred, 19 Warren Street, Stockport", "Postcode": "SK1 1UD", "Area name": "Stockport", "Area code": "E0800007" }, "geometry": { "type": "Point", "coordinates": [ -2.157474, 53.412663 ] } },
{ "type": "Feature", "properties": { "Name": "Done Brothers (Cash Betting) Limited", "Activity": "Betting Shop", "Address": "Betfred, 236 Finney Lane, Heald Green, Cheadle", "Postcode": "SK8 3QA", "Area name": "Stockport", "Area code": "E0800007" }, "geometry": { "type": "Point", "coordinates": [ -2.232043, 53.370178 ] } },
{ "type": "Feature", "properties": { "Name": "Done Brothers (Cash Betting) Limited", "Activity": "Betting Shop", "Address": "Betfred, 3 Fiveways Parade, Hazel Grove, Stockport", "Postcode": "SK7 6DG", "Area name": "Stockport", "Area code": "E0800007" }, "geometry": { "type": "Point", "coordinates": [ -2.114222, 53.367913 ] } },
{ "type": "Feature", "properties": { "Name": "Done Brothers (Cash Betting) Limited", "Activity": "Betting Shop", "Address": "Betfred, Unit 30B, Cheadle Hulme Shopping Precinc, Cheadle", "Postcode": "SK8 5AF", "Area name": "Stockport", "Area code": "E0800007" }, "geometry": { "type": "Point", "coordinates": [ -2.189269, 53.376914 ] } },
{ "type": "Feature", "properties": { "Name": "Talarius Limited", "Activity": "Adult Gaming Centre", "Address": "Quicksilver, Winners Gold Room, 73-75 Princes Street, Stockport", "Postcode": "SK1 1RW", "Area name": "Stockport", "Area code": "E0800007" }, "geometry": { "type": "Point", "coordinates": [ -2.16171, 53.411058 ] } },
{ "type": "Feature", "properties": { "Name": "Talarius Limited", "Activity": "Adult Gaming Centre", "Address": "Winners, 73-75 Princes Street, Stockport", "Postcode": "SK1 1RJ", "Area name": "Stockport", "Area code": "E0800007" }, "geometry": { "type": "Point", "coordinates": [ -2.162222, 53.411174 ] } },
{ "type": "Feature", "properties": { "Name": "Ladbrokes Betting & Gaming Limited", "Activity": "Betting Shop", "Address": "Ladbrokes, 1 Church Road, Gatley, Cheadle", "Postcode": "SK8 4NG", "Area name": "Stockport", "Area code": "E0800007" }, "geometry": { "type": "Point", "coordinates": [ -2.235845, 53.39186 ] } },
{ "type": "Feature", "properties": { "Name": "Ladbrokes Betting & Gaming Limited", "Activity": "Betting Shop", "Address": "Ladbrokes, 16-18 Great Underbank, Stockport", "Postcode": "SK1 1LW", "Area name": "Stockport", "Area code": "E0800007" }, "geometry": { "type": "Point", "coordinates": [ -2.158493, 53.411475 ] } },
{ "type": "Feature", "properties": { "Name": "Ladbrokes Betting & Gaming Limited", "Activity": "Betting Shop", "Address": "Ladbrokes, Unit 1, Woodley Precinct, Woodley, Stockport", "Postcode": "SK6 1RJ", "Area name": "Stockport", "Area code": "E0800007" }, "geometry": { "type": "Point", "coordinates": [ -2.101211, 53.426162 ] } },
{ "type": "Feature", "properties": { "Name": "Reel Leisure Limited", "Activity": "Adult Gaming Centre", "Address": "Reel Time, Unit 1 , 17-19 Great Underbank, Stockport", "Postcode": "SK1 1LF", "Area name": "Stockport", "Area code": "E0800007" }, "geometry": { "type": "Point", "coordinates": [ -2.157816, 53.411575 ] } },
{ "type": "Feature", "properties": { "Name": "Reel Leisure Limited", "Activity": "Adult Gaming Centre", "Address": "Reel Time, Unit 2 , 17-19 Great Underbank, Stockport", "Postcode": "SK1 1LF", "Area name": "Stockport", "Area code": "E0800007" }, "geometry": { "type": "Point", "coordinates": [ -2.157816, 53.411575 ] } },
{ "type": "Feature", "properties": { "Name": "Reel Leisure Limited", "Activity": "Adult Gaming Centre", "Address": "Reel Time, Unit 3 , 17-19 Great Underbank, Stockport", "Postcode": "SK1 1LF", "Area name": "Stockport", "Area code": "E0800007" }, "geometry": { "type": "Point", "coordinates": [ -2.157816, 53.411575 ] } },
{ "type": "Feature", "properties": { "Name": "Reel Leisure Limited", "Activity": "Adult Gaming Centre", "Address": "Reel Time, Unit 4, 17-19 Great Underbank, Stockport", "Postcode": "SK1 1LF", "Area name": "Stockport", "Area code": "E0800007" }, "geometry": { "type": "Point", "coordinates": [ -2.157816, 53.411575 ] } },
{ "type": "Feature", "properties": { "Name": "David Pluck (North West) Limited", "Activity": "Betting Shop", "Address": "David Pluck Bookmakers, 42 High Street, Cheadle", "Postcode": "SK8 1AE", "Area name": "Stockport", "Area code": "E0800007" }, "geometry": { "type": "Point", "coordinates": [ -2.21619, 53.394648 ] } },
{ "type": "Feature", "properties": { "Name": "David Pluck (North West) Limited", "Activity": "Betting Shop", "Address": "David Pluck Racing, 349 Buxton Road, Stockport", "Postcode": "SK2 7NL", "Area name": "Stockport", "Area code": "E0800007" }, "geometry": { "type": "Point", "coordinates": [ -2.136591, 53.388815 ] } },
{ "type": "Feature", "properties": { "Name": "Gala Leisure Limited", "Activity": "Bingo", "Address": "Gala Clubs, 30 Newbridge Lane, Stockport", "Postcode": "SK1 2NA", "Area name": "Stockport", "Area code": "E0800007" }, "geometry": { "type": "Point", "coordinates": [ -2.150384, 53.411369 ] } },
{ "type": "Feature", "properties": { "Name": "Gala Leisure Limited", "Activity": "Bingo", "Address": "Gala Clubs, Area 2, 30 Newbridge Lane, Stockport", "Postcode": "SK1 2NA", "Area name": "Stockport", "Area code": "E0800007" }, "geometry": { "type": "Point", "coordinates": [ -2.150384, 53.411369 ] } },
{ "type": "Feature", "properties": { "Name": "Gala Leisure Limited", "Activity": "Bingo", "Address": "Gala Clubs, Area 3, 30 Newbridge Lane, Stockport", "Postcode": "SK1 2NA", "Area name": "Stockport", "Area code": "E0800007" }, "geometry": { "type": "Point", "coordinates": [ -2.150384, 53.411369 ] } },
{ "type": "Feature", "properties": { "Name": "Gala Leisure Limited", "Activity": "Bingo", "Address": "Gala Clubs, Area 4, 30 Newbridge Lane, Stockport", "Postcode": "SK1 2NA", "Area name": "Stockport", "Area code": "E0800007" }, "geometry": { "type": "Point", "coordinates": [ -2.150384, 53.411369 ] } },
{ "type": "Feature", "properties": { "Name": "Coral Racing Limited", "Activity": "Betting Shop", "Address": "Coral, 95 Church Lane, Marple, Stockport", "Postcode": "SK6 7AW", "Area name": "Stockport", "Area code": "E0800007" }, "geometry": { "type": "Point", "coordinates": [ -2.066006, 53.393666 ] } },
{ "type": "Feature", "properties": { "Name": "Coral Racing Limited", "Activity": "Betting Shop", "Address": "Coral Bookmakers, 108 Heaton Moor Road, Stockport", "Postcode": "SK4 4NZ", "Area name": "Stockport", "Area code": "E0800007" }, "geometry": { "type": "Point", "coordinates": [ -2.18335, 53.423546 ] } },
{ "type": "Feature", "properties": { "Name": "Coral Racing Limited", "Activity": "Betting Shop", "Address": "Coral Bookmakers Paul Dean Bookmakers, 478 Didsbury Road, Stockport", "Postcode": "SK4 3BS", "Area name": "Stockport", "Area code": "E0800007" }, "geometry": { "type": "Point", "coordinates": [ -2.205509, 53.412338 ] } },
{ "type": "Feature", "properties": { "Name": "Coral Racing Limited", "Activity": "Betting Shop", "Address": "Coral Racing Ltd, 21 The Precinct, Romiley, Stockport", "Postcode": "SK6 4EA", "Area name": "Stockport", "Area code": "E0800007" }, "geometry": { "type": "Point", "coordinates": [ -2.08597, 53.413822 ] } },
{ "type": "Feature", "properties": { "Name": "Coral Racing Limited", "Activity": "Betting Shop", "Address": "Coral Racing Ltd, 258 Finney Lane, Heald Green, Cheadle", "Postcode": "SK8 3QD", "Area name": "Stockport", "Area code": "E0800007" }, "geometry": { "type": "Point", "coordinates": [ -2.234718, 53.370308 ] } },
{ "type": "Feature", "properties": { "Name": "Coral Racing Limited", "Activity": "Betting Shop", "Address": "Corals, 162 Higher Bents Lane, Bredbury, Stockport", "Postcode": "SK6 2LU", "Area name": "Stockport", "Area code": "E0800007" }, "geometry": { "type": "Point", "coordinates": [ -2.105971, 53.416154 ] } },
{ "type": "Feature", "properties": { "Name": "Coral Racing Limited", "Activity": "Adult Gaming Centre", "Address": "Showboat Casino Slots, 1a Princes Street, Stockport", "Postcode": "SK1 1SL", "Area name": "Stockport", "Area code": "E0800007" }, "geometry": { "type": "Point", "coordinates": [ -2.159502, 53.412246 ] } },
{ "type": "Feature", "properties": { "Name": "William Hill Organization Limited", "Activity": "Betting Shop", "Address": "William Hill, 140 Lisburne Lane, Stockport", "Postcode": "SK2 5RH", "Area name": "Stockport", "Area code": "E0800007" }, "geometry": { "type": "Point", "coordinates": [ -2.12364, 53.397369 ] } },
{ "type": "Feature", "properties": { "Name": "William Hill Organization Limited", "Activity": "Betting Shop", "Address": "William Hill, 153 Councillor Lane, Cheadle", "Postcode": "SK8 2JE", "Area name": "Stockport", "Area code": "E0800007" }, "geometry": { "type": "Point", "coordinates": [ -2.194159, 53.391081 ] } },
{ "type": "Feature", "properties": { "Name": "William Hill Organization Limited", "Activity": "Betting Shop", "Address": "William Hill, 154-156 Grenville Street, Stockport", "Postcode": "SK3 9EU", "Area name": "Stockport", "Area code": "E0800007" }, "geometry": { "type": "Point", "coordinates": [ -2.170052, 53.401707 ] } },
{ "type": "Feature", "properties": { "Name": "William Hill Organization Limited", "Activity": "Betting Shop", "Address": "William Hill, 17 Castle Street, Stockport", "Postcode": "SK3 9AT", "Area name": "Stockport", "Area code": "E0800007" }, "geometry": { "type": "Point", "coordinates": [ -2.165015, 53.402029 ] } },
{ "type": "Feature", "properties": { "Name": "William Hill Organization Limited", "Activity": "Betting Shop", "Address": "William Hill, 18 Princes Street, Stockport", "Postcode": "SK1 1SE", "Area name": "Stockport", "Area code": "E0800007" }, "geometry": { "type": "Point", "coordinates": [ -2.159865, 53.412462 ] } },
{ "type": "Feature", "properties": { "Name": "William Hill Organization Limited", "Activity": "Betting Shop", "Address": "William Hill, 186-188 London Road, Hazel Grove, Stockport", "Postcode": "SK7 4DQ", "Area name": "Stockport", "Area code": "E0800007" }, "geometry": { "type": "Point", "coordinates": [ -2.121936, 53.379834 ] } },
{ "type": "Feature", "properties": { "Name": "William Hill Organization Limited", "Activity": "Betting Shop", "Address": "William Hill, 19 High Street, Cheadle", "Postcode": "SK8 1AX", "Area name": "Stockport", "Area code": "E0800007" }, "geometry": { "type": "Point", "coordinates": [ -2.214146, 53.394733 ] } },
{ "type": "Feature", "properties": { "Name": "William Hill Organization Limited", "Activity": "Betting Shop", "Address": "William Hill, 226 Moss Lane, Bramhall, Stockport", "Postcode": "SK7 1BD", "Area name": "Stockport", "Area code": "E0800007" }, "geometry": { "type": "Point", "coordinates": [ -2.1681, 53.356785 ] } },
{ "type": "Feature", "properties": { "Name": "William Hill Organization Limited", "Activity": "Betting Shop", "Address": "William Hill, 276 Adswood Road, Stockport", "Postcode": "SK3 8PN", "Area name": "Stockport", "Area code": "E0800007" }, "geometry": { "type": "Point", "coordinates": [ -2.169883, 53.389393 ] } },
{ "type": "Feature", "properties": { "Name": "William Hill Organization Limited", "Activity": "Betting Shop", "Address": "William Hill, 41 Woodley Precinct, Woodley, Stockport", "Postcode": "SK6 1RJ", "Area name": "Stockport", "Area code": "E0800007" }, "geometry": { "type": "Point", "coordinates": [ -2.101211, 53.426162 ] } },
{ "type": "Feature", "properties": { "Name": "William Hill Organization Limited", "Activity": "Betting Shop", "Address": "William Hill, 418-420 Manchester Road, Stockport", "Postcode": "SK4 5BY", "Area name": "Stockport", "Area code": "E0800007" }, "geometry": { "type": "Point", "coordinates": [ -2.175063, 53.427955 ] } },
{ "type": "Feature", "properties": { "Name": "William Hill Organization Limited", "Activity": "Betting Shop", "Address": "William Hill, 5-9 Leamington Road, Stockport", "Postcode": "SK5 6BD", "Area name": "Stockport", "Area code": "E0800007" }, "geometry": { "type": "Point", "coordinates": [ -2.161254, 53.437449 ] } },
{ "type": "Feature", "properties": { "Name": "William Hill Organization Limited", "Activity": "Betting Shop", "Address": "William Hill, 604-608 Gorton Road, Stockport", "Postcode": "SK5 6RE", "Area name": "Stockport", "Area code": "E0800007" }, "geometry": { "type": "Point", "coordinates": [ -2.157535, 53.453444 ] } },
{ "type": "Feature", "properties": { "Name": "William Hill Organization Limited", "Activity": "Betting Shop", "Address": "William Hill, 64-66 Buxton Road, Stockport", "Postcode": "SK2 6NB", "Area name": "Stockport", "Area code": "E0800007" }, "geometry": { "type": "Point", "coordinates": [ -2.150662, 53.396421 ] } },
{ "type": "Feature", "properties": { "Name": "William Hill Organization Limited", "Activity": "Betting Shop", "Address": "William Hill, 8 Little Underbank, Stockport", "Postcode": "SK1 1JT", "Area name": "Stockport", "Area code": "E0800007" }, "geometry": { "type": "Point", "coordinates": [ -2.157345, 53.410873 ] } },
{ "type": "Feature", "properties": { "Name": "William Hill Organization Limited", "Activity": "Betting Shop", "Address": "William Hill, Brinnignton Shopping Centre, 7-8 Exeter Road, Stockport", "Postcode": "SK5 8BA", "Area name": "Stockport", "Area code": "E0800007" }, "geometry": { "type": "Point", "coordinates": [ -2.135581, 53.425768 ] } },
{ "type": "Feature", "properties": { "Name": "Tote (Successor Company) Limited", "Activity": "Betting Shop", "Address": "Totesport, 32 Gorton Road, Stockport", "Postcode": "SK5 6AE", "Area name": "Stockport", "Area code": "E0800007" }, "geometry": { "type": "Point", "coordinates": [ -2.159418, 53.438133 ] } },
{ "type": "Feature", "properties": { "Name": "Casino 36 Limited", "Activity": "Casino", "Address": "Casino 36 Limited, Cheshire Sporting Club Ltd, 36 St Petersgate, Stockport", "Postcode": "SK1 1HD", "Area name": "Stockport", "Area code": "E0800007" }, "geometry": { "type": "Point", "coordinates": [ -2.157962, 53.410361 ] } },
{ "type": "Feature", "properties": { "Name": "Grosvenor Casinos (GC) Limited", "Activity": "Casino", "Address": "Stockport Grosvenor Casino, 59 Wellington Street, Stockport", "Postcode": "SK1 3AD", "Area name": "Stockport", "Area code": "E0800007" }, "geometry": { "type": "Point", "coordinates": [ -2.158733, 53.407815 ] } },
{ "type": "Feature", "properties": { "Name": "I Lewis (Commission Agents) Limited", "Activity": "Betting Shop", "Address": "Lewis Bookmakers, 2-2A Stockport Road, Denton, Manchester", "Postcode": "M34 6DA", "Area name": "Tameside", "Area code": "E0800008" }, "geometry": { "type": "Point", "coordinates": [ -2.113826, 53.455939 ] } },
{ "type": "Feature", "properties": { "Name": "I Lewis (Commission Agents) Limited", "Activity": "Betting Shop", "Address": "Lewis Bookmakers, 5\/7 Stockport Road, Denton, Manchester", "Postcode": "M34 6DB", "Area name": "Tameside", "Area code": "E0800008" }, "geometry": { "type": "Point", "coordinates": [ -2.113344, 53.455741 ] } },
{ "type": "Feature", "properties": { "Name": "Power Leisure Bookmakers Limited", "Activity": "Betting Shop", "Address": "Paddy Power, 39 Warrington Street, Ashton-Under-Lyne", "Postcode": "OL6 7JG", "Area name": "Tameside", "Area code": "E0800008" }, "geometry": { "type": "Point", "coordinates": [ -2.094245, 53.488501 ] } },
{ "type": "Feature", "properties": { "Name": "Power Leisure Bookmakers Limited", "Activity": "Betting Shop", "Address": "Paddy Power, Ground Floor 5 Market Place, Hyde", "Postcode": "SK14 2LX", "Area name": "Tameside", "Area code": "E0800008" }, "geometry": { "type": "Point", "coordinates": [ -2.078368, 53.451696 ] } },
{ "type": "Feature", "properties": { "Name": "Done Brothers (Cash Betting) Limited", "Activity": "Betting Shop", "Address": "Betfred, 101 Haughton Green Road, Denton, Manchester", "Postcode": "M34 7GR", "Area name": "Tameside", "Area code": "E0800008" }, "geometry": { "type": "Point", "coordinates": [ -2.097754, 53.441472 ] } },
{ "type": "Feature", "properties": { "Name": "Done Brothers (Cash Betting) Limited", "Activity": "Betting Shop", "Address": "Betfred, 16A Market Place, Hyde", "Postcode": "SK14 2QU", "Area name": "Tameside", "Area code": "E0800008" }, "geometry": { "type": "Point", "coordinates": [ -2.077705, 53.451384 ] } },
{ "type": "Feature", "properties": { "Name": "Done Brothers (Cash Betting) Limited", "Activity": "Betting Shop", "Address": "Betfred, 177-179 Stockport Road, Denton, Manchester", "Postcode": "M34 6AQ", "Area name": "Tameside", "Area code": "E0800008" }, "geometry": { "type": "Point", "coordinates": [ -2.110802, 53.45116 ] } },
{ "type": "Feature", "properties": { "Name": "Done Brothers (Cash Betting) Limited", "Activity": "Betting Shop", "Address": "Betfred, 2 Bennett Street, Hyde", "Postcode": "SK14 4TQ", "Area name": "Tameside", "Area code": "E0800008" }, "geometry": { "type": "Point", "coordinates": [ -2.076627, 53.462889 ] } },
{ "type": "Feature", "properties": { "Name": "Done Brothers (Cash Betting) Limited", "Activity": "Betting Shop", "Address": "Betfred, Unit 16A, Katherine Street, Arcades Shopping Centre, Ashton-Under-Lyme", "Postcode": "OL6 7JE", "Area name": "Tameside", "Area code": "E0800008" }, "geometry": { "type": "Point", "coordinates": [ -2.096568, 53.489362 ] } },
{ "type": "Feature", "properties": { "Name": "Done Brothers (Cash Betting) Limited", "Activity": "Betting Shop", "Address": "Betfred, Unit 16C, Katherine Street, Arcades Shopping Centre, Ashton-Under-Lyme", "Postcode": "OL6 7JE", "Area name": "Tameside", "Area code": "E0800008" }, "geometry": { "type": "Point", "coordinates": [ -2.096568, 53.489362 ] } },
{ "type": "Feature", "properties": { "Name": "Done Brothers (Cash Betting) Limited", "Activity": "Betting Shop", "Address": "Betfred, Unit 4, The Arcades, Warrington Street, Ashton-Under-Lyne", "Postcode": "OL6 7JD", "Area name": "Tameside", "Area code": "E0800008" }, "geometry": { "type": "Point", "coordinates": [ -2.096569, 53.489346 ] } },
{ "type": "Feature", "properties": { "Name": "Done Brothers (Cash Betting) Limited", "Activity": "Betting Shop", "Address": "Betfred, Unit 40, The Arcades, Warrington Street, Ashton-Under-Lyne", "Postcode": "OL6 7JD", "Area name": "Tameside", "Area code": "E0800008" }, "geometry": { "type": "Point", "coordinates": [ -2.096569, 53.489346 ] } },
{ "type": "Feature", "properties": { "Name": "Ladbrokes Betting & Gaming Limited", "Activity": "Betting Shop", "Address": "Ladbrokes, 131 Market Street, Droylsden, Manchester", "Postcode": "M43 7AR", "Area name": "Tameside", "Area code": "E0800008" }, "geometry": { "type": "Point", "coordinates": [ -2.145323, 53.480297 ] } },
{ "type": "Feature", "properties": { "Name": "Ladbrokes Betting & Gaming Limited", "Activity": "Betting Shop", "Address": "Ladbrokes, 17 Market Street, Hyde", "Postcode": "SK14 2AD", "Area name": "Tameside", "Area code": "E0800008" }, "geometry": { "type": "Point", "coordinates": [ -2.080869, 53.452244 ] } },
{ "type": "Feature", "properties": { "Name": "Ladbrokes Betting & Gaming Limited", "Activity": "Betting Shop", "Address": "Ladbrokes, 20,22 Queens Walk, Droylsden, Manchester", "Postcode": "M43 7AR", "Area name": "Tameside", "Area code": "E0800008" }, "geometry": { "type": "Point", "coordinates": [ -2.145323, 53.480297 ] } },
{ "type": "Feature", "properties": { "Name": "Ladbrokes Betting & Gaming Limited", "Activity": "Betting Shop", "Address": "Ladbrokes, 34, 36 & 38 Grosvenor Street, Stalybridge", "Postcode": "SK15 2JN", "Area name": "Tameside", "Area code": "E0800008" }, "geometry": { "type": "Point", "coordinates": [ -2.056935, 53.481282 ] } },
{ "type": "Feature", "properties": { "Name": "Ladbrokes Betting & Gaming Limited", "Activity": "Betting Shop", "Address": "Ladbrokes, 36-38 Staveleigh Mall, Ladysmith Centre, Ashton-Under-Lyne", "Postcode": "OL6 7JJ", "Area name": "Tameside", "Area code": "E0800008" }, "geometry": { "type": "Point", "coordinates": [ -2.095873, 53.488761 ] } },
{ "type": "Feature", "properties": { "Name": "Ladbrokes Betting & Gaming Limited", "Activity": "Betting Shop", "Address": "Ladbrokes, 92 Market Street, Hyde", "Postcode": "SK14 1ES", "Area name": "Tameside", "Area code": "E0800008" }, "geometry": { "type": "Point", "coordinates": [ -2.078847, 53.450106 ] } },
{ "type": "Feature", "properties": { "Name": "Luxury Leisure", "Activity": "Adult Gaming Centre", "Address": "Luxary Leisure, 41-47 Market Avenue, Ashton-Under_lyme", "Postcode": "OL6 6BT", "Area name": "Tameside", "Area code": "E0800008" }, "geometry": { "type": "Point", "coordinates": [ -2.092904, 53.488745 ] } },
{ "type": "Feature", "properties": { "Name": "Cosmo Leisure Limited", "Activity": "Bingo", "Address": "Cosmo Bingo Club, 62-64 Market Street, Stalybridge", "Postcode": "SK15 2AB", "Area name": "Tameside", "Area code": "E0800008" }, "geometry": { "type": "Point", "coordinates": [ -2.057527, 53.483942 ] } },
{ "type": "Feature", "properties": { "Name": "David Pluck (North West) Limited", "Activity": "Betting Shop", "Address": "David Pluck Racing, 105-107 Reddish Lane, Denton, Manchester", "Postcode": "M34 2NF", "Area name": "Tameside", "Area code": "E0800008" }, "geometry": { "type": "Point", "coordinates": [ -2.158111, 53.454585 ] } },
{ "type": "Feature", "properties": { "Name": "David Pluck (North West) Limited", "Activity": "Betting Shop", "Address": "David Pluck Racing, 130-132 Market Street, Droylsden, Manchester", "Postcode": "M43 7AA", "Area name": "Tameside", "Area code": "E0800008" }, "geometry": { "type": "Point", "coordinates": [ -2.144872, 53.480309 ] } },
{ "type": "Feature", "properties": { "Name": "David Pluck (North West) Limited", "Activity": "Betting Shop", "Address": "David Pluck Racing, Unit 1 28-36 Melbourne Street, Stalybridge", "Postcode": "SK15 2JJ", "Area name": "Tameside", "Area code": "E0800008" }, "geometry": { "type": "Point", "coordinates": [ -2.057161, 53.482125 ] } },
{ "type": "Feature", "properties": { "Name": "Gala Leisure Limited", "Activity": "Bingo", "Address": "Gala Bingo - Ashton-under-Lyne, 108 Wellington Road, Ashton-Under-Lyne", "Postcode": "OL6 6DJ", "Area name": "Tameside", "Area code": "E0800008" }, "geometry": { "type": "Point", "coordinates": [ -2.097734, 53.491251 ] } },
{ "type": "Feature", "properties": { "Name": "Coral Racing Limited", "Activity": "Betting Shop", "Address": "Coral, 174 Talbot Road, Hyde", "Postcode": "SK14 4HJ", "Area name": "Tameside", "Area code": "E0800008" }, "geometry": { "type": "Point", "coordinates": [ -2.061235, 53.464301 ] } },
{ "type": "Feature", "properties": { "Name": "Coral Racing Limited", "Activity": "Betting Shop", "Address": "Coral, Unit 4, Valley Parade, Hattersley", "Postcode": "SK14 3HW", "Area name": "Tameside", "Area code": "E0800008" }, "geometry": { "type": "Point", "coordinates": [ -2.04027, 53.450189 ] } },
{ "type": "Feature", "properties": { "Name": "Coral Racing Limited", "Activity": "Betting Shop", "Address": "Coral Racing Ltd, 240 Kings Road, Ashton-Under-Lyne", "Postcode": "OL6 8HD", "Area name": "Tameside", "Area code": "E0800008" }, "geometry": { "type": "Point", "coordinates": [ -2.079438, 53.500414 ] } },
{ "type": "Feature", "properties": { "Name": "Coral Racing Limited", "Activity": "Betting Shop", "Address": "Coral Racing Ltd, 252-254 Whiteacre Road, Ashton-Under-Lyne", "Postcode": "OL6 9QB", "Area name": "Tameside", "Area code": "E0800008" }, "geometry": { "type": "Point", "coordinates": [ -2.080017, 53.495632 ] } },
{ "type": "Feature", "properties": { "Name": "Coral Racing Limited", "Activity": "Betting Shop", "Address": "Coral Racing Ltd, 26 Warrington Street, The Old Post Office, Ashton-Under-Lyne", "Postcode": "OL6 6AS", "Area name": "Tameside", "Area code": "E0800008" }, "geometry": { "type": "Point", "coordinates": [ -2.093129, 53.487776 ] } },
{ "type": "Feature", "properties": { "Name": "Coral Racing Limited", "Activity": "Betting Shop", "Address": "Coral Racing Ltd, 32 Ashton Road, Denton, Manchester", "Postcode": "M34 3EX", "Area name": "Tameside", "Area code": "E0800008" }, "geometry": { "type": "Point", "coordinates": [ -2.113964, 53.456864 ] } },
{ "type": "Feature", "properties": { "Name": "Coral Racing Limited", "Activity": "Betting Shop", "Address": "Coral Racing Ltd, 336 Oldham Road, Ashton-Under-Lyne", "Postcode": "OL7 9AU", "Area name": "Tameside", "Area code": "E0800008" }, "geometry": { "type": "Point", "coordinates": [ -2.103116, 53.49848 ] } },
{ "type": "Feature", "properties": { "Name": "Coral Racing Limited", "Activity": "Betting Shop", "Address": "Coral Racing Ltd, 45 Grosvenor Street, Stalybridge", "Postcode": "SK15 2JN", "Area name": "Tameside", "Area code": "E0800008" }, "geometry": { "type": "Point", "coordinates": [ -2.056935, 53.481282 ] } },
{ "type": "Feature", "properties": { "Name": "Coral Racing Limited", "Activity": "Betting Shop", "Address": "Coral Racing Ltd, 48 Stamford Square, Ashton-Under-Lyne", "Postcode": "OL6 6QW", "Area name": "Tameside", "Area code": "E0800008" }, "geometry": { "type": "Point", "coordinates": [ -2.078268, 53.486906 ] } },
{ "type": "Feature", "properties": { "Name": "Coral Racing Limited", "Activity": "Betting Shop", "Address": "Coral Racing Ltd, 7 Chapel Street, Audenshaw, Manchester", "Postcode": "M34 5DE", "Area name": "Tameside", "Area code": "E0800008" }, "geometry": { "type": "Point", "coordinates": [ -2.112008, 53.46874 ] } },
{ "type": "Feature", "properties": { "Name": "Coral Racing Limited", "Activity": "Betting Shop", "Address": "Coral Racing Ltd, 86 Stockport Road, Ashton-Under-Lyne", "Postcode": "OL7 0LH", "Area name": "Tameside", "Area code": "E0800008" }, "geometry": { "type": "Point", "coordinates": [ -2.107504, 53.480771 ] } },
{ "type": "Feature", "properties": { "Name": "Coral Racing Limited", "Activity": "Betting Shop", "Address": "Coral Racing Ltd, Unit L, Droylsden Shopping Centre, Droylsden", "Postcode": "M43 6DE", "Area name": "Tameside", "Area code": "E0800008" }, "geometry": { "type": "Point", "coordinates": [ -2.145635, 53.478959 ] } },
{ "type": "Feature", "properties": { "Name": "William Hill Organization Limited", "Activity": "Betting Shop", "Address": "William Hill, 10 Melbourne Street, Stalybridge", "Postcode": "SK15 2JE", "Area name": "Tameside", "Area code": "E0800008" }, "geometry": { "type": "Point", "coordinates": [ -2.057706, 53.48325 ] } },
{ "type": "Feature", "properties": { "Name": "William Hill Organization Limited", "Activity": "Betting Shop", "Address": "William Hill, 1068 Ashton New Road, Manchester", "Postcode": "M11 4PE", "Area name": "Tameside", "Area code": "E0800008" }, "geometry": { "type": "Point", "coordinates": [ -2.167868, 53.480935 ] } },
{ "type": "Feature", "properties": { "Name": "William Hill Organization Limited", "Activity": "Betting Shop", "Address": "William Hill, 113-117 King Street, Dukinfield", "Postcode": "SK16 4NQ", "Area name": "Tameside", "Area code": "E0800008" }, "geometry": { "type": "Point", "coordinates": [ -2.09397, 53.479909 ] } },
{ "type": "Feature", "properties": { "Name": "William Hill Organization Limited", "Activity": "Betting Shop", "Address": "William Hill, 135-137 Market Street, Droylsden, Manchester", "Postcode": "M43 7AR", "Area name": "Tameside", "Area code": "E0800008" }, "geometry": { "type": "Point", "coordinates": [ -2.145323, 53.480297 ] } },
{ "type": "Feature", "properties": { "Name": "William Hill Organization Limited", "Activity": "Betting Shop", "Address": "William Hill, 142 Cheetham Hill Road, Dukinfield", "Postcode": "SK16 5JJ", "Area name": "Tameside", "Area code": "E0800008" }, "geometry": { "type": "Point", "coordinates": [ -2.07008, 53.475343 ] } },
{ "type": "Feature", "properties": { "Name": "William Hill Organization Limited", "Activity": "Betting Shop", "Address": "William Hill, 3-5 Manchester Road, Denton, Manchester", "Postcode": "M34 3JU", "Area name": "Tameside", "Area code": "E0800008" }, "geometry": { "type": "Point", "coordinates": [ -2.115317, 53.456036 ] } },
{ "type": "Feature", "properties": { "Name": "William Hill Organization Limited", "Activity": "Betting Shop", "Address": "William Hill, 37 Old Street, Ashton-Under-Lyne", "Postcode": "OL6 6BB", "Area name": "Tameside", "Area code": "E0800008" }, "geometry": { "type": "Point", "coordinates": [ -2.092241, 53.488415 ] } },
{ "type": "Feature", "properties": { "Name": "William Hill Organization Limited", "Activity": "Betting Shop", "Address": "William Hill, 9 Market Place, Hyde", "Postcode": "SK14 2LX", "Area name": "Tameside", "Area code": "E0800008" }, "geometry": { "type": "Point", "coordinates": [ -2.078368, 53.451696 ] } },
{ "type": "Feature", "properties": { "Name": "William Hill Organization Limited", "Activity": "Betting Shop", "Address": "William Hill, Fiveways, 164A Greenside Lane, Droylsden, Manchester", "Postcode": "M43 7UR", "Area name": "Tameside", "Area code": "E0800008" }, "geometry": { "type": "Point", "coordinates": [ -2.151021, 53.484858 ] } },
{ "type": "Feature", "properties": { "Name": "T E Cordwell (Hyde) Limited", "Activity": "Adult Gaming Centre", "Address": "T E Cordwell (Hyde), 5 Clarendon Street, Hyde", "Postcode": "SK14 2EL", "Area name": "Tameside", "Area code": "E0800008" }, "geometry": { "type": "Point", "coordinates": [ -2.079016, 53.452057 ] } },
{ "type": "Feature", "properties": { "Name": "T E Cordwell (Hyde) Limited", "Activity": "Adult Gaming Centre", "Address": "T E Cordwell (Hyde), 64 Market Street, Hyde", "Postcode": "SK14 1ES", "Area name": "Tameside", "Area code": "E0800008" }, "geometry": { "type": "Point", "coordinates": [ -2.078847, 53.450106 ] } },
{ "type": "Feature", "properties": { "Name": "Done Brothers (Cash Betting) Limited", "Activity": "Betting Shop", "Address": "Betfred, 100 George Street, Altrincham", "Postcode": "WA14 1RF", "Area name": "Trafford", "Area code": "E0800009" }, "geometry": { "type": "Point", "coordinates": [ -2.351433, 53.386478 ] } },
{ "type": "Feature", "properties": { "Name": "Done Brothers (Cash Betting) Limited", "Activity": "Betting Shop", "Address": "Betfred, 107 Ayres Road, Manchester", "Postcode": "M16 7GS", "Area name": "Trafford", "Area code": "E0800009" }, "geometry": { "type": "Point", "coordinates": [ -2.267615, 53.458434 ] } },
{ "type": "Feature", "properties": { "Name": "Done Brothers (Cash Betting) Limited", "Activity": "Betting Shop", "Address": "Betfred, 175 Chorlton Road, Manchester", "Postcode": "M16 7WS", "Area name": "Trafford", "Area code": "E0800009" }, "geometry": { "type": "Point", "coordinates": [ -2.257935, 53.45913 ] } },
{ "type": "Feature", "properties": { "Name": "Done Brothers (Cash Betting) Limited", "Activity": "Betting Shop", "Address": "Betfred, 34 Hale Road, Altrincham", "Postcode": "WA14 2EX", "Area name": "Trafford", "Area code": "E0800009" }, "geometry": { "type": "Point", "coordinates": [ -2.348311, 53.381446 ] } },
{ "type": "Feature", "properties": { "Name": "Done Brothers (Cash Betting) Limited", "Activity": "Betting Shop", "Address": "Betfred, 349 Stockport Road, Timperley, Altrincham", "Postcode": "WA15 7UG", "Area name": "Trafford", "Area code": "E0800009" }, "geometry": { "type": "Point", "coordinates": [ -2.318996, 53.397474 ] } },
{ "type": "Feature", "properties": { "Name": "Done Brothers (Cash Betting) Limited", "Activity": "Betting Shop", "Address": "Betfred, 41 School Road, Sale", "Postcode": "M33 7YE", "Area name": "Trafford", "Area code": "E0800009" }, "geometry": { "type": "Point", "coordinates": [ -2.322663, 53.424978 ] } },
{ "type": "Feature", "properties": { "Name": "Done Brothers (Cash Betting) Limited", "Activity": "Betting Shop", "Address": "Betfred, 58 Coppice Avenue, Sale", "Postcode": "M33 4WB", "Area name": "Trafford", "Area code": "E0800009" }, "geometry": { "type": "Point", "coordinates": [ -2.348768, 53.415269 ] } },
{ "type": "Feature", "properties": { "Name": "Done Brothers (Cash Betting) Limited", "Activity": "Betting Shop", "Address": "Betfred, 8 Brooklands Road, Sale", "Postcode": "M33 3SQ", "Area name": "Trafford", "Area code": "E0800009" }, "geometry": { "type": "Point", "coordinates": [ -2.325234, 53.416836 ] } },
{ "type": "Feature", "properties": { "Name": "Done Brothers (Cash Betting) Limited", "Activity": "Betting Shop", "Address": "Betfred, 890 Chester Road, Stretford, Manchester", "Postcode": "M32 0PA", "Area name": "Trafford", "Area code": "E0800009" }, "geometry": { "type": "Point", "coordinates": [ -2.299481, 53.453882 ] } },
{ "type": "Feature", "properties": { "Name": "Done Brothers (Cash Betting) Limited", "Activity": "Betting Shop", "Address": "Betfred, 9\/9A Lostock Road, Urmston, Manchester", "Postcode": "M41 0SU", "Area name": "Trafford", "Area code": "E0800009" }, "geometry": { "type": "Point", "coordinates": [ -2.35454, 53.458028 ] } },
{ "type": "Feature", "properties": { "Name": "Talarius Limited", "Activity": "Adult Gaming Centre", "Address": "Quicksilver, 36 School Road, Sale", "Postcode": "M33 7XF", "Area name": "Trafford", "Area code": "E0800009" }, "geometry": { "type": "Point", "coordinates": [ -2.320903, 53.425054 ] } },
{ "type": "Feature", "properties": { "Name": "Summit Leisure (Deansgate) Limited", "Activity": "Adult Gaming Centre", "Address": "Shaws Amusements, 65 School Road, Sale", "Postcode": "M33 7YF", "Area name": "Trafford", "Area code": "E0800009" }, "geometry": { "type": "Point", "coordinates": [ -2.323402, 53.425145 ] } },
{ "type": "Feature", "properties": { "Name": "Ladbrokes Betting & Gaming Limited", "Activity": "Betting Shop", "Address": "Ladbrokes, 2A-4 Regent Road, Altrincham", "Postcode": "WA14 1RE", "Area name": "Trafford", "Area code": "E0800009" }, "geometry": { "type": "Point", "coordinates": [ -2.351442, 53.385669 ] } },
{ "type": "Feature", "properties": { "Name": "Ladbrokes Betting & Gaming Limited", "Activity": "Betting Shop", "Address": "Ladbrokes, 676 Chester Road, Stretford, Manchester", "Postcode": "M32 0SF", "Area name": "Trafford", "Area code": "E0800009" }, "geometry": { "type": "Point", "coordinates": [ -2.288659, 53.461369 ] } },
{ "type": "Feature", "properties": { "Name": "Ladbrokes Betting & Gaming Limited", "Activity": "Betting Shop", "Address": "Ladbrokes, 9b Lostock Road, Urmston, Manchester", "Postcode": "M41 0SU", "Area name": "Trafford", "Area code": "E0800009" }, "geometry": { "type": "Point", "coordinates": [ -2.35454, 53.458028 ] } },
{ "type": "Feature", "properties": { "Name": "Ladbrokes Betting & Gaming Limited", "Activity": "Betting Shop", "Address": "Ladbrokes, Unit 123, Arndale Centre, Stretford, Manchester", "Postcode": "M32 9BH", "Area name": "Trafford", "Area code": "E0800009" }, "geometry": { "type": "Point", "coordinates": [ -2.308514, 53.44522 ] } },
{ "type": "Feature", "properties": { "Name": "Reel Leisure Limited", "Activity": "Adult Gaming Centre", "Address": "Reel Time, 5-7 Shaws Road, Altrincham", "Postcode": "WA14 1QU", "Area name": "Trafford", "Area code": "E0800009" }, "geometry": { "type": "Point", "coordinates": [ -2.35129, 53.387377 ] } },
{ "type": "Feature", "properties": { "Name": "Fraser Capital Management Limited", "Activity": "Bingo", "Address": "Club 3000 Bingo, 601 Chester Road, Manchester", "Postcode": "M16 0QW", "Area name": "Trafford", "Area code": "E0800009" }, "geometry": { "type": "Point", "coordinates": [ -2.276587, 53.46245 ] } },
{ "type": "Feature", "properties": { "Name": "NAMCO UK Limited", "Activity": "Adult Gaming Centre", "Address": "Namco Station, Unit 1, 13-17 The Orient, The Trafford Centre, Manchester", "Postcode": "M17 8ED", "Area name": "Trafford", "Area code": "E0800009" }, "geometry": { "type": "Point", "coordinates": [ -2.349005, 53.466179 ] } },
{ "type": "Feature", "properties": { "Name": "David Pluck (North West) Limited", "Activity": "Betting Shop", "Address": "David Pluck Racing, 12 Northenden Road, Sale", "Postcode": "M33 3BR", "Area name": "Trafford", "Area code": "E0800009" }, "geometry": { "type": "Point", "coordinates": [ -2.316951, 53.423816 ] } },
{ "type": "Feature", "properties": { "Name": "David Pluck (North West) Limited", "Activity": "Betting Shop", "Address": "David Pluck Racing, 141 Northenden Road, Sale", "Postcode": "M33 3HF", "Area name": "Trafford", "Area code": "E0800009" }, "geometry": { "type": "Point", "coordinates": [ -2.304617, 53.420323 ] } },
{ "type": "Feature", "properties": { "Name": "Coral Racing Limited", "Activity": "Betting Shop", "Address": "Coral Racing Ltd, 19A School Road, Sale", "Postcode": "M33 7XX", "Area name": "Trafford", "Area code": "E0800009" }, "geometry": { "type": "Point", "coordinates": [ -2.321157, 53.424784 ] } },
{ "type": "Feature", "properties": { "Name": "Coral Racing Limited", "Activity": "Betting Shop", "Address": "Coral Racing Ltd, 384 Northenden Road, Sale", "Postcode": "M33 2PT", "Area name": "Trafford", "Area code": "E0800009" }, "geometry": { "type": "Point", "coordinates": [ -2.290655, 53.418372 ] } },
{ "type": "Feature", "properties": { "Name": "Coral Racing Limited", "Activity": "Betting Shop", "Address": "Coral Racing Ltd, 408 Barton Road, Stretford, Manchester", "Postcode": "M32 9RW", "Area name": "Trafford", "Area code": "E0800009" }, "geometry": { "type": "Point", "coordinates": [ -2.325839, 53.454577 ] } },
{ "type": "Feature", "properties": { "Name": "Coral Racing Limited", "Activity": "Betting Shop", "Address": "Coral Racing Ltd, 5A-7  Flixton Road, Manchester", "Postcode": "M41 5AW", "Area name": "Trafford", "Area code": "E0800009" }, "geometry": { "type": "Point", "coordinates": [ -2.355392, 53.448255 ] } },
{ "type": "Feature", "properties": { "Name": "Coral Racing Limited", "Activity": "Betting Shop", "Address": "Coral Racing Ltd, 8\/10 Green Lane, Sale", "Postcode": "M33 5PH", "Area name": "Trafford", "Area code": "E0800009" }, "geometry": { "type": "Point", "coordinates": [ -2.341629, 53.429338 ] } },
{ "type": "Feature", "properties": { "Name": "Coral Racing Limited", "Activity": "Betting Shop", "Address": "Coral Racing Ltd, 87 Great Stone Road, Stretford, Manchester", "Postcode": "M32 8GR", "Area name": "Trafford", "Area code": "E0800009" }, "geometry": { "type": "Point", "coordinates": [ -2.286268, 53.453007 ] } },
{ "type": "Feature", "properties": { "Name": "Mecca Bingo Limited", "Activity": "Bingo", "Address": "Mecca Bingo, 56 Washway Road, Sale", "Postcode": "M33 7QZ", "Area name": "Trafford", "Area code": "E0800009" }, "geometry": { "type": "Point", "coordinates": [ -2.327456, 53.423985 ] } },
{ "type": "Feature", "properties": { "Name": "William Hill Organization Limited", "Activity": "Betting Shop", "Address": "William Hill, Plot 3, Unit 18, Golden Way, Eden Square Shopping Centre, Urmston", "Postcode": "M41 0NA", "Area name": "Trafford", "Area code": "E0800009" }, "geometry": { "type": "Point", "coordinates": [ -2.354722, 53.449093 ] } },
{ "type": "Feature", "properties": { "Name": "William Hill Organization Limited", "Activity": "Betting Shop", "Address": "William Hill, 13 Woodsend Circle, Urmston, Manchester", "Postcode": "M41 8GY", "Area name": "Trafford", "Area code": "E0800009" }, "geometry": { "type": "Point", "coordinates": [ -2.393919, 53.452824 ] } },
{ "type": "Feature", "properties": { "Name": "William Hill Organization Limited", "Activity": "Betting Shop", "Address": "William Hill, 147-151 Marsland Road, Sale", "Postcode": "M33 3HS", "Area name": "Trafford", "Area code": "E0800009" }, "geometry": { "type": "Point", "coordinates": [ -2.308856, 53.417698 ] } },
{ "type": "Feature", "properties": { "Name": "William Hill Organization Limited", "Activity": "Betting Shop", "Address": "William Hill, 147-151 Northenden Road, Sale", "Postcode": "M33 2HS", "Area name": "Trafford", "Area code": "E0800009" }, "geometry": { "type": "Point", "coordinates": [ -2.30323, 53.420031 ] } },
{ "type": "Feature", "properties": { "Name": "William Hill Organization Limited", "Activity": "Betting Shop", "Address": "William Hill, 19C School Road, Sale", "Postcode": "M33 7XX", "Area name": "Trafford", "Area code": "E0800009" }, "geometry": { "type": "Point", "coordinates": [ -2.321157, 53.424784 ] } },
{ "type": "Feature", "properties": { "Name": "William Hill Organization Limited", "Activity": "Betting Shop", "Address": "William Hill, 256 Stockport Road, Timperley, Altrincham", "Postcode": "WA15 7UT", "Area name": "Trafford", "Area code": "E0800009" }, "geometry": { "type": "Point", "coordinates": [ -2.317462, 53.397568 ] } },
{ "type": "Feature", "properties": { "Name": "William Hill Organization Limited", "Activity": "Betting Shop", "Address": "William Hill, 27 Chorlton Street, Manchester", "Postcode": "M16 9HN", "Area name": "Trafford", "Area code": "E0800009" }, "geometry": { "type": "Point", "coordinates": [ -2.268628, 53.463906 ] } },
{ "type": "Feature", "properties": { "Name": "William Hill Organization Limited", "Activity": "Betting Shop", "Address": "William Hill, 28 Moss Road, Stretford, Manchester", "Postcode": "M32 0AH", "Area name": "Trafford", "Area code": "E0800009" }, "geometry": { "type": "Point", "coordinates": [ -2.310018, 53.451213 ] } },
{ "type": "Feature", "properties": { "Name": "William Hill Organization Limited", "Activity": "Betting Shop", "Address": "William Hill, 5 Partington Shopping Centre, Manchester", "Postcode": "M31 4EL", "Area name": "Trafford", "Area code": "E0800009" }, "geometry": { "type": "Point", "coordinates": [ -2.425546, 53.418658 ] } },
{ "type": "Feature", "properties": { "Name": "William Hill Organization Limited", "Activity": "Betting Shop", "Address": "William Hill, 5 Talbot Road, Old Trafford, Manchester", "Postcode": "M16 0QT", "Area name": "Trafford", "Area code": "E0800009" }, "geometry": { "type": "Point", "coordinates": [ -2.286001, 53.460243 ] } },
{ "type": "Feature", "properties": { "Name": "William Hill Organization Limited", "Activity": "Betting Shop", "Address": "William Hill, 85 Manchester Road, Altrincham", "Postcode": "WA14 4RJ", "Area name": "Trafford", "Area code": "E0800009" }, "geometry": { "type": "Point", "coordinates": [ -2.352422, 53.396795 ] } },
{ "type": "Feature", "properties": { "Name": "William Hill Organization Limited", "Activity": "Betting Shop", "Address": "William Hill, Unit 4  Woodsend Circle Neighbourhood Centre Flixton, Manchester", "Postcode": "M41 8GY", "Area name": "Trafford", "Area code": "E0800009" }, "geometry": { "type": "Point", "coordinates": [ -2.393919, 53.452824 ] } },
{ "type": "Feature", "properties": { "Name": "Rank Leisure Limited", "Activity": "Adult Gaming Centre", "Address": "Rank Leisure, 56 Washway Road, Sale", "Postcode": "M33 7RA", "Area name": "Trafford", "Area code": "E0800009" }, "geometry": { "type": "Point", "coordinates": [ -2.328448, 53.423874 ] } },
{ "type": "Feature", "properties": { "Name": "Summit Leisure (KC) Limited", "Activity": "Adult Gaming Centre", "Address": "Summit Leisure, 65\/65A School Road, Sale", "Postcode": "M33 7YF", "Area name": "Trafford", "Area code": "E0800009" }, "geometry": { "type": "Point", "coordinates": [ -2.323402, 53.425145 ] } },
{ "type": "Feature", "properties": { "Name": "Harold Arthur Smith", "Activity": "Betting Shop", "Address": "Harold Smith Bookmakers, 3 , Stone Cross Lane North, Lowton, Warrington", "Postcode": "WA3 2SA", "Area name": "Wigan", "Area code": "E08000010" }, "geometry": { "type": "Point", "coordinates": [ -2.581607, 53.474612 ] } },
{ "type": "Feature", "properties": { "Name": "Done Brothers (Cash Betting) Limited", "Activity": "Betting Shop", "Address": "Bet Fred, Unit5\/6 Bryn Road, Ashton-in-Makerfield, Wigan", "Postcode": "WN4 0AA", "Area name": "Wigan", "Area code": "E08000010" }, "geometry": { "type": "Point", "coordinates": [ -2.64739, 53.501554 ] } },
{ "type": "Feature", "properties": { "Name": "Done Brothers (Cash Betting) Limited", "Activity": "Betting Shop", "Address": "Betfred, 100 Bolton Road, Atherton, Manchester", "Postcode": "M46 9JY", "Area name": "Wigan", "Area code": "E08000010" }, "geometry": { "type": "Point", "coordinates": [ -2.485507, 53.526752 ] } },
{ "type": "Feature", "properties": { "Name": "Done Brothers (Cash Betting) Limited", "Activity": "Betting Shop", "Address": "Betfred, 115-117 Scholes Precinct, Wigan", "Postcode": "WN1 3SD", "Area name": "Wigan", "Area code": "E08000010" }, "geometry": { "type": "Point", "coordinates": [ -2.622462, 53.546323 ] } },
{ "type": "Feature", "properties": { "Name": "Done Brothers (Cash Betting) Limited", "Activity": "Betting Shop", "Address": "Betfred, 162-164 Manchester Road, Ince, Wigan", "Postcode": "WN2 2EA", "Area name": "Wigan", "Area code": "E08000010" }, "geometry": { "type": "Point", "coordinates": [ -2.603835, 53.54285 ] } },
{ "type": "Feature", "properties": { "Name": "Done Brothers (Cash Betting) Limited", "Activity": "Betting Shop", "Address": "Betfred, 215A-217 Elliott Street, Tyldesley, Manchester", "Postcode": "M29 8DG", "Area name": "Wigan", "Area code": "E08000010" }, "geometry": { "type": "Point", "coordinates": [ -2.463798, 53.514191 ] } },
{ "type": "Feature", "properties": { "Name": "Done Brothers (Cash Betting) Limited", "Activity": "Betting Shop", "Address": "Betfred, 22 Wallgate, Wigan", "Postcode": "WN1 1JU", "Area name": "Wigan", "Area code": "E08000010" }, "geometry": { "type": "Point", "coordinates": [ -2.632664, 53.545314 ] } },
{ "type": "Feature", "properties": { "Name": "Done Brothers (Cash Betting) Limited", "Activity": "Betting Shop", "Address": "Betfred, 236 Scholes, Wigan", "Postcode": "WN1 3NH", "Area name": "Wigan", "Area code": "E08000010" }, "geometry": { "type": "Point", "coordinates": [ -2.620127, 53.54967 ] } },
{ "type": "Feature", "properties": { "Name": "Done Brothers (Cash Betting) Limited", "Activity": "Betting Shop", "Address": "Betfred, 236 Scholes, Wigan", "Postcode": "WN1 3NH", "Area name": "Wigan", "Area code": "E08000010" }, "geometry": { "type": "Point", "coordinates": [ -2.620127, 53.54967 ] } },
{ "type": "Feature", "properties": { "Name": "Done Brothers (Cash Betting) Limited", "Activity": "Betting Shop", "Address": "Betfred, 26 Heath Street, Golborne, Warrington", "Postcode": "WA3 3AD", "Area name": "Wigan", "Area code": "E08000010" }, "geometry": { "type": "Point", "coordinates": [ -2.598552, 53.476443 ] } },
{ "type": "Feature", "properties": { "Name": "Done Brothers (Cash Betting) Limited", "Activity": "Betting Shop", "Address": "Betfred, 3 Retail Development, Gerrard Street, Wigan", "Postcode": "WN4 9AN", "Area name": "Wigan", "Area code": "E08000010" }, "geometry": { "type": "Point", "coordinates": [ -2.636639, 53.486373 ] } },
{ "type": "Feature", "properties": { "Name": "Done Brothers (Cash Betting) Limited", "Activity": "Betting Shop", "Address": "Betfred, 34 Bradshawgate, Leigh", "Postcode": "WN7 4LA", "Area name": "Wigan", "Area code": "E08000010" }, "geometry": { "type": "Point", "coordinates": [ -2.517038, 53.496131 ] } },
{ "type": "Feature", "properties": { "Name": "Done Brothers (Cash Betting) Limited", "Activity": "Betting Shop", "Address": "Betfred, 399-401 Ormskirk Road, Wigan", "Postcode": "WN5 9DH", "Area name": "Wigan", "Area code": "E08000010" }, "geometry": { "type": "Point", "coordinates": [ -2.667057, 53.535626 ] } },
{ "type": "Feature", "properties": { "Name": "Done Brothers (Cash Betting) Limited", "Activity": "Betting Shop", "Address": "Betfred, 48-50 Warrington Road, Platt Bridge, Wigan", "Postcode": "WN2 5JA", "Area name": "Wigan", "Area code": "E08000010" }, "geometry": { "type": "Point", "coordinates": [ -2.598031, 53.51755 ] } },
{ "type": "Feature", "properties": { "Name": "Done Brothers (Cash Betting) Limited", "Activity": "Betting Shop", "Address": "Betfred, 51 Chapel Street, Leigh", "Postcode": "WN7 2PB", "Area name": "Wigan", "Area code": "E08000010" }, "geometry": { "type": "Point", "coordinates": [ -2.509735, 53.495479 ] } },
{ "type": "Feature", "properties": { "Name": "Done Brothers (Cash Betting) Limited", "Activity": "Betting Shop", "Address": "Betfred, 6\/8 King Street, Leigh", "Postcode": "WN7 4LR", "Area name": "Wigan", "Area code": "E08000010" }, "geometry": { "type": "Point", "coordinates": [ -2.519346, 53.496397 ] } },
{ "type": "Feature", "properties": { "Name": "Done Brothers (Cash Betting) Limited", "Activity": "Betting Shop", "Address": "Betfred, 6-10 Wallgate, Wigan", "Postcode": "WN1 1JU", "Area name": "Wigan", "Area code": "E08000010" }, "geometry": { "type": "Point", "coordinates": [ -2.632664, 53.545314 ] } },
{ "type": "Feature", "properties": { "Name": "Done Brothers (Cash Betting) Limited", "Activity": "Betting Shop", "Address": "Betfred, 73 Westleigh Lane, Leigh", "Postcode": "WN7 5JE", "Area name": "Wigan", "Area code": "E08000010" }, "geometry": { "type": "Point", "coordinates": [ -2.526024, 53.510851 ] } },
{ "type": "Feature", "properties": { "Name": "Done Brothers (Cash Betting) Limited", "Activity": "Betting Shop", "Address": "Betfred, 83 Market Street, Hindley, Wigan", "Postcode": "WN2 3AE", "Area name": "Wigan", "Area code": "E08000010" }, "geometry": { "type": "Point", "coordinates": [ -2.577019, 53.536257 ] } },
{ "type": "Feature", "properties": { "Name": "Done Brothers (Cash Betting) Limited", "Activity": "Betting Shop", "Address": "Betfred, 9 Preston Road, Standish, Wigan", "Postcode": "WN6 0HR", "Area name": "Wigan", "Area code": "E08000010" }, "geometry": { "type": "Point", "coordinates": [ -2.664161, 53.586772 ] } },
{ "type": "Feature", "properties": { "Name": "Done Brothers (Cash Betting) Limited", "Activity": "Betting Shop", "Address": "Betfred, Unit 4 Walthew Parade, Walthew Lane, Wigan", "Postcode": "WN2 5AL", "Area name": "Wigan", "Area code": "E08000010" }, "geometry": { "type": "Point", "coordinates": [ -2.598465, 53.520664 ] } },
{ "type": "Feature", "properties": { "Name": "Done Brothers (Cash Betting) Limited", "Activity": "Betting Shop", "Address": "Betfred, Unit 41\/42, The Galleries, Mesnes Street, Wigan", "Postcode": "WN1 1PX", "Area name": "Wigan", "Area code": "E08000010" }, "geometry": { "type": "Point", "coordinates": [ -2.632401, 53.548914 ] } },
{ "type": "Feature", "properties": { "Name": "Ladbrokes Betting & Gaming Limited", "Activity": "Betting Shop", "Address": "Ladbrokes, 13-15 Market Place, Wigan", "Postcode": "WN1 1PE", "Area name": "Wigan", "Area code": "E08000010" }, "geometry": { "type": "Point", "coordinates": [ -2.631381, 53.546303 ] } },
{ "type": "Feature", "properties": { "Name": "Ladbrokes Betting & Gaming Limited", "Activity": "Betting Shop", "Address": "Ladbrokes, 159-161 Elliott Street, Tyldesley, Manchester", "Postcode": "M29 8FL", "Area name": "Wigan", "Area code": "E08000010" }, "geometry": { "type": "Point", "coordinates": [ -2.469317, 53.514161 ] } },
{ "type": "Feature", "properties": { "Name": "Ladbrokes Betting & Gaming Limited", "Activity": "Betting Shop", "Address": "Ladbrokes, 221 Chapel Street, Leigh", "Postcode": "WN7 2AP", "Area name": "Wigan", "Area code": "E08000010" }, "geometry": { "type": "Point", "coordinates": [ -2.499796, 53.492456 ] } },
{ "type": "Feature", "properties": { "Name": "Ladbrokes Betting & Gaming Limited", "Activity": "Betting Shop", "Address": "Ladbrokes, 3 Pole Street, Standish, Wigan", "Postcode": "WN6 0HP", "Area name": "Wigan", "Area code": "E08000010" }, "geometry": { "type": "Point", "coordinates": [ -2.664331, 53.587023 ] } },
{ "type": "Feature", "properties": { "Name": "Ladbrokes Betting & Gaming Limited", "Activity": "Betting Shop", "Address": "Ladbrokes, 44 Market Street, Atherton, Manchester", "Postcode": "M46 0DG", "Area name": "Wigan", "Area code": "E08000010" }, "geometry": { "type": "Point", "coordinates": [ -2.492273, 53.523569 ] } },
{ "type": "Feature", "properties": { "Name": "Ladbrokes Betting & Gaming Limited", "Activity": "Betting Shop", "Address": "Ladbrokes, 57B Park Road, Wigan", "Postcode": "WN6 7AE", "Area name": "Wigan", "Area code": "E08000010" }, "geometry": { "type": "Point", "coordinates": [ -2.644373, 53.552113 ] } },
{ "type": "Feature", "properties": { "Name": "Ladbrokes Betting & Gaming Limited", "Activity": "Betting Shop", "Address": "Ladbrokes, Unit 1 Borsdane Avenue, Hindley, Wigan", "Postcode": "WN2 3QN", "Area name": "Wigan", "Area code": "E08000010" }, "geometry": { "type": "Point", "coordinates": [ -2.564575, 53.53418 ] } },
{ "type": "Feature", "properties": { "Name": "Ladbrokes Betting & Gaming Limited", "Activity": "Betting Shop", "Address": "Ladbrokes, Unit 23b, Spinning Gate, Leigh", "Postcode": "WN7 4PG", "Area name": "Wigan", "Area code": "E08000010" }, "geometry": { "type": "Point", "coordinates": [ -2.516609, 53.495512 ] } },
{ "type": "Feature", "properties": { "Name": "Ladbrokes Betting & Gaming Limited", "Activity": "Betting Shop", "Address": "Ladbrokes, Unit 3-4, Market Arcade, 38A Leigh Road, Leigh", "Postcode": "WN7 1QR", "Area name": "Wigan", "Area code": "E08000010" }, "geometry": { "type": "Point", "coordinates": [ -2.518685, 53.500132 ] } },
{ "type": "Feature", "properties": { "Name": "Ladbrokes Betting & Gaming Limited", "Activity": "Betting Shop", "Address": "Ladbrokes, Unit 4, 8 Woodhouse Drive, Wigan", "Postcode": "WN6 7NT", "Area name": "Wigan", "Area code": "E08000010" }, "geometry": { "type": "Point", "coordinates": [ -2.659937, 53.557115 ] } },
{ "type": "Feature", "properties": { "Name": "Luxury Leisure", "Activity": "Adult Gaming Centre", "Address": "Nobles Amusements, 84-86 Bradshawgate, Leigh", "Postcode": "WN7 4NP", "Area name": "Wigan", "Area code": "E08000010" }, "geometry": { "type": "Point", "coordinates": [ -2.514442, 53.495951 ] } },
{ "type": "Feature", "properties": { "Name": "Corbett Bookmakers Limited", "Activity": "Betting Shop", "Address": "Corbett Bookmakers, 445 Gidlow Lane, Wigan", "Postcode": "WN6 7PN", "Area name": "Wigan", "Area code": "E08000010" }, "geometry": { "type": "Point", "coordinates": [ -2.645649, 53.559566 ] } },
{ "type": "Feature", "properties": { "Name": "Ashcroft Bookmakers Limited", "Activity": "Betting Shop", "Address": "Ashcrofts Bookmakers, 230A City Road, Wigan", "Postcode": "WN5 0BG", "Area name": "Wigan", "Area code": "E08000010" }, "geometry": { "type": "Point", "coordinates": [ -2.682552, 53.544081 ] } },
{ "type": "Feature", "properties": { "Name": "Gala Leisure Limited", "Activity": "Bingo", "Address": "Gala Clubs, Area 1, 8 Anjou Boulevard, Robin Park, Wigan", "Postcode": "WN5 0UJ", "Area name": "Wigan", "Area code": "E08000010" }, "geometry": { "type": "Point", "coordinates": [ -2.656932, 53.546319 ] } },
{ "type": "Feature", "properties": { "Name": "Gala Leisure Limited", "Activity": "Bingo", "Address": "Gala Clubs, Area 1, Crompton Street, Wigan", "Postcode": "WN1 1YP", "Area name": "Wigan", "Area code": "E08000010" }, "geometry": { "type": "Point", "coordinates": [ -2.629563, 53.547928 ] } },
{ "type": "Feature", "properties": { "Name": "Gala Leisure Limited", "Activity": "Bingo", "Address": "Gala Clubs, Area 2, Crompton Street, Wigan", "Postcode": "WN1 1YP", "Area name": "Wigan", "Area code": "E08000010" }, "geometry": { "type": "Point", "coordinates": [ -2.629563, 53.547928 ] } },
{ "type": "Feature", "properties": { "Name": "Gala Leisure Limited", "Activity": "Bingo", "Address": "Gala Clubs, Area 3, Crompton Street, Wigan", "Postcode": "WN1 1YP", "Area name": "Wigan", "Area code": "E08000010" }, "geometry": { "type": "Point", "coordinates": [ -2.629563, 53.547928 ] } },
{ "type": "Feature", "properties": { "Name": "Coral Racing Limited", "Activity": "Betting Shop", "Address": "Coral, 44 Wallgate, Wigan", "Postcode": "WN1 1LD", "Area name": "Wigan", "Area code": "E08000010" }, "geometry": { "type": "Point", "coordinates": [ -2.632077, 53.545365 ] } },
{ "type": "Feature", "properties": { "Name": "Coral Racing Limited", "Activity": "Betting Shop", "Address": "Coral Betting Shop, Winstanley District Centre, Holmes House Avenue, Wigan", "Postcode": "WN3 6JA", "Area name": "Wigan", "Area code": "E08000010" }, "geometry": { "type": "Point", "coordinates": [ -2.669851, 53.521466 ] } },
{ "type": "Feature", "properties": { "Name": "Coral Racing Limited", "Activity": "Betting Shop", "Address": "Coral Racing Ltd, 1 Borsdane Avenue Hindley, Wigan", "Postcode": "WN2 3QN", "Area name": "Wigan", "Area code": "E08000010" }, "geometry": { "type": "Point", "coordinates": [ -2.564575, 53.53418 ] } },
{ "type": "Feature", "properties": { "Name": "Coral Racing Limited", "Activity": "Betting Shop", "Address": "Coral Racing Ltd, 12-14 Gerard Street, Ashton-In-Makerfield, Wigan", "Postcode": "WN4 9AA", "Area name": "Wigan", "Area code": "E08000010" }, "geometry": { "type": "Point", "coordinates": [ -2.637166, 53.487299 ] } },
{ "type": "Feature", "properties": { "Name": "Coral Racing Limited", "Activity": "Betting Shop", "Address": "Coral Racing Ltd, 23 Borsdane Avenue Hindley, Wigan", "Postcode": "WN2 3QN", "Area name": "Wigan", "Area code": "E08000010" }, "geometry": { "type": "Point", "coordinates": [ -2.564575, 53.53418 ] } },
{ "type": "Feature", "properties": { "Name": "Coral Racing Limited", "Activity": "Betting Shop", "Address": "Coral Racing Ltd, 44 Carr Lane, Wigan", "Postcode": "WN3 5ND", "Area name": "Wigan", "Area code": "E08000010" }, "geometry": { "type": "Point", "coordinates": [ -2.64214, 53.524251 ] } },
{ "type": "Feature", "properties": { "Name": "Coral Racing Limited", "Activity": "Betting Shop", "Address": "Coral Racing Ltd, 44-46 Firs Lane, Leigh", "Postcode": "WN7 4SB", "Area name": "Wigan", "Area code": "E08000010" }, "geometry": { "type": "Point", "coordinates": [ -2.534293, 53.49814 ] } },
{ "type": "Feature", "properties": { "Name": "Coral Racing Limited", "Activity": "Betting Shop", "Address": "Coral Racing Ltd, 64 Market Street, Hindley, Wigan", "Postcode": "WN2 3AN", "Area name": "Wigan", "Area code": "E08000010" }, "geometry": { "type": "Point", "coordinates": [ -2.577516, 53.536158 ] } },
{ "type": "Feature", "properties": { "Name": "Coral Racing Limited", "Activity": "Betting Shop", "Address": "Coral Racing Ltd, 646-648 Ormskirk Road, Wigan", "Postcode": "WN5 8BE", "Area name": "Wigan", "Area code": "E08000010" }, "geometry": { "type": "Point", "coordinates": [ -2.677009, 53.535286 ] } },
{ "type": "Feature", "properties": { "Name": "Coral Racing Limited", "Activity": "Betting Shop", "Address": "Coral Racing Ltd, 7 Smithy Green, Ince, Wigan", "Postcode": "WN2 2AT", "Area name": "Wigan", "Area code": "E08000010" }, "geometry": { "type": "Point", "coordinates": [ -2.605954, 53.543298 ] } },
{ "type": "Feature", "properties": { "Name": "Jay Bee Leisure (Leigh) Limited", "Activity": "Adult Gaming Centre", "Address": "Jay Bee Leisure, 66 Market Street, Atherton, Manchester", "Postcode": "M46 0DP", "Area name": "Wigan", "Area code": "E08000010" }, "geometry": { "type": "Point", "coordinates": [ -2.494505, 53.523613 ] } },
{ "type": "Feature", "properties": { "Name": "Jay Bee Leisure (Leigh) Limited", "Activity": "Adult Gaming Centre", "Address": "Jay Bee Leisure, Unit 24, Spinning Gate, Leigh", "Postcode": "WN7 4PG", "Area name": "Wigan", "Area code": "E08000010" }, "geometry": { "type": "Point", "coordinates": [ -2.516609, 53.495512 ] } },
{ "type": "Feature", "properties": { "Name": "William Hill Organization Limited", "Activity": "Betting Shop", "Address": "William Hill, 1 Brierfield Avenue, Manchester", "Postcode": "M46 0HA", "Area name": "Wigan", "Area code": "E08000010" }, "geometry": { "type": "Point", "coordinates": [ -2.493912, 53.528308 ] } },
{ "type": "Feature", "properties": { "Name": "William Hill Organization Limited", "Activity": "Betting Shop", "Address": "William Hill, 100 Bolton Road, Atherton, Manchester", "Postcode": "M46 9JY", "Area name": "Wigan", "Area code": "E08000010" }, "geometry": { "type": "Point", "coordinates": [ -2.485507, 53.526752 ] } },
{ "type": "Feature", "properties": { "Name": "William Hill Organization Limited", "Activity": "Betting Shop", "Address": "William Hill, 1-3 Heath Street, Golborne, Warrington", "Postcode": "WA3 3BN", "Area name": "Wigan", "Area code": "E08000010" }, "geometry": { "type": "Point", "coordinates": [ -2.598179, 53.476669 ] } },
{ "type": "Feature", "properties": { "Name": "William Hill Organization Limited", "Activity": "Betting Shop", "Address": "William Hill, 137 Ormskirk Road, Wigan", "Postcode": "WN5 8AQ", "Area name": "Wigan", "Area code": "E08000010" }, "geometry": { "type": "Point", "coordinates": [ -2.680781, 53.536187 ] } },
{ "type": "Feature", "properties": { "Name": "William Hill Organization Limited", "Activity": "Betting Shop", "Address": "William Hill, 165 Poolstock Lane, Wigan", "Postcode": "WN3 5HW", "Area name": "Wigan", "Area code": "E08000010" }, "geometry": { "type": "Point", "coordinates": [ -2.644645, 53.52831 ] } },
{ "type": "Feature", "properties": { "Name": "William Hill Organization Limited", "Activity": "Betting Shop", "Address": "William Hill, 189\/191 Elliot Street, Tyldesley", "Postcode": "M29 8DR", "Area name": "Wigan", "Area code": "E08000010" }, "geometry": { "type": "Point", "coordinates": [ -2.465999, 53.514075 ] } },
{ "type": "Feature", "properties": { "Name": "William Hill Organization Limited", "Activity": "Betting Shop", "Address": "William Hill, 25A The Gerard Centre, Gerard Street, Ashton-In-Makerfield, Wigan", "Postcode": "WN4 9AN", "Area name": "Wigan", "Area code": "E08000010" }, "geometry": { "type": "Point", "coordinates": [ -2.636639, 53.486373 ] } },
{ "type": "Feature", "properties": { "Name": "William Hill Organization Limited", "Activity": "Betting Shop", "Address": "William Hill, 2-8 Bradshawgate, Leigh", "Postcode": "WN7 4LX", "Area name": "Wigan", "Area code": "E08000010" }, "geometry": { "type": "Point", "coordinates": [ -2.518335, 53.496258 ] } },
{ "type": "Feature", "properties": { "Name": "William Hill Organization Limited", "Activity": "Betting Shop", "Address": "William Hill, 432 Warrington Road, Wigan", "Postcode": "WN3 6QF", "Area name": "Wigan", "Area code": "E08000010" }, "geometry": { "type": "Point", "coordinates": [ -2.654512, 53.526431 ] } },
{ "type": "Feature", "properties": { "Name": "William Hill Organization Limited", "Activity": "Betting Shop", "Address": "William Hill, 46 Market Street, Atherton, Manchester", "Postcode": "M46 0DG", "Area name": "Wigan", "Area code": "E08000010" }, "geometry": { "type": "Point", "coordinates": [ -2.492273, 53.523569 ] } },
{ "type": "Feature", "properties": { "Name": "William Hill Organization Limited", "Activity": "Betting Shop", "Address": "William Hill, 548 Atherton Road, Hindley Green, Wigan", "Postcode": "WN2 4SJ", "Area name": "Wigan", "Area code": "E08000010" }, "geometry": { "type": "Point", "coordinates": [ -2.555373, 53.526275 ] } },
{ "type": "Feature", "properties": { "Name": "William Hill Organization Limited", "Activity": "Betting Shop", "Address": "William Hill, 761-763 Ormskirk Road, Wigan", "Postcode": "WN5 8AT", "Area name": "Wigan", "Area code": "E08000010" }, "geometry": { "type": "Point", "coordinates": [ -2.68353, 53.536408 ] } },
{ "type": "Feature", "properties": { "Name": "William Hill Organization Limited", "Activity": "Betting Shop", "Address": "William Hill, 7-9 Mesnes Street, Wigan", "Postcode": "WN1 1QP", "Area name": "Wigan", "Area code": "E08000010" }, "geometry": { "type": "Point", "coordinates": [ -2.631174, 53.548624 ] } },
{ "type": "Feature", "properties": { "Name": "Shipley Brothers Limited", "Activity": "Bingo", "Address": "B JS Bingo, Ellesmere Street, Leigh", "Postcode": "WN7 4LQ", "Area name": "Wigan", "Area code": "E08000010" }, "geometry": { "type": "Point", "coordinates": [ -2.518193, 53.4944 ] } },
{ "type": "Feature", "properties": { "Name": "Tote (Successor Company) Limited", "Activity": "Betting Shop", "Address": "Totesport, 115-117 Scholes Precinct, Wigan", "Postcode": "WN1 3SD", "Area name": "Wigan", "Area code": "E08000010" }, "geometry": { "type": "Point", "coordinates": [ -2.622462, 53.546323 ] } },
{ "type": "Feature", "properties": { "Name": "Tote (Successor Company) Limited", "Activity": "Betting Shop", "Address": "Totesport, 162-164 Manchester Road, Ince, Wigan", "Postcode": "WN2 2EA", "Area name": "Wigan", "Area code": "E08000010" }, "geometry": { "type": "Point", "coordinates": [ -2.603835, 53.54285 ] } },
{ "type": "Feature", "properties": { "Name": "Tote (Successor Company) Limited", "Activity": "Betting Shop", "Address": "Totesport, 22 Wallgate, Wigan", "Postcode": "WN1 1JU", "Area name": "Wigan", "Area code": "E08000010" }, "geometry": { "type": "Point", "coordinates": [ -2.632664, 53.545314 ] } },
{ "type": "Feature", "properties": { "Name": "Tote (Successor Company) Limited", "Activity": "Betting Shop", "Address": "Totesport, 236 Scholes, Wigan", "Postcode": "WN1 3NH", "Area name": "Wigan", "Area code": "E08000010" }, "geometry": { "type": "Point", "coordinates": [ -2.620127, 53.54967 ] } },
{ "type": "Feature", "properties": { "Name": "Tote (Successor Company) Limited", "Activity": "Betting Shop", "Address": "Totesport, 397 Ormskirk Road, Wigan", "Postcode": "WN5 9DH", "Area name": "Wigan", "Area code": "E08000010" }, "geometry": { "type": "Point", "coordinates": [ -2.667057, 53.535626 ] } },
{ "type": "Feature", "properties": { "Name": "Tote (Successor Company) Limited", "Activity": "Betting Shop", "Address": "Totesport, 48-50 Warrington Road, Platt Bridge, Wigan", "Postcode": "WN2 5JA", "Area name": "Wigan", "Area code": "E08000010" }, "geometry": { "type": "Point", "coordinates": [ -2.598031, 53.51755 ] } },
{ "type": "Feature", "properties": { "Name": "Tote (Successor Company) Limited", "Activity": "Betting Shop", "Address": "Totesport, 83 Market Street, Hindley, Wigan", "Postcode": "WN2 3AE", "Area name": "Wigan", "Area code": "E08000010" }, "geometry": { "type": "Point", "coordinates": [ -2.577019, 53.536257 ] } },
{ "type": "Feature", "properties": { "Name": "Tote (Successor Company) Limited", "Activity": "Betting Shop", "Address": "Totesport, 9 Preston Road, Standish, Wigan", "Postcode": "WN6 0HR", "Area name": "Wigan", "Area code": "E08000010" }, "geometry": { "type": "Point", "coordinates": [ -2.664161, 53.586772 ] } },
{ "type": "Feature", "properties": { "Name": "Tote (Successor Company) Limited", "Activity": "Betting Shop", "Address": "Totesport, 92 Bradshawgate, Leigh", "Postcode": "WN7 4NP", "Area name": "Wigan", "Area code": "E08000010" }, "geometry": { "type": "Point", "coordinates": [ -2.514442, 53.495951 ] } },
{ "type": "Feature", "properties": { "Name": "Tote (Successor Company) Limited", "Activity": "Betting Shop", "Address": "Totesport, Chapel Lane, Wigan", "Postcode": "WN3 4HS", "Area name": "Wigan", "Area code": "E08000010" }, "geometry": { "type": "Point", "coordinates": [ -2.631137, 53.54004 ] } },
{ "type": "Feature", "properties": { "Name": "Praesepe Limited", "Activity": "Adult Gaming Centre", "Address": "Praesepe, 95 Market Street, Atherton, Manchester", "Postcode": "M46 0DP", "Area name": "Wigan", "Area code": "E08000010" }, "geometry": { "type": "Point", "coordinates": [ -2.494505, 53.523613 ] } },
{ "type": "Feature", "properties": { "Name": "Mr Rigby's Leisuretime Limited", "Activity": "Adult Gaming Centre", "Address": "Mr Rigby's Leisuretime, 48 Bradshawgate, Leigh", "Postcode": "WN7 4LA", "Area name": "Wigan", "Area code": "E08000010" }, "geometry": { "type": "Point", "coordinates": [ -2.517038, 53.496131 ] } },
{ "type": "Feature", "properties": { "Name": "Ventura Leisure Limited", "Activity": "Adult Gaming Centre", "Address": "Kings Amusements, 32-36 Standishgate, Wigan", "Postcode": "WN1 1UE", "Area name": "Wigan", "Area code": "E08000010" }, "geometry": { "type": "Point", "coordinates": [ -2.630902, 53.547537 ] } }
]
}
