{
"type": "FeatureCollection",
"crs": { "type": "name", "properties": { "name": "urn:ogc:def:crs:OGC:1.3:CRS84" } },
"features": [
{ "type": "Feature", "properties": { "Name": "Done Brothers (Cash Betting) Limited", "Activity": "Betting Shop", "Address": "Betfred, 100 George Street, Altrincham", "Postcode": "WA14 1RF", "Area name": "Trafford", "Area code": "E0800009", "marker-color": "#fc6721", "marker-size": "medium" }, "geometry": { "type": "Point", "coordinates": [ -2.351433, 53.386478 ] } },
{ "type": "Feature", "properties": { "Name": "Done Brothers (Cash Betting) Limited", "Activity": "Betting Shop", "Address": "Betfred, 107 Ayres Road, Manchester", "Postcode": "M16 7GS", "Area name": "Trafford", "Area code": "E0800009", "marker-color": "#fc6721", "marker-size": "medium" }, "geometry": { "type": "Point", "coordinates": [ -2.267615, 53.458434 ] } },
{ "type": "Feature", "properties": { "Name": "Done Brothers (Cash Betting) Limited", "Activity": "Betting Shop", "Address": "Betfred, 175 Chorlton Road, Manchester", "Postcode": "M16 7WS", "Area name": "Trafford", "Area code": "E0800009", "marker-color": "#fc6721", "marker-size": "medium" }, "geometry": { "type": "Point", "coordinates": [ -2.257935, 53.45913 ] } },
{ "type": "Feature", "properties": { "Name": "Done Brothers (Cash Betting) Limited", "Activity": "Betting Shop", "Address": "Betfred, 34 Hale Road, Altrincham", "Postcode": "WA14 2EX", "Area name": "Trafford", "Area code": "E0800009", "marker-color": "#fc6721", "marker-size": "medium" }, "geometry": { "type": "Point", "coordinates": [ -2.348311, 53.381446 ] } },
{ "type": "Feature", "properties": { "Name": "Done Brothers (Cash Betting) Limited", "Activity": "Betting Shop", "Address": "Betfred, 349 Stockport Road, Timperley, Altrincham", "Postcode": "WA15 7UG", "Area name": "Trafford", "Area code": "E0800009", "marker-color": "#fc6721", "marker-size": "medium" }, "geometry": { "type": "Point", "coordinates": [ -2.318996, 53.397474 ] } },
{ "type": "Feature", "properties": { "Name": "Done Brothers (Cash Betting) Limited", "Activity": "Betting Shop", "Address": "Betfred, 41 School Road, Sale", "Postcode": "M33 7YE", "Area name": "Trafford", "Area code": "E0800009", "marker-color": "#fc6721", "marker-size": "medium" }, "geometry": { "type": "Point", "coordinates": [ -2.322663, 53.424978 ] } },
{ "type": "Feature", "properties": { "Name": "Done Brothers (Cash Betting) Limited", "Activity": "Betting Shop", "Address": "Betfred, 58 Coppice Avenue, Sale", "Postcode": "M33 4WB", "Area name": "Trafford", "Area code": "E0800009", "marker-color": "#fc6721", "marker-size": "medium" }, "geometry": { "type": "Point", "coordinates": [ -2.348768, 53.415269 ] } },
{ "type": "Feature", "properties": { "Name": "Done Brothers (Cash Betting) Limited", "Activity": "Betting Shop", "Address": "Betfred, 8 Brooklands Road, Sale", "Postcode": "M33 3SQ", "Area name": "Trafford", "Area code": "E0800009", "marker-color": "#fc6721", "marker-size": "medium" }, "geometry": { "type": "Point", "coordinates": [ -2.325234, 53.416836 ] } },
{ "type": "Feature", "properties": { "Name": "Done Brothers (Cash Betting) Limited", "Activity": "Betting Shop", "Address": "Betfred, 890 Chester Road, Stretford, Manchester", "Postcode": "M32 0PA", "Area name": "Trafford", "Area code": "E0800009", "marker-color": "#fc6721", "marker-size": "medium" }, "geometry": { "type": "Point", "coordinates": [ -2.299481, 53.453882 ] } },
{ "type": "Feature", "properties": { "Name": "Done Brothers (Cash Betting) Limited", "Activity": "Betting Shop", "Address": "Betfred, 9\/9A Lostock Road, Urmston, Manchester", "Postcode": "M41 0SU", "Area name": "Trafford", "Area code": "E0800009", "marker-color": "#fc6721", "marker-size": "medium" }, "geometry": { "type": "Point", "coordinates": [ -2.35454, 53.458028 ] } },
{ "type": "Feature", "properties": { "Name": "Talarius Limited", "Activity": "Adult Gaming Centre", "Address": "Quicksilver, 36 School Road, Sale", "Postcode": "M33 7XF", "Area name": "Trafford", "Area code": "E0800009", "marker-color": "#fc6721", "marker-size": "medium" }, "geometry": { "type": "Point", "coordinates": [ -2.320903, 53.425054 ] } },
{ "type": "Feature", "properties": { "Name": "Summit Leisure (Deansgate) Limited", "Activity": "Adult Gaming Centre", "Address": "Shaws Amusements, 65 School Road, Sale", "Postcode": "M33 7YF", "Area name": "Trafford", "Area code": "E0800009", "marker-color": "#fc6721", "marker-size": "medium" }, "geometry": { "type": "Point", "coordinates": [ -2.323402, 53.425145 ] } },
{ "type": "Feature", "properties": { "Name": "Ladbrokes Betting & Gaming Limited", "Activity": "Betting Shop", "Address": "Ladbrokes, 2A-4 Regent Road, Altrincham", "Postcode": "WA14 1RE", "Area name": "Trafford", "Area code": "E0800009", "marker-color": "#fc6721", "marker-size": "medium" }, "geometry": { "type": "Point", "coordinates": [ -2.351442, 53.385669 ] } },
{ "type": "Feature", "properties": { "Name": "Ladbrokes Betting & Gaming Limited", "Activity": "Betting Shop", "Address": "Ladbrokes, 676 Chester Road, Stretford, Manchester", "Postcode": "M32 0SF", "Area name": "Trafford", "Area code": "E0800009", "marker-color": "#fc6721", "marker-size": "medium" }, "geometry": { "type": "Point", "coordinates": [ -2.288659, 53.461369 ] } },
{ "type": "Feature", "properties": { "Name": "Ladbrokes Betting & Gaming Limited", "Activity": "Betting Shop", "Address": "Ladbrokes, 9b Lostock Road, Urmston, Manchester", "Postcode": "M41 0SU", "Area name": "Trafford", "Area code": "E0800009", "marker-color": "#fc6721", "marker-size": "medium" }, "geometry": { "type": "Point", "coordinates": [ -2.35454, 53.458028 ] } },
{ "type": "Feature", "properties": { "Name": "Ladbrokes Betting & Gaming Limited", "Activity": "Betting Shop", "Address": "Ladbrokes, Unit 123, Arndale Centre, Stretford, Manchester", "Postcode": "M32 9BH", "Area name": "Trafford", "Area code": "E0800009", "marker-color": "#fc6721", "marker-size": "medium" }, "geometry": { "type": "Point", "coordinates": [ -2.308514, 53.44522 ] } },
{ "type": "Feature", "properties": { "Name": "Reel Leisure Limited", "Activity": "Adult Gaming Centre", "Address": "Reel Time, 5-7 Shaws Road, Altrincham", "Postcode": "WA14 1QU", "Area name": "Trafford", "Area code": "E0800009", "marker-color": "#fc6721", "marker-size": "medium" }, "geometry": { "type": "Point", "coordinates": [ -2.35129, 53.387377 ] } },
{ "type": "Feature", "properties": { "Name": "Fraser Capital Management Limited", "Activity": "Bingo", "Address": "Club 3000 Bingo, 601 Chester Road, Manchester", "Postcode": "M16 0QW", "Area name": "Trafford", "Area code": "E0800009", "marker-color": "#fc6721", "marker-size": "medium" }, "geometry": { "type": "Point", "coordinates": [ -2.276587, 53.46245 ] } },
{ "type": "Feature", "properties": { "Name": "NAMCO UK Limited", "Activity": "Adult Gaming Centre", "Address": "Namco Station, Unit 1, 13-17 The Orient, The Trafford Centre, Manchester", "Postcode": "M17 8ED", "Area name": "Trafford", "Area code": "E0800009", "marker-color": "#fc6721", "marker-size": "medium" }, "geometry": { "type": "Point", "coordinates": [ -2.349005, 53.466179 ] } },
{ "type": "Feature", "properties": { "Name": "David Pluck (North West) Limited", "Activity": "Betting Shop", "Address": "David Pluck Racing, 12 Northenden Road, Sale", "Postcode": "M33 3BR", "Area name": "Trafford", "Area code": "E0800009", "marker-color": "#fc6721", "marker-size": "medium" }, "geometry": { "type": "Point", "coordinates": [ -2.316951, 53.423816 ] } },
{ "type": "Feature", "properties": { "Name": "David Pluck (North West) Limited", "Activity": "Betting Shop", "Address": "David Pluck Racing, 141 Northenden Road, Sale", "Postcode": "M33 3HF", "Area name": "Trafford", "Area code": "E0800009", "marker-color": "#fc6721", "marker-size": "medium" }, "geometry": { "type": "Point", "coordinates": [ -2.304617, 53.420323 ] } },
{ "type": "Feature", "properties": { "Name": "Coral Racing Limited", "Activity": "Betting Shop", "Address": "Coral Racing Ltd, 19A School Road, Sale", "Postcode": "M33 7XX", "Area name": "Trafford", "Area code": "E0800009", "marker-color": "#fc6721", "marker-size": "medium" }, "geometry": { "type": "Point", "coordinates": [ -2.321157, 53.424784 ] } },
{ "type": "Feature", "properties": { "Name": "Coral Racing Limited", "Activity": "Betting Shop", "Address": "Coral Racing Ltd, 384 Northenden Road, Sale", "Postcode": "M33 2PT", "Area name": "Trafford", "Area code": "E0800009", "marker-color": "#fc6721", "marker-size": "medium" }, "geometry": { "type": "Point", "coordinates": [ -2.290655, 53.418372 ] } },
{ "type": "Feature", "properties": { "Name": "Coral Racing Limited", "Activity": "Betting Shop", "Address": "Coral Racing Ltd, 408 Barton Road, Stretford, Manchester", "Postcode": "M32 9RW", "Area name": "Trafford", "Area code": "E0800009", "marker-color": "#fc6721", "marker-size": "medium" }, "geometry": { "type": "Point", "coordinates": [ -2.325839, 53.454577 ] } },
{ "type": "Feature", "properties": { "Name": "Coral Racing Limited", "Activity": "Betting Shop", "Address": "Coral Racing Ltd, 5A-7  Flixton Road, Manchester", "Postcode": "M41 5AW", "Area name": "Trafford", "Area code": "E0800009", "marker-color": "#fc6721", "marker-size": "medium" }, "geometry": { "type": "Point", "coordinates": [ -2.355392, 53.448255 ] } },
{ "type": "Feature", "properties": { "Name": "Coral Racing Limited", "Activity": "Betting Shop", "Address": "Coral Racing Ltd, 8\/10 Green Lane, Sale", "Postcode": "M33 5PH", "Area name": "Trafford", "Area code": "E0800009", "marker-color": "#fc6721", "marker-size": "medium" }, "geometry": { "type": "Point", "coordinates": [ -2.341629, 53.429338 ] } },
{ "type": "Feature", "properties": { "Name": "Coral Racing Limited", "Activity": "Betting Shop", "Address": "Coral Racing Ltd, 87 Great Stone Road, Stretford, Manchester", "Postcode": "M32 8GR", "Area name": "Trafford", "Area code": "E0800009", "marker-color": "#fc6721", "marker-size": "medium" }, "geometry": { "type": "Point", "coordinates": [ -2.286268, 53.453007 ] } },
{ "type": "Feature", "properties": { "Name": "Mecca Bingo Limited", "Activity": "Bingo", "Address": "Mecca Bingo, 56 Washway Road, Sale", "Postcode": "M33 7QZ", "Area name": "Trafford", "Area code": "E0800009", "marker-color": "#fc6721", "marker-size": "medium" }, "geometry": { "type": "Point", "coordinates": [ -2.327456, 53.423985 ] } },
{ "type": "Feature", "properties": { "Name": "William Hill Organization Limited", "Activity": "Betting Shop", "Address": "William Hill, Plot 3, Unit 18, Golden Way, Eden Square Shopping Centre, Urmston", "Postcode": "M41 0NA", "Area name": "Trafford", "Area code": "E0800009", "marker-color": "#fc6721", "marker-size": "medium" }, "geometry": { "type": "Point", "coordinates": [ -2.354722, 53.449093 ] } },
{ "type": "Feature", "properties": { "Name": "William Hill Organization Limited", "Activity": "Betting Shop", "Address": "William Hill, 13 Woodsend Circle, Urmston, Manchester", "Postcode": "M41 8GY", "Area name": "Trafford", "Area code": "E0800009", "marker-color": "#fc6721", "marker-size": "medium" }, "geometry": { "type": "Point", "coordinates": [ -2.393919, 53.452824 ] } },
{ "type": "Feature", "properties": { "Name": "William Hill Organization Limited", "Activity": "Betting Shop", "Address": "William Hill, 147-151 Marsland Road, Sale", "Postcode": "M33 3HS", "Area name": "Trafford", "Area code": "E0800009", "marker-color": "#fc6721", "marker-size": "medium" }, "geometry": { "type": "Point", "coordinates": [ -2.308856, 53.417698 ] } },
{ "type": "Feature", "properties": { "Name": "William Hill Organization Limited", "Activity": "Betting Shop", "Address": "William Hill, 147-151 Northenden Road, Sale", "Postcode": "M33 2HS", "Area name": "Trafford", "Area code": "E0800009", "marker-color": "#fc6721", "marker-size": "medium" }, "geometry": { "type": "Point", "coordinates": [ -2.30323, 53.420031 ] } },
{ "type": "Feature", "properties": { "Name": "William Hill Organization Limited", "Activity": "Betting Shop", "Address": "William Hill, 19C School Road, Sale", "Postcode": "M33 7XX", "Area name": "Trafford", "Area code": "E0800009", "marker-color": "#fc6721", "marker-size": "medium" }, "geometry": { "type": "Point", "coordinates": [ -2.321157, 53.424784 ] } },
{ "type": "Feature", "properties": { "Name": "William Hill Organization Limited", "Activity": "Betting Shop", "Address": "William Hill, 256 Stockport Road, Timperley, Altrincham", "Postcode": "WA15 7UT", "Area name": "Trafford", "Area code": "E0800009", "marker-color": "#fc6721", "marker-size": "medium" }, "geometry": { "type": "Point", "coordinates": [ -2.317462, 53.397568 ] } },
{ "type": "Feature", "properties": { "Name": "William Hill Organization Limited", "Activity": "Betting Shop", "Address": "William Hill, 27 Chorlton Street, Manchester", "Postcode": "M16 9HN", "Area name": "Trafford", "Area code": "E0800009", "marker-color": "#fc6721", "marker-size": "medium" }, "geometry": { "type": "Point", "coordinates": [ -2.268628, 53.463906 ] } },
{ "type": "Feature", "properties": { "Name": "William Hill Organization Limited", "Activity": "Betting Shop", "Address": "William Hill, 28 Moss Road, Stretford, Manchester", "Postcode": "M32 0AH", "Area name": "Trafford", "Area code": "E0800009", "marker-color": "#fc6721", "marker-size": "medium" }, "geometry": { "type": "Point", "coordinates": [ -2.310018, 53.451213 ] } },
{ "type": "Feature", "properties": { "Name": "William Hill Organization Limited", "Activity": "Betting Shop", "Address": "William Hill, 5 Partington Shopping Centre, Manchester", "Postcode": "M31 4EL", "Area name": "Trafford", "Area code": "E0800009", "marker-color": "#fc6721", "marker-size": "medium" }, "geometry": { "type": "Point", "coordinates": [ -2.425546, 53.418658 ] } },
{ "type": "Feature", "properties": { "Name": "William Hill Organization Limited", "Activity": "Betting Shop", "Address": "William Hill, 5 Talbot Road, Old Trafford, Manchester", "Postcode": "M16 0QT", "Area name": "Trafford", "Area code": "E0800009", "marker-color": "#fc6721", "marker-size": "medium" }, "geometry": { "type": "Point", "coordinates": [ -2.286001, 53.460243 ] } },
{ "type": "Feature", "properties": { "Name": "William Hill Organization Limited", "Activity": "Betting Shop", "Address": "William Hill, 85 Manchester Road, Altrincham", "Postcode": "WA14 4RJ", "Area name": "Trafford", "Area code": "E0800009", "marker-color": "#fc6721", "marker-size": "medium" }, "geometry": { "type": "Point", "coordinates": [ -2.352422, 53.396795 ] } },
{ "type": "Feature", "properties": { "Name": "William Hill Organization Limited", "Activity": "Betting Shop", "Address": "William Hill, Unit 4  Woodsend Circle Neighbourhood Centre Flixton, Manchester", "Postcode": "M41 8GY", "Area name": "Trafford", "Area code": "E0800009", "marker-color": "#fc6721", "marker-size": "medium" }, "geometry": { "type": "Point", "coordinates": [ -2.393919, 53.452824 ] } },
{ "type": "Feature", "properties": { "Name": "Rank Leisure Limited", "Activity": "Adult Gaming Centre", "Address": "Rank Leisure, 56 Washway Road, Sale", "Postcode": "M33 7RA", "Area name": "Trafford", "Area code": "E0800009", "marker-color": "#fc6721", "marker-size": "medium" }, "geometry": { "type": "Point", "coordinates": [ -2.328448, 53.423874 ] } },
{ "type": "Feature", "properties": { "Name": "Summit Leisure (KC) Limited", "Activity": "Adult Gaming Centre", "Address": "Summit Leisure, 65\/65A School Road, Sale", "Postcode": "M33 7YF", "Area name": "Trafford", "Area code": "E0800009", "marker-color": "#fc6721", "marker-size": "medium" }, "geometry": { "type": "Point", "coordinates": [ -2.323402, 53.425145 ] } }
]
}
