{
"type": "FeatureCollection",
"crs": { "type": "name", "properties": { "name": "urn:ogc:def:crs:OGC:1.3:CRS84" } },
"features": [
{ "type": "Feature", "properties": { "Name": "Bolton, Blackhorse Street", "Address": "52 Blackhorse Street, Bolton", "Postcode": "BL1 1SX", "Area name": "Bolton", "Area code": "E08000001", "marker-color": "#fc6721", "marker-size": "medium" }, "geometry": { "type": "Point", "coordinates": [ -2.47952008, 53.58449173 ] } },
{ "type": "Feature", "properties": { "Name": "Bury", "Address": "Silver Street, Bury", "Postcode": "BL9 0DP", "Area name": "Bury", "Area code": "E08000002", "marker-color": "#fc6721", "marker-size": "medium" }, "geometry": { "type": "Point", "coordinates": [ -2.30879998, 53.5931015 ] } },
{ "type": "Feature", "properties": { "Name": "Prestwich", "Address": "1 Rectory Lane, Prestwich, Manchester", "Postcode": "M25 1BP", "Area name": "Bury", "Area code": "E08000002", "marker-color": "#fc6721", "marker-size": "medium" }, "geometry": { "type": "Point", "coordinates": [ -2.30879998, 53.5931015 ] } },
{ "type": "Feature", "properties": { "Name": "Alexandra Park, Manchester", "Address": "91 Moss Lane East, Moss Side, Manchester", "Postcode": "M15 5JB", "Area name": "Manchester", "Area code": "E08000003", "marker-color": "#fc6721", "marker-size": "medium" }, "geometry": { "type": "Point", "coordinates": [ -2.23358989, 53.47008896 ] } },
{ "type": "Feature", "properties": { "Name": "Cheetham Hill", "Address": "36 Crescent Road, Manchester, Manchester", "Postcode": "M8 9DQ", "Area name": "Manchester", "Area code": "E08000003", "marker-color": "#fc6721", "marker-size": "medium" }, "geometry": { "type": "Point", "coordinates": [ -2.23358989, 53.47008896 ] } },
{ "type": "Feature", "properties": { "Name": "Didsbury", "Address": "Danesmoor Court, 95-97 Palatine Road, West Didsbury", "Postcode": "M20 3JQ", "Area name": "Manchester", "Area code": "E08000003", "marker-color": "#fc6721", "marker-size": "medium" }, "geometry": { "type": "Point", "coordinates": [ -2.23358989, 53.47008896 ] } },
{ "type": "Feature", "properties": { "Name": "Longsight", "Address": "123 Clarence Rd, Longsight, Manchester", "Postcode": "M13 0ZL", "Area name": "Manchester", "Area code": "E08000003", "marker-color": "#fc6721", "marker-size": "medium" }, "geometry": { "type": "Point", "coordinates": [ -2.23358989, 53.47008896 ] } },
{ "type": "Feature", "properties": { "Name": "Newton Heath", "Address": "1009 Oldham Road, Manchester", "Postcode": "M40 2EP", "Area name": "Manchester", "Area code": "E08000003", "marker-color": "#fc6721", "marker-size": "medium" }, "geometry": { "type": "Point", "coordinates": [ -2.23358989, 53.47008896 ] } },
{ "type": "Feature", "properties": { "Name": "Openshaw", "Address": "Cornwall Street, Openshaw, Manchester", "Postcode": "M11 2WR", "Area name": "Manchester", "Area code": "E08000003", "marker-color": "#fc6721", "marker-size": "medium" }, "geometry": { "type": "Point", "coordinates": [ -2.23358989, 53.47008896 ] } },
{ "type": "Feature", "properties": { "Name": "Rusholme", "Address": "96 Wilmslow Road, Rusholme, Manchester", "Postcode": "M14 5BJ", "Area name": "Manchester", "Area code": "E08000003", "marker-color": "#fc6721", "marker-size": "medium" }, "geometry": { "type": "Point", "coordinates": [ -2.23358989, 53.47008896 ] } },
{ "type": "Feature", "properties": { "Name": "Wythenshawe", "Address": "Forum Trust Complex, Forum Square, Wythenshawe", "Postcode": "M22 5RX", "Area name": "Manchester", "Area code": "E08000003", "marker-color": "#fc6721", "marker-size": "medium" }, "geometry": { "type": "Point", "coordinates": [ -2.23358989, 53.47008896 ] } },
{ "type": "Feature", "properties": { "Name": "Oldham", "Address": "Tweedale House, 75 Union Street, Oldham, Manchester", "Postcode": "OL1 1LH", "Area name": "Oldham", "Area code": "E08000004", "marker-color": "#fc6721", "marker-size": "medium" }, "geometry": { "type": "Point", "coordinates": [ -2.0527401, 53.55767822 ] } },
{ "type": "Feature", "properties": { "Name": "Heywood", "Address": "Taylor Street, Heywood, Lancs", "Postcode": "OL10 1ED", "Area name": "Rochdale", "Area code": "E08000005", "marker-color": "#fc6721", "marker-size": "medium" }, "geometry": { "type": "Point", "coordinates": [ -2.14784002, 53.60741043 ] } },
{ "type": "Feature", "properties": { "Name": "Middleton", "Address": "7 Oldham Road, Middleton, Lancashire", "Postcode": "M24 1BX", "Area name": "Rochdale", "Area code": "E08000005", "marker-color": "#fc6721", "marker-size": "medium" }, "geometry": { "type": "Point", "coordinates": [ -2.14784002, 53.60741043 ] } },
{ "type": "Feature", "properties": { "Name": "Rochdale", "Address": "2 Fleece Street, Rochdale", "Postcode": "OL16 1LT", "Area name": "Rochdale", "Area code": "E08000005", "marker-color": "#fc6721", "marker-size": "medium" }, "geometry": { "type": "Point", "coordinates": [ -2.14784002, 53.60741043 ] } },
{ "type": "Feature", "properties": { "Name": "Eccles", "Address": "Sentinel House, Monton Road, Eccles, Manchester", "Postcode": "M30 0NA", "Area name": "Salford", "Area code": "E08000006", "marker-color": "#fc6721", "marker-size": "medium" }, "geometry": { "type": "Point", "coordinates": [ -2.38485003, 53.47927094 ] } },
{ "type": "Feature", "properties": { "Name": "Irlam", "Address": "Irlam Library, Hurst Fold, Liverpool Road, Irlam", "Postcode": "M44 6FD", "Area name": "Salford", "Area code": "E08000006", "marker-color": "#fc6721", "marker-size": "medium" }, "geometry": { "type": "Point", "coordinates": [ -2.38485003, 53.47927094 ] } },
{ "type": "Feature", "properties": { "Name": "Salford", "Address": "2 Paddington Close, , Salford, Lancashire", "Postcode": "M6 5PL", "Area name": "Salford", "Area code": "E08000006", "marker-color": "#fc6721", "marker-size": "medium" }, "geometry": { "type": "Point", "coordinates": [ -2.38485003, 53.47927094 ] } },
{ "type": "Feature", "properties": { "Name": "Worsley", "Address": "5 Worsley Court, High Street, Walkden, Manchester", "Postcode": "M28 3AD", "Area name": "Salford", "Area code": "E08000006", "marker-color": "#fc6721", "marker-size": "medium" }, "geometry": { "type": "Point", "coordinates": [ -2.38485003, 53.47927094 ] } },
{ "type": "Feature", "properties": { "Name": "Stockport", "Address": "Wellington Street, Stockport, Cheshire", "Postcode": "SK1 3BE", "Area name": "Stockport", "Area code": "E08000007", "marker-color": "#fc6721", "marker-size": "medium" }, "geometry": { "type": "Point", "coordinates": [ -2.12467003, 53.39115906 ] } },
{ "type": "Feature", "properties": { "Name": "Ashton-Under-Lyne", "Address": "101 Old Street, Ashton-U-Lyne, Lancs", "Postcode": "OL6 6BJ", "Area name": "Tameside", "Area code": "E08000008", "marker-color": "#fc6721", "marker-size": "medium" }, "geometry": { "type": "Point", "coordinates": [ -2.0769999, 53.47866821 ] } },
{ "type": "Feature", "properties": { "Name": "Hyde", "Address": "New Beech Street, Hyde, Cheshire", "Postcode": "SK14 2LS", "Area name": "Tameside", "Area code": "E08000008", "marker-color": "#fc6721", "marker-size": "medium" }, "geometry": { "type": "Point", "coordinates": [ -2.0769999, 53.47866821 ] } },
{ "type": "Feature", "properties": { "Name": "Altrincham", "Address": "Roberts House, 80 Manchester Road, Altrincham", "Postcode": "WA14 4PU", "Area name": "Trafford", "Area code": "E08000009", "marker-color": "#fc6721", "marker-size": "medium" }, "geometry": { "type": "Point", "coordinates": [ -2.36572003, 53.4167099 ] } },
{ "type": "Feature", "properties": { "Name": "Stretford", "Address": "Stretford Mall, Chester Road, Stretford, Manchester", "Postcode": "M32 9ED", "Area name": "Trafford", "Area code": "E08000009", "marker-color": "#fc6721", "marker-size": "medium" }, "geometry": { "type": "Point", "coordinates": [ -2.36572003, 53.4167099 ] } },
{ "type": "Feature", "properties": { "Name": "Ashton-in-Makerfield", "Address": "17-19 Gerard Street, Ashton-in-Makerfield", "Postcode": "WN4 9AB", "Area name": "Wigan", "Area code": "E08000010", "marker-color": "#fc6721", "marker-size": "medium" }, "geometry": { "type": "Point", "coordinates": [ -2.57246995, 53.51445007 ] } },
{ "type": "Feature", "properties": { "Name": "Leigh", "Address": "2 - 10 Windermere Road, Leigh, Lancashire", "Postcode": "WN7 1UT", "Area name": "Wigan", "Area code": "E08000010", "marker-color": "#fc6721", "marker-size": "medium" }, "geometry": { "type": "Point", "coordinates": [ -2.57246995, 53.51445007 ] } },
{ "type": "Feature", "properties": { "Name": "Wigan", "Address": "Brocol House, 71-73 King Street, Wigan", "Postcode": "WN1 1EA", "Area name": "Wigan", "Area code": "E08000010", "marker-color": "#fc6721", "marker-size": "medium" }, "geometry": { "type": "Point", "coordinates": [ -2.57246995, 53.51445007 ] } }
]
}
